[
  {
    "category": "한식_일반",
    "name": "6000냥돌솥추어탕",
    "main_item": "돌솥추어탕",
    "price": "7,000",
    "phone": "044-864-2133",
    "address": "세종특별자치시 조치원읍 새내10길 61",
    "lat": 36.6008005980251,
    "lng": 127.301683744225,
    "region_1depth": "세종특별자치시",
    "region_2depth": ""
  },
  {
    "category": "한식_일반",
    "name": "가마솥 족발",
    "main_item": "청국장",
    "price": "7,000",
    "phone": "044-868-4546",
    "address": "세종특별자치시 도움8로 91 210호",
    "lat": 36.5041417354194,
    "lng": 127.27175210069,
    "region_1depth": "세종특별자치시",
    "region_2depth": ""
  },
  {
    "category": "한식_일반",
    "name": "가미갈비탕",
    "main_item": "우거지탕",
    "price": "7,000",
    "phone": "044-865-0079",
    "address": "세종특별자치시 다솜1로 113 1층",
    "lat": 36.5082927079838,
    "lng": 127.257248709811,
    "region_1depth": "세종특별자치시",
    "region_2depth": ""
  },
  {
    "category": "중식",
    "name": "꼬막짬뽕",
    "main_item": "유니자장",
    "price": "5,500",
    "phone": "044-865-0655",
    "address": "세종특별자치시 도움3로 105-6 2층",
    "lat": 36.5045900450719,
    "lng": 127.249051704513,
    "region_1depth": "세종특별자치시",
    "region_2depth": ""
  },
  {
    "category": "미용업",
    "name": "꿀벌머리",
    "main_item": "남성커트",
    "price": "8,000",
    "phone": "044-864-2447",
    "address": "세종특별자치시 다솜1로 184 103호",
    "lat": 36.5145788299978,
    "lng": 127.255934647848,
    "region_1depth": "세종특별자치시",
    "region_2depth": ""
  },
  {
    "category": "한식_육류",
    "name": "농부의한우",
    "main_item": "국밥",
    "price": "6,000",
    "phone": "044-866-1181",
    "address": "세종특별자치시 금남면 세종로 470 1층",
    "lat": 36.4608221175864,
    "lng": 127.27888584,
    "region_1depth": "세종특별자치시",
    "region_2depth": ""
  },
  {
    "category": "한식_일반",
    "name": "대교한우촌식당",
    "main_item": "삼겹살(300g)",
    "price": "15,000",
    "phone": "044-857-1162",
    "address": "세종특별자치시 장군면 장척로 408",
    "lat": 36.4973683037882,
    "lng": 127.205933109808,
    "region_1depth": "세종특별자치시",
    "region_2depth": ""
  },
  {
    "category": "한식_일반",
    "name": "대신식당",
    "main_item": "김치찌개",
    "price": "8,000",
    "phone": "044-867-7127",
    "address": "세종특별자치시 연서면 당산로 349",
    "lat": 36.562836822603,
    "lng": 127.282636054749,
    "region_1depth": "세종특별자치시",
    "region_2depth": ""
  },
  {
    "category": "한식_일반",
    "name": "도담얼큰이 칼국수",
    "main_item": "칼국수",
    "price": "5,900",
    "phone": "044-867-0309",
    "address": "세종특별자치시 보듬4로 9 1동 2층 29호(도담동 카림애비뉴)",
    "lat": 36.5131131389938,
    "lng": 127.260704077872,
    "region_1depth": "세종특별자치시",
    "region_2depth": ""
  },
  {
    "category": "한식_일반",
    "name": "뜸복골우렁쌈밥",
    "main_item": "우렁쌈밥",
    "price": "10,000",
    "phone": "044-865-6213",
    "address": "세종특별자치시 연서면 대첩로 200",
    "lat": 36.5937548512493,
    "lng": 127.275093482742,
    "region_1depth": "세종특별자치시",
    "region_2depth": ""
  },
  {
    "category": "한식_일반",
    "name": "만남치킨호프",
    "main_item": "후라이드치킨",
    "price": "17,000",
    "phone": "044-554-8523",
    "address": "세종특별자치시 소정면 소정구길172",
    "lat": 36.719398669213,
    "lng": 127.157079225618,
    "region_1depth": "세종특별자치시",
    "region_2depth": ""
  },
  {
    "category": "중식",
    "name": "만리장성",
    "main_item": "짜장면",
    "price": "6,000",
    "phone": "044-868-5400",
    "address": "세종특별자치시 조치원읍 충현로 91 101호 만리장성",
    "lat": 36.596685256292,
    "lng": 127.295394696249,
    "region_1depth": "세종특별자치시",
    "region_2depth": ""
  },
  {
    "category": "한식_일반",
    "name": "맛있는 수다",
    "main_item": "고기만두(8개)",
    "price": "5,000",
    "phone": "044-867-4967",
    "address": "세종특별자치시 조치원읍 새내10길 41 맛있는 수다",
    "lat": 36.6006451799859,
    "lng": 127.300531090282,
    "region_1depth": "세종특별자치시",
    "region_2depth": ""
  },
  {
    "category": "한식_육류",
    "name": "명품한우타운",
    "main_item": "한우탕",
    "price": "6,000",
    "phone": "044-866-6660",
    "address": "세종특별자치시 금남면 금남구즉로 110-3",
    "lat": 36.4730253891059,
    "lng": 127.290692559985,
    "region_1depth": "세종특별자치시",
    "region_2depth": ""
  },
  {
    "category": "중식",
    "name": "모란반점",
    "main_item": "자장면",
    "price": "5,500",
    "phone": "044-867-2477",
    "address": "세종특별자치시 보듬3로 104-11 202호(아름동, 행복프라자)",
    "lat": 36.5123101279615,
    "lng": 127.248844235046,
    "region_1depth": "세종특별자치시",
    "region_2depth": ""
  },
  {
    "category": "한식_일반",
    "name": "무진장 황태칼국수",
    "main_item": "황태얼큰이칼국수+보리밥",
    "price": "7,000",
    "phone": "044-866-7151",
    "address": "세종특별자치시 금남면 용포로 74 금남면 용포로74",
    "lat": 36.4651078017756,
    "lng": 127.281290524669,
    "region_1depth": "세종특별자치시",
    "region_2depth": ""
  },
  {
    "category": "한식_일반",
    "name": "미향아구찜",
    "main_item": "아구찜(中)",
    "price": "35,000",
    "phone": "044-866-3173",
    "address": "세종특별자치시 조치원읍 문화4길 1",
    "lat": 36.6001251958264,
    "lng": 127.289325952757,
    "region_1depth": "세종특별자치시",
    "region_2depth": ""
  },
  {
    "category": "한식_육류",
    "name": "복조갈비",
    "main_item": "육개장",
    "price": "8,000",
    "phone": "044-862-3890",
    "address": "세종특별자치시 조치원읍 새내12길 51 1층",
    "lat": 36.6026560183833,
    "lng": 127.300695361905,
    "region_1depth": "세종특별자치시",
    "region_2depth": ""
  },
  {
    "category": "한식_일반",
    "name": "부부정육식당",
    "main_item": "한우우족보양탕",
    "price": "13,000",
    "phone": "044-277-4141",
    "address": "세종특별자치시 부강면 부촌길 26",
    "lat": 36.5287036608193,
    "lng": 127.367748224183,
    "region_1depth": "세종특별자치시",
    "region_2depth": ""
  },
  {
    "category": "중식",
    "name": "삼성반점",
    "main_item": "탕수육+짜장면",
    "price": "15,000",
    "phone": "044-866-2228",
    "address": "세종특별자치시 조치원읍 세종로 2394 삼성반점",
    "lat": 36.6009613987959,
    "lng": 127.290348913373,
    "region_1depth": "세종특별자치시",
    "region_2depth": ""
  },
  {
    "category": "세탁업",
    "name": "세종세탁 명품",
    "main_item": "이불",
    "price": "10,000",
    "phone": "044-864-2226",
    "address": "세종특별자치시 만남로 190 상가 203호",
    "lat": 36.5170635630589,
    "lng": 127.241017466402,
    "region_1depth": "세종특별자치시",
    "region_2depth": ""
  },
  {
    "category": "이용업",
    "name": "송덕이용원",
    "main_item": "조발",
    "price": "10,000",
    "phone": "044-867-1488",
    "address": "세종특별자치시 전동면 금이로 266",
    "lat": 36.6302394683097,
    "lng": 127.260476864844,
    "region_1depth": "세종특별자치시",
    "region_2depth": ""
  },
  {
    "category": "양식",
    "name": "스페이스",
    "main_item": "갈릭누들파스타",
    "price": "9,900",
    "phone": "044-863-1122",
    "address": "세종특별자치시 한누리대로 311 110호~111호",
    "lat": 36.492070617908,
    "lng": 127.255836690696,
    "region_1depth": "세종특별자치시",
    "region_2depth": ""
  },
  {
    "category": "한식_일반",
    "name": "시장감자탕",
    "main_item": "뼈해장국",
    "price": "7,000",
    "phone": "044-862-6513",
    "address": "세종특별자치시 조치원읍 조치원로 30-8 101호",
    "lat": 36.6012589737358,
    "lng": 127.300019359062,
    "region_1depth": "세종특별자치시",
    "region_2depth": ""
  },
  {
    "category": "중식",
    "name": "십리향 양꼬치&훠궈",
    "main_item": "양꼬치(10개)",
    "price": "13,000",
    "phone": "044-864-6724",
    "address": "세종특별자치시 조치원읍 행복길 12 2층",
    "lat": 36.6031365461906,
    "lng": 127.291134063651,
    "region_1depth": "세종특별자치시",
    "region_2depth": ""
  },
  {
    "category": "한식_육류",
    "name": "엉클생고기(보람동)",
    "main_item": "파불고기+공기밥된장찌개(점심특선)",
    "price": "10,000",
    "phone": "044-868-9242",
    "address": "세종특별자치시 호려울로 29 207호",
    "lat": 36.4779099639115,
    "lng": 127.290238012216,
    "region_1depth": "세종특별자치시",
    "region_2depth": ""
  },
  {
    "category": "양식",
    "name": "연와종",
    "main_item": "가슴살가스 정식",
    "price": "11,000",
    "phone": "044-864-6789",
    "address": "세종특별자치시 나성북로 30 (나성동) 2층 277호",
    "lat": 36.4890737483121,
    "lng": 127.260245278663,
    "region_1depth": "세종특별자치시",
    "region_2depth": ""
  },
  {
    "category": "한식_일반",
    "name": "옛날통닭",
    "main_item": "옛날통닭",
    "price": "7,500",
    "phone": "",
    "address": "세종특별자치시 조치원읍 조치원6길 16 조치원6길 16",
    "lat": 36.6009257081913,
    "lng": 127.299491553093,
    "region_1depth": "세종특별자치시",
    "region_2depth": ""
  },
  {
    "category": "한식_면류",
    "name": "유정칼국수",
    "main_item": "돌솥비빔밥",
    "price": "8,000",
    "phone": "044-857-5999",
    "address": "세종특별자치시 장군면 장척로 417-1",
    "lat": 36.4980690848686,
    "lng": 127.206482661374,
    "region_1depth": "세종특별자치시",
    "region_2depth": ""
  },
  {
    "category": "기타비요식업",
    "name": "자연셀프 세차장",
    "main_item": "고압세척(2분30초)",
    "price": "1,000",
    "phone": "",
    "address": "세종특별자치시 금남면 용포로 32",
    "lat": 36.4613848948516,
    "lng": 127.280691708831,
    "region_1depth": "세종특별자치시",
    "region_2depth": ""
  },
  {
    "category": "기타요식업",
    "name": "정브레드",
    "main_item": "찹쌀 도너츠",
    "price": "1,000",
    "phone": "044-864-3311",
    "address": "세종특별자치시 새롬중앙1로 13 (새롬동, 새뜸마을6단지) 상가",
    "lat": 36.4837253610027,
    "lng": 127.249882017009,
    "region_1depth": "세종특별자치시",
    "region_2depth": ""
  },
  {
    "category": "한식_일반",
    "name": "집밥한식뷔페",
    "main_item": "한식뷔페",
    "price": "6,000",
    "phone": "0507-1411-3828",
    "address": "세종특별자치시 부강면 부강외천로 139 집밥한식뷔페",
    "lat": 36.5281160906291,
    "lng": 127.382482500019,
    "region_1depth": "세종특별자치시",
    "region_2depth": ""
  },
  {
    "category": "한식_육류",
    "name": "침산똥돼지",
    "main_item": "오삼불고기(점심특선)",
    "price": "9,000",
    "phone": "044-867-3391",
    "address": "세종특별자치시 조치원읍 행복6길 40",
    "lat": 36.606084930284,
    "lng": 127.293726259292,
    "region_1depth": "세종특별자치시",
    "region_2depth": ""
  },
  {
    "category": "한식_일반",
    "name": "큰나무식당",
    "main_item": "보리밥",
    "price": "8,000",
    "phone": "044-866-4924",
    "address": "세종특별자치시 금남면 대평시장2길 6 1층",
    "lat": 36.4658590703269,
    "lng": 127.282333172075,
    "region_1depth": "세종특별자치시",
    "region_2depth": ""
  },
  {
    "category": "한식_일반",
    "name": "한아름식당",
    "main_item": "된장찌개",
    "price": "8,000",
    "phone": "044-868-5005",
    "address": "세종특별자치시 연동면 태산로 60 청정상가 102호",
    "lat": 36.5290966808229,
    "lng": 127.351449156014,
    "region_1depth": "세종특별자치시",
    "region_2depth": ""
  },
  {
    "category": "한식_면류",
    "name": "행복한 약초칼국수",
    "main_item": "칼국수",
    "price": "5,000",
    "phone": "044-862-1128",
    "address": "세종특별자치시 보듬3로 8-15 1층 102호(도담동, 해피라움5)",
    "lat": 36.5138053791972,
    "lng": 127.258063600072,
    "region_1depth": "세종특별자치시",
    "region_2depth": ""
  },
  {
    "category": "한식_일반",
    "name": "행복한곰탕",
    "main_item": "곰탕",
    "price": "9,000",
    "phone": "",
    "address": "세종특별자치시 절재로 194 (어진동) 중앙타운 317호",
    "lat": 36.5083073428532,
    "lng": 127.262445014563,
    "region_1depth": "세종특별자치시",
    "region_2depth": ""
  },
  {
    "category": "한식_일반",
    "name": "황인진대구탕대구찜",
    "main_item": "대구탕",
    "price": "11,000",
    "phone": "055-865-0007",
    "address": "세종특별자치시 한누리대로 291 (나성동) 1층 118호",
    "lat": 36.4902093057163,
    "lng": 127.256033911695,
    "region_1depth": "세종특별자치시",
    "region_2depth": ""
  }
]