[
  {
    "category": "한식_일반",
    "name": "2교시간식시간",
    "main_item": "돈가스",
    "price": "9,000",
    "phone": "043-288-7473",
    "address": "충청북도 청주시 서원구 서원남로 62 (모충동) 1층",
    "lat": 36.622448530115,
    "lng": 127.481235595086,
    "region_1depth": "충북",
    "region_2depth": "청주시 서원구"
  },
  {
    "category": "중식",
    "name": "357짜장 짬뽕",
    "main_item": "짜장면",
    "price": "5,000",
    "phone": "043-225-3357",
    "address": "충청북도 청주시 청원구 내덕로 19 1층(내덕동)",
    "lat": 36.6565710804677,
    "lng": 127.482796815455,
    "region_1depth": "충북",
    "region_2depth": "청주시 청원구"
  },
  {
    "category": "한식_일반",
    "name": "9.9추어탕",
    "main_item": "추어탕",
    "price": "10,000",
    "phone": "043-256-9900",
    "address": "충청북도 청주시 상당구 남사로140번길 33 (남문로1가) 1층",
    "lat": 36.6306036386635,
    "lng": 127.490347543569,
    "region_1depth": "충북",
    "region_2depth": "청주시 상당구"
  },
  {
    "category": "미용업",
    "name": "가든미용실",
    "main_item": "커트",
    "price": "5,000",
    "phone": "043-223-8097",
    "address": "충청북도 청주시 상당구 청남로2197번길 12 (석교동)",
    "lat": 36.6278271128724,
    "lng": 127.490164264559,
    "region_1depth": "충북",
    "region_2depth": "청주시 상당구"
  },
  {
    "category": "한식_일반",
    "name": "가이오청년밥상",
    "main_item": "김치찌개",
    "price": "3,000",
    "phone": "043-271-1009",
    "address": "충청북도 청주시 서원구 사직대로164번길 27 (사창동) 1층",
    "lat": 36.6339340929956,
    "lng": 127.465556001249,
    "region_1depth": "충북",
    "region_2depth": "청주시 서원구"
  },
  {
    "category": "한식_육류",
    "name": "감촌삼겹살",
    "main_item": "생삼겹살(180g)",
    "price": "10,000",
    "phone": "043-211-2472",
    "address": "충청북도 청주시 청원구 안덕벌로39번길 43-1 (내덕동)",
    "lat": 36.6591837012203,
    "lng": 127.491676959315,
    "region_1depth": "충북",
    "region_2depth": "청주시 청원구"
  },
  {
    "category": "한식_일반",
    "name": "개미돈까스",
    "main_item": "돈가스",
    "price": "8,000",
    "phone": "043-223-7456",
    "address": "충청북도 청주시 상당구 사직대로361번길 54-11 (북문로2가)",
    "lat": 36.6394461100471,
    "lng": 127.487984622146,
    "region_1depth": "충북",
    "region_2depth": "청주시 상당구"
  },
  {
    "category": "한식_일반",
    "name": "고가네왕돈까스",
    "main_item": "왕돈까스",
    "price": "8,000",
    "phone": "043-255-1855",
    "address": "충청북도 청주시 청원구 중앙로 135-2 (우암동)",
    "lat": 36.6493944042944,
    "lng": 127.487734476041,
    "region_1depth": "충북",
    "region_2depth": "청주시 청원구"
  },
  {
    "category": "한식_일반",
    "name": "고가네행복밥상",
    "main_item": "동태찌개",
    "price": "8,000",
    "phone": "043-285-6878",
    "address": "충청북도 청주시 서원구 수곡로113번길 11 (수곡동) 1층",
    "lat": 36.6203686095082,
    "lng": 127.470135184765,
    "region_1depth": "충북",
    "region_2depth": "청주시 서원구"
  },
  {
    "category": "한식_일반",
    "name": "고드미손두부",
    "main_item": "국산콩순두부",
    "price": "9,000",
    "phone": "043-284-0944",
    "address": "충청북도 청주시 흥덕구 서현로 12-31 (가경동)",
    "lat": 36.6159288866195,
    "lng": 127.424534520608,
    "region_1depth": "충북",
    "region_2depth": "청주시 흥덕구"
  },
  {
    "category": "미용업",
    "name": "고려미용실",
    "main_item": "커트",
    "price": "7,000",
    "phone": "043-274-6207",
    "address": "충청북도 청주시 서원구 모충로 98-1 (모충동)",
    "lat": 36.6277882283516,
    "lng": 127.474142701453,
    "region_1depth": "충북",
    "region_2depth": "청주시 서원구"
  },
  {
    "category": "한식_일반",
    "name": "괴산식당",
    "main_item": "청국장",
    "price": "7,000",
    "phone": "043-285-6045",
    "address": "충청북도 청주시 서원구 매봉로76번길 30 (수곡동) 1층",
    "lat": 36.6168542670017,
    "lng": 127.480039712033,
    "region_1depth": "충북",
    "region_2depth": "청주시 서원구"
  },
  {
    "category": "한식_일반",
    "name": "국가대표",
    "main_item": "순두부찌개",
    "price": "6,000",
    "phone": "",
    "address": "충청북도 청주시 청원구 수암로88번길 5-1 (우암동)",
    "lat": 36.6501462697666,
    "lng": 127.493736056844,
    "region_1depth": "충북",
    "region_2depth": "청주시 청원구"
  },
  {
    "category": "한식_일반",
    "name": "국수좋은날",
    "main_item": "잔치국수",
    "price": "5,000",
    "phone": "043-291-5962",
    "address": "충청북도 청주시 서원구 청남로 2084 (수곡동) 1층",
    "lat": 36.6180036392326,
    "lng": 127.487105958761,
    "region_1depth": "충북",
    "region_2depth": "청주시 서원구"
  },
  {
    "category": "기타요식업",
    "name": "굼드림",
    "main_item": "아메리카노",
    "price": "2,000",
    "phone": "",
    "address": "충청북도 청주시 상당구 상당로69번길 15 (북문로1가) 대신증권 1층",
    "lat": 36.6342570934269,
    "lng": 127.489666175368,
    "region_1depth": "충북",
    "region_2depth": "청주시 상당구"
  },
  {
    "category": "한식_면류",
    "name": "그레이스 칼국수",
    "main_item": "칼국수",
    "price": "7,000",
    "phone": "043-288-1932",
    "address": "충청북도 청주시 상당구 남일면 효촌송암길 18-11 1층 103호",
    "lat": 36.5891456071857,
    "lng": 127.50987277003,
    "region_1depth": "충북",
    "region_2depth": "청주시 상당구"
  },
  {
    "category": "한식_일반",
    "name": "금와가든",
    "main_item": "한식뷔페",
    "price": "6,000",
    "phone": "043-211-8660",
    "address": "충청북도 청주시 청원구 팔결로 66 (주중동)",
    "lat": 36.6890862826954,
    "lng": 127.482711215662,
    "region_1depth": "충북",
    "region_2depth": "청주시 청원구"
  },
  {
    "category": "한식_일반",
    "name": "기쁨가득 엄마밥상",
    "main_item": "된장찌개",
    "price": "6,000",
    "phone": "",
    "address": "충청북도 청주시 흥덕구 사운로190번길 1 (운천동)",
    "lat": 36.6461819553645,
    "lng": 127.47854189212,
    "region_1depth": "충북",
    "region_2depth": "청주시 흥덕구"
  },
  {
    "category": "한식_일반",
    "name": "김정현밥&면연구소1997",
    "main_item": "물냉면",
    "price": "6,000",
    "phone": "",
    "address": "충청북도 청주시 상당구 상당로25번길 20-2 (남문로1가)",
    "lat": 36.6304801846552,
    "lng": 127.490062665113,
    "region_1depth": "충북",
    "region_2depth": "청주시 상당구"
  },
  {
    "category": "미용업",
    "name": "김진헤어",
    "main_item": "커트",
    "price": "10,000",
    "phone": "043-239-4129",
    "address": "충청북도 청주시 흥덕구 증안로 44 (복대동) 2층",
    "lat": 36.6365231134074,
    "lng": 127.428127914284,
    "region_1depth": "충북",
    "region_2depth": "청주시 흥덕구"
  },
  {
    "category": "한식_일반",
    "name": "꼬마김밥",
    "main_item": "꼬마김밥(10줄)",
    "price": "6,000",
    "phone": "043-211-9935",
    "address": "충청북도 청주시 서원구 용호로15번길 21 (성화동) 1층",
    "lat": 36.6136529360638,
    "lng": 127.445841897813,
    "region_1depth": "충북",
    "region_2depth": "청주시 서원구"
  },
  {
    "category": "한식_육류",
    "name": "꽃돼지댁",
    "main_item": "1인보쌈정식",
    "price": "10,000",
    "phone": "043-295-3423",
    "address": "충청북도 청주시 서원구 서원남로20번길 4 (모충동) 1층",
    "lat": 36.6220029800205,
    "lng": 127.48577350997,
    "region_1depth": "충북",
    "region_2depth": "청주시 서원구"
  },
  {
    "category": "한식_일반",
    "name": "꽃재약선보쌈족발",
    "main_item": "족발(대)",
    "price": "40,000",
    "phone": "043-238-7979",
    "address": "충청북도 청주시 흥덕구 풍년로 80 (가경동) 가경동 1503-1",
    "lat": 36.6203492623501,
    "lng": 127.437426968139,
    "region_1depth": "충북",
    "region_2depth": "청주시 흥덕구"
  },
  {
    "category": "한식_면류",
    "name": "나누리장터",
    "main_item": "장터칼국수",
    "price": "4,000",
    "phone": "",
    "address": "충청북도 청주시 상당구 쇠내로 69-1 (금천동)",
    "lat": 36.6249932875208,
    "lng": 127.501521214447,
    "region_1depth": "충북",
    "region_2depth": "청주시 상당구"
  },
  {
    "category": "한식_일반",
    "name": "나성불고기",
    "main_item": "된장찌개",
    "price": "6,000",
    "phone": "043-253-3511",
    "address": "충청북도 청주시 청원구 향군로 51 (우암동)",
    "lat": 36.6501623292297,
    "lng": 127.485399652549,
    "region_1depth": "충북",
    "region_2depth": "청주시 청원구"
  },
  {
    "category": "한식_육류",
    "name": "남매식당",
    "main_item": "삼겹살(200g)",
    "price": "14,000",
    "phone": "043-264-2234",
    "address": "충청북도 청주시 흥덕구 운천로3번길 8 (운천동)",
    "lat": 36.650908008547,
    "lng": 127.474576628642,
    "region_1depth": "충북",
    "region_2depth": "청주시 흥덕구"
  },
  {
    "category": "한식_일반",
    "name": "남원추어탕",
    "main_item": "찰솥밥추어탕",
    "price": "10,000",
    "phone": "043-236-8959",
    "address": "충청북도 청주시 흥덕구 풍산로25번길 38-1 (가경동)",
    "lat": 36.6280914668214,
    "lng": 127.432330074476,
    "region_1depth": "충북",
    "region_2depth": "청주시 흥덕구"
  },
  {
    "category": "한식_육류",
    "name": "남이네숯불구이",
    "main_item": "소갈비살(150g)",
    "price": "13,000",
    "phone": "043-211-9258",
    "address": "충청북도 청주시 청원구 내수읍 은곡묵방길 28 (덕일한마음아파트) (남이네숯불구이)",
    "lat": 36.7093036222346,
    "lng": 127.525664435964,
    "region_1depth": "충북",
    "region_2depth": "청주시 청원구"
  },
  {
    "category": "한식_일반",
    "name": "내고향맛집",
    "main_item": "청국장",
    "price": "7,000",
    "phone": "043-276-4414",
    "address": "충청북도 청주시 흥덕구 운천로3번길 2 (운천동)",
    "lat": 36.6506697774039,
    "lng": 127.474773448765,
    "region_1depth": "충북",
    "region_2depth": "청주시 흥덕구"
  },
  {
    "category": "미용업",
    "name": "내수시민미용실",
    "main_item": "커트",
    "price": "6,000",
    "phone": "043-214-5124",
    "address": "충청북도 청주시 청원구 내수읍 내수로 729-2",
    "lat": 36.7267310217428,
    "lng": 127.536102873142,
    "region_1depth": "충북",
    "region_2depth": "청주시 청원구"
  },
  {
    "category": "한식_일반",
    "name": "네모샘밥집",
    "main_item": "보리밥",
    "price": "6,000",
    "phone": "",
    "address": "충청북도 청주시 청원구 상당로232번길 34 (우암동)",
    "lat": 36.6490631704445,
    "lng": 127.491150861159,
    "region_1depth": "충북",
    "region_2depth": "청주시 청원구"
  },
  {
    "category": "한식_육류",
    "name": "늘푸른삼겹쌈",
    "main_item": "항정살(200g)",
    "price": "16,000",
    "phone": "043-235-9950",
    "address": "충청북도 청주시 흥덕구 서현중로28번길 12 (가경동)",
    "lat": 36.6210348153318,
    "lng": 127.430332302476,
    "region_1depth": "충북",
    "region_2depth": "청주시 흥덕구"
  },
  {
    "category": "한식_일반",
    "name": "다정순대국",
    "main_item": "순대국밥",
    "price": "8,000",
    "phone": "043-274-1954",
    "address": "충청북도 청주시 청원구 직지대로 844-2 (우암동)",
    "lat": 36.648645668946,
    "lng": 127.484818117501,
    "region_1depth": "충북",
    "region_2depth": "청주시 청원구"
  },
  {
    "category": "기타요식업",
    "name": "달시쓰",
    "main_item": "아메리카노",
    "price": "2,000",
    "phone": "",
    "address": "충청북도 청주시 서원구 창직로 104 (사직동) 1층",
    "lat": 36.6301769663611,
    "lng": 127.473230251358,
    "region_1depth": "충북",
    "region_2depth": "청주시 서원구"
  },
  {
    "category": "한식_일반",
    "name": "닭이야",
    "main_item": "닭갈비(250g)",
    "price": "12,000",
    "phone": "043-237-7787",
    "address": "충청북도 청주시 흥덕구 서경로16번길 13 (가경동)",
    "lat": 36.6169505130677,
    "lng": 127.442173635635,
    "region_1depth": "충북",
    "region_2depth": "청주시 흥덕구"
  },
  {
    "category": "한식_육류",
    "name": "대가",
    "main_item": "생삼겹살(200g)",
    "price": "13,000",
    "phone": "0507-1357-9660",
    "address": "충청북도 청주시 상당구 무심동로372번길 37 1층(서문동)",
    "lat": 36.633972721175,
    "lng": 127.48589671516,
    "region_1depth": "충북",
    "region_2depth": "청주시 상당구"
  },
  {
    "category": "한식_육류",
    "name": "대길식당",
    "main_item": "한우내장탕(보통)",
    "price": "7,000",
    "phone": "049-271-0284",
    "address": "충청북도 청주시 서원구 창신로 34-1 (사창동) 1층",
    "lat": 36.6339616574522,
    "lng": 127.464796976715,
    "region_1depth": "충북",
    "region_2depth": "청주시 서원구"
  },
  {
    "category": "중식",
    "name": "대동관",
    "main_item": "자장면",
    "price": "4,000",
    "phone": "043-214-0020",
    "address": "충청북도 청주시 청원구 내수읍 내수로 731-2",
    "lat": 36.7268063827084,
    "lng": 127.536156682424,
    "region_1depth": "충북",
    "region_2depth": "청주시 청원구"
  },
  {
    "category": "한식_육류",
    "name": "대박삼겹살",
    "main_item": "삼겹살(200g)",
    "price": "13,000",
    "phone": "043-224-3992",
    "address": "충청북도 청주시 상당구 남사로 89번길 56 (서문동)",
    "lat": 36.6348908301961,
    "lng": 127.485643972231,
    "region_1depth": "충북",
    "region_2depth": "청주시 상당구"
  },
  {
    "category": "한식_일반",
    "name": "대복분식",
    "main_item": "된장찌개",
    "price": "7,000",
    "phone": "043-236-3142",
    "address": "충청북도 청주시 흥덕구 강내면 태성탑연로 454-1 주2동 1층",
    "lat": 36.622799241184,
    "lng": 127.358816041898,
    "region_1depth": "충북",
    "region_2depth": "청주시 흥덕구"
  },
  {
    "category": "한식_일반",
    "name": "대선집",
    "main_item": "돌솥제육정식",
    "price": "10,000",
    "phone": "043-233-2212",
    "address": "충청북도 청주시 서원구 구룡산로51번다길 4 (성화동) 1층",
    "lat": 36.615134214336,
    "lng": 127.452251676425,
    "region_1depth": "충북",
    "region_2depth": "청주시 서원구"
  },
  {
    "category": "한식_일반",
    "name": "대성식당",
    "main_item": "가정식백반",
    "price": "6,000",
    "phone": "043-258-1345",
    "address": "충청북도 청주시 상당구 상당로186번길 17 (수동) (대성식당)",
    "lat": 36.6449483828739,
    "lng": 127.490685370086,
    "region_1depth": "충북",
    "region_2depth": "청주시 상당구"
  },
  {
    "category": "한식_일반",
    "name": "대운분식",
    "main_item": "콩나물밥",
    "price": "6,000",
    "phone": "043-260-0667",
    "address": "충청북도 청주시 흥덕구 옥산면 청주역로 654",
    "lat": 36.6654960294927,
    "lng": 127.374242450261,
    "region_1depth": "충북",
    "region_2depth": "청주시 흥덕구"
  },
  {
    "category": "미용업",
    "name": "더 맨",
    "main_item": "커트",
    "price": "10,000",
    "phone": "043-214-2500",
    "address": "충청북도 청주시 청원구 율봉로 258 (율량동)",
    "lat": 36.6667034133353,
    "lng": 127.497208816079,
    "region_1depth": "충북",
    "region_2depth": "청주시 청원구"
  },
  {
    "category": "미용업",
    "name": "더핸섬가경점",
    "main_item": "커트",
    "price": "11,000",
    "phone": "",
    "address": "충청북도 청주시 흥덕구 서경로 28 (가경동) 1층",
    "lat": 36.6179120947712,
    "lng": 127.442978850804,
    "region_1depth": "충북",
    "region_2depth": "청주시 흥덕구"
  },
  {
    "category": "한식_일반",
    "name": "덤블식당",
    "main_item": "된장찌개",
    "price": "7,000",
    "phone": "043-257-2237",
    "address": "충청북도 청주시 청원구 향군로31번길 32 (우암동)",
    "lat": 36.6477777347953,
    "lng": 127.485430090266,
    "region_1depth": "충북",
    "region_2depth": "청주시 청원구"
  },
  {
    "category": "한식_일반",
    "name": "도니수제돈까스",
    "main_item": "등심돈까스정식",
    "price": "6,000",
    "phone": "043-277-8230",
    "address": "충청북도 청주시 서원구 호국로 99 (사직동) 1층",
    "lat": 36.6368769034567,
    "lng": 127.476227368658,
    "region_1depth": "충북",
    "region_2depth": "청주시 서원구"
  },
  {
    "category": "한식_일반",
    "name": "도토리명가",
    "main_item": "도토리묵밥",
    "price": "7,000",
    "phone": "",
    "address": "충청북도 청주시 흥덕구 흥덕로162번길 13 (운천동)",
    "lat": 36.6476629164762,
    "lng": 127.477294311131,
    "region_1depth": "충북",
    "region_2depth": "청주시 흥덕구"
  },
  {
    "category": "한식_일반",
    "name": "동의명가 뼈해장국,순대국,감자탕",
    "main_item": "순대국밥",
    "price": "6,900",
    "phone": "",
    "address": "충청북도 청주시 상당구 무심동로392번길 4 (서문동) 1층",
    "lat": 36.6354992955714,
    "lng": 127.484974569684,
    "region_1depth": "충북",
    "region_2depth": "청주시 상당구"
  },
  {
    "category": "한식_육류",
    "name": "돼지마을",
    "main_item": "삼겹살(200g)",
    "price": "13,000",
    "phone": "043-212-3801",
    "address": "충청북도 청주시 청원구 오창읍 오창시내1길 51",
    "lat": 36.7420155236819,
    "lng": 127.459257970092,
    "region_1depth": "충북",
    "region_2depth": "청주시 청원구"
  },
  {
    "category": "한식_육류",
    "name": "돼풍이국내산생고기",
    "main_item": "삼겹살(150g)",
    "price": "9,000",
    "phone": "043-211-5959",
    "address": "충청북도 청주시 청원구 율봉로94번길 27 (율량동)",
    "lat": 36.6654896584325,
    "lng": 127.480643814831,
    "region_1depth": "충북",
    "region_2depth": "청주시 청원구"
  },
  {
    "category": "한식_육류",
    "name": "두릅소한우",
    "main_item": "한우등심(100g)",
    "price": "15,000",
    "phone": "043-297-7788",
    "address": "충청북도 청주시 서원구 산미로 146 (산남동) 1층",
    "lat": 36.6088760646382,
    "lng": 127.475981048592,
    "region_1depth": "충북",
    "region_2depth": "청주시 서원구"
  },
  {
    "category": "한식_일반",
    "name": "또또와식당",
    "main_item": "순두부찌개",
    "price": "6,000",
    "phone": "",
    "address": "충청북도 청주시 서원구 내수동로108번길 43 (사창동) 1층",
    "lat": 36.6322599246041,
    "lng": 127.457731583093,
    "region_1depth": "충북",
    "region_2depth": "청주시 서원구"
  },
  {
    "category": "중식",
    "name": "럭키마라탕 양꼬치",
    "main_item": "마라탕(100g)",
    "price": "1,800",
    "phone": "",
    "address": "충청북도 청주시 서원구 서원남로 27-1 (모충동) 1층",
    "lat": 36.6223397077503,
    "lng": 127.484628848301,
    "region_1depth": "충북",
    "region_2depth": "청주시 서원구"
  },
  {
    "category": "한식_육류",
    "name": "마당돌판삼겹살",
    "main_item": "삼겹살(200g)",
    "price": "13,000",
    "phone": "043-266-1316",
    "address": "충청북도 청주시 흥덕구 덕암로24번길 37 (봉명동) (마당돌판삼겹살)",
    "lat": 36.65129179561,
    "lng": 127.456900200292,
    "region_1depth": "충북",
    "region_2depth": "청주시 흥덕구"
  },
  {
    "category": "한식_일반",
    "name": "마루왕족발",
    "main_item": "왕족발(중)",
    "price": "27,000",
    "phone": "043-276-3441",
    "address": "충청북도 청주시 서원구 신화로 43 (성화동) 1층",
    "lat": 36.6185244623286,
    "lng": 127.455066284739,
    "region_1depth": "충북",
    "region_2depth": "청주시 서원구"
  },
  {
    "category": "중식",
    "name": "마신네짜장",
    "main_item": "짜장면",
    "price": "5,000",
    "phone": "043-262-0789",
    "address": "충청북도 청주시 서원구 봉명로 236 (사창동) 1층",
    "lat": 36.6396967550817,
    "lng": 127.467641311153,
    "region_1depth": "충북",
    "region_2depth": "청주시 서원구"
  },
  {
    "category": "한식_일반",
    "name": "만나김치식당",
    "main_item": "백반",
    "price": "6,000",
    "phone": "043-295-2366",
    "address": "충청북도 청주시 서원구 남이면 양촌2길 12 (남이면)",
    "lat": 36.5913278282441,
    "lng": 127.468315373553,
    "region_1depth": "충북",
    "region_2depth": "청주시 서원구"
  },
  {
    "category": "중식",
    "name": "만리장성",
    "main_item": "짬뽕",
    "price": "8,000",
    "phone": "0507-1440-7787",
    "address": "충청북도 청주시 흥덕구 덕암로 2 (봉명동) 봉명동 2803",
    "lat": 36.6525501507623,
    "lng": 127.454326660873,
    "region_1depth": "충북",
    "region_2depth": "청주시 흥덕구"
  },
  {
    "category": "중식",
    "name": "만성각",
    "main_item": "짜장면",
    "price": "6,000",
    "phone": "043-237-1988",
    "address": "충청북도 청주시 흥덕구 경산로 40 (가경동) 가경동 412-6",
    "lat": 36.6242462843394,
    "lng": 127.436620018754,
    "region_1depth": "충북",
    "region_2depth": "청주시 흥덕구"
  },
  {
    "category": "한식_일반",
    "name": "맘이가",
    "main_item": "백반",
    "price": "6,000",
    "phone": "043-225-0033",
    "address": "충청북도 청주시 청원구 팔결로 170 (외남동)",
    "lat": 36.6982580699907,
    "lng": 127.480904921779,
    "region_1depth": "충북",
    "region_2depth": "청주시 청원구"
  },
  {
    "category": "한식_일반",
    "name": "명동식당",
    "main_item": "청국장",
    "price": "7,000",
    "phone": "043-268-8320",
    "address": "충청북도 청주시 흥덕구 천석로 56 (봉명동)",
    "lat": 36.6403799754467,
    "lng": 127.465551511862,
    "region_1depth": "충북",
    "region_2depth": "청주시 흥덕구"
  },
  {
    "category": "미용업",
    "name": "명인헤어샵",
    "main_item": "커트",
    "price": "13,000",
    "phone": "043-232-5530",
    "address": "충청북도 청주시 흥덕구 풍년로 26 (가경동)",
    "lat": 36.6162129239555,
    "lng": 127.440839187828,
    "region_1depth": "충북",
    "region_2depth": "청주시 흥덕구"
  },
  {
    "category": "한식_일반",
    "name": "몽키만두",
    "main_item": "고기만두",
    "price": "5,000",
    "phone": "043-260-9132",
    "address": "충청북도 청주시 흥덕구 사직대로 62 (복대동) 101호(몽키만두)",
    "lat": 36.6342842817833,
    "lng": 127.454160586912,
    "region_1depth": "충북",
    "region_2depth": "청주시 흥덕구"
  },
  {
    "category": "한식_일반",
    "name": "미소국밥",
    "main_item": "바지락순두부",
    "price": "7,000",
    "phone": "043-223-8848",
    "address": "충청북도 청주시 상당구 상당로 135 (북문로2가)",
    "lat": 36.6403948654709,
    "lng": 127.48970770266,
    "region_1depth": "충북",
    "region_2depth": "청주시 상당구"
  },
  {
    "category": "양식",
    "name": "미소수제돈까스",
    "main_item": "등심돈까스",
    "price": "9,500",
    "phone": "043-234-5789",
    "address": "충청북도 청주시 흥덕구 강내면 태성탑연로 441",
    "lat": 36.6217389403778,
    "lng": 127.358345510569,
    "region_1depth": "충북",
    "region_2depth": "청주시 흥덕구"
  },
  {
    "category": "양식",
    "name": "믹스레스토랑",
    "main_item": "크림베이컨파스타",
    "price": "10,900",
    "phone": "043-231-5969",
    "address": "충청북도 청주시 흥덕구 경산로43번길 12 (가경동) 가경동 171-102",
    "lat": 36.6251154484086,
    "lng": 127.436908886453,
    "region_1depth": "충북",
    "region_2depth": "청주시 흥덕구"
  },
  {
    "category": "한식_일반",
    "name": "민들레식당",
    "main_item": "된장찌개(백반)",
    "price": "7,000",
    "phone": "043-255-3028",
    "address": "충청북도 청주시 상당구 대성로 57 (서운동) (민들레식당)",
    "lat": 36.6305098148547,
    "lng": 127.492841205895,
    "region_1depth": "충북",
    "region_2depth": "청주시 상당구"
  },
  {
    "category": "한식_면류",
    "name": "밀숲",
    "main_item": "사골칼국수",
    "price": "4,500",
    "phone": "043-253-6000",
    "address": "충청북도 청주시 상당구 사직대로362번길 75 (남문로2가)",
    "lat": 36.63336072616,
    "lng": 127.487692551815,
    "region_1depth": "충북",
    "region_2depth": "청주시 상당구"
  },
  {
    "category": "한식_일반",
    "name": "바우골",
    "main_item": "염소탕",
    "price": "17,000",
    "phone": "043-256-2392",
    "address": "충청북도 청주시 상당구 상당로143번길 34-2 1층(북문로3가)",
    "lat": 36.6411301332882,
    "lng": 127.488029572772,
    "region_1depth": "충북",
    "region_2depth": "청주시 상당구"
  },
  {
    "category": "미용업",
    "name": "박현순헤어",
    "main_item": "커트",
    "price": "10,000",
    "phone": "043-211-7623",
    "address": "충청북도 청주시 청원구 율봉로159번길 48-20 1층(율량동)",
    "lat": 36.6705031580318,
    "lng": 127.486655068416,
    "region_1depth": "충북",
    "region_2depth": "청주시 청원구"
  },
  {
    "category": "미용업",
    "name": "백합미용실",
    "main_item": "커트(남성)",
    "price": "7,000",
    "phone": "043-224-8890",
    "address": "충청북도 청주시 상당구 당산로 10-1 (대성동)",
    "lat": 36.632960183362,
    "lng": 127.497023017908,
    "region_1depth": "충북",
    "region_2depth": "청주시 상당구"
  },
  {
    "category": "한식_일반",
    "name": "보글보글식당",
    "main_item": "가정식백반",
    "price": "6,000",
    "phone": "043-250-0012",
    "address": "충청북도 청주시 상당구 영운로11번길 23 (영운동)",
    "lat": 36.6166130893195,
    "lng": 127.497059927318,
    "region_1depth": "충북",
    "region_2depth": "청주시 상당구"
  },
  {
    "category": "기타비요식업",
    "name": "보떼짐",
    "main_item": "헬스장 1개월 이용료",
    "price": "66,000",
    "phone": "",
    "address": "충청북도 청주시 상당구 중고개로141번길 13-10 (용암동) 9층",
    "lat": 36.6165983843694,
    "lng": 127.516202419338,
    "region_1depth": "충북",
    "region_2depth": "청주시 상당구"
  },
  {
    "category": "미용업",
    "name": "보라매 미용타운",
    "main_item": "커트",
    "price": "10,000",
    "phone": "043-223-3044",
    "address": "충청북도 청주시 청원구 1순환로342번길 16-1 (내덕동)",
    "lat": 36.6591492446858,
    "lng": 127.476182211428,
    "region_1depth": "충북",
    "region_2depth": "청주시 청원구"
  },
  {
    "category": "한식_일반",
    "name": "복실이 식당",
    "main_item": "칼국수",
    "price": "6,000",
    "phone": "043-294-3667",
    "address": "충청북도 청주시 서원구 매봉로2번길 40 (분평동) 1층",
    "lat": 36.6104349856827,
    "lng": 127.479900107245,
    "region_1depth": "충북",
    "region_2depth": "청주시 서원구"
  },
  {
    "category": "한식_일반",
    "name": "봄날의보리밥",
    "main_item": "시래기국",
    "price": "6,000",
    "phone": "043-223-6080",
    "address": "충청북도 청주시 상당구 상당로144번길 22 (수동)",
    "lat": 36.6410874058835,
    "lng": 127.49127768152,
    "region_1depth": "충북",
    "region_2depth": "청주시 상당구"
  },
  {
    "category": "한식_면류",
    "name": "봉평메밀 율량점",
    "main_item": "메밀막국수",
    "price": "7,000",
    "phone": "043-218-5594",
    "address": "충청북도 청주시 청원구 율량로138번길 62-20 (주성동)",
    "lat": 36.6714859599473,
    "lng": 127.498863852613,
    "region_1depth": "충북",
    "region_2depth": "청주시 청원구"
  },
  {
    "category": "한식_일반",
    "name": "부대89",
    "main_item": "부대찌개(1인분)",
    "price": "9,000",
    "phone": "",
    "address": "충청북도 청주시 서원구 원흥로64번길 19 (산남동) 1층",
    "lat": 36.6120249912157,
    "lng": 127.470578703451,
    "region_1depth": "충북",
    "region_2depth": "청주시 서원구"
  },
  {
    "category": "한식_일반",
    "name": "부부꼼장어",
    "main_item": "야채꼼장어(1인분)",
    "price": "13,000",
    "phone": "043-253-2797",
    "address": "충청북도 청주시 상당구 무심동로372번길 22-2 (서문동) (부부꼼장어)",
    "lat": 36.6339430048932,
    "lng": 127.484940553538,
    "region_1depth": "충북",
    "region_2depth": "청주시 상당구"
  },
  {
    "category": "한식_육류",
    "name": "부흥식당",
    "main_item": "오리더덕주물럭(중)",
    "price": "40,000",
    "phone": "",
    "address": "충청북도 청주시 흥덕구 흥덕로 163 (운천동)",
    "lat": 36.6484150899169,
    "lng": 127.476843577287,
    "region_1depth": "충북",
    "region_2depth": "청주시 흥덕구"
  },
  {
    "category": "한식_일반",
    "name": "북일곰탕",
    "main_item": "한우곰탕",
    "price": "8,000",
    "phone": "043-221-4594",
    "address": "충청북도 청주시 청원구 향군로41번길 11-7 (우암동)",
    "lat": 36.6489910240596,
    "lng": 127.486134081088,
    "region_1depth": "충북",
    "region_2depth": "청주시 청원구"
  },
  {
    "category": "한식_일반",
    "name": "브라보식당",
    "main_item": "콩나물국밥",
    "price": "6,000",
    "phone": "",
    "address": "충청북도 청주시 서원구 예체로129번길 30-1 (사창동) 1층",
    "lat": 36.6378511207381,
    "lng": 127.46702948239,
    "region_1depth": "충북",
    "region_2depth": "청주시 서원구"
  },
  {
    "category": "양식",
    "name": "브릿지 파스타",
    "main_item": "알리오올리오",
    "price": "8,900",
    "phone": "043-902-6725",
    "address": "충청북도 청주시 서원구 1순환로674번길 56 (사창동) 2층",
    "lat": 36.6321647105442,
    "lng": 127.457956871107,
    "region_1depth": "충북",
    "region_2depth": "청주시 서원구"
  },
  {
    "category": "한식_육류",
    "name": "사랑방",
    "main_item": "소갈비살(150g)",
    "price": "12,000",
    "phone": "043-237-0799",
    "address": "충청북도 청주시 흥덕구 서경로16번길 3 (가경동)",
    "lat": 36.6174335386233,
    "lng": 127.441804257296,
    "region_1depth": "충북",
    "region_2depth": "청주시 흥덕구"
  },
  {
    "category": "중식",
    "name": "사천성",
    "main_item": "짜장면",
    "price": "5,000",
    "phone": "043-283-7798",
    "address": "충청북도 청주시 상당구 호미로167번길 54 (용암동)",
    "lat": 36.6224403914598,
    "lng": 127.515519185508,
    "region_1depth": "충북",
    "region_2depth": "청주시 상당구"
  },
  {
    "category": "한식_육류",
    "name": "삼남매생삼겹살",
    "main_item": "삼겹살(200g)",
    "price": "13,000",
    "phone": "043-223-3992",
    "address": "충청북도 청주시 상당구 남사로89번길 47 (서문동) 1층",
    "lat": 36.6344774615293,
    "lng": 127.485405904657,
    "region_1depth": "충북",
    "region_2depth": "청주시 상당구"
  },
  {
    "category": "한식_육류",
    "name": "삼촌네고기로와",
    "main_item": "생삼겹살(200g)",
    "price": "13,000",
    "phone": "043-223-9393",
    "address": "충청북도 청주시 상당구 중앙로 26 (북문로2가)",
    "lat": 36.6393846590262,
    "lng": 127.489191643112,
    "region_1depth": "충북",
    "region_2depth": "청주시 상당구"
  },
  {
    "category": "중식",
    "name": "상하이 객잔",
    "main_item": "짜장면",
    "price": "5,000",
    "phone": "043-283-5588",
    "address": "충청북도 청주시 상당구 월평로184번길 148 (용암동)",
    "lat": 36.6095104609076,
    "lng": 127.504735396307,
    "region_1depth": "충북",
    "region_2depth": "청주시 상당구"
  },
  {
    "category": "한식_일반",
    "name": "서원해장국",
    "main_item": "뼈다귀해장국",
    "price": "7,000",
    "phone": "",
    "address": "충청북도 청주시 흥덕구 가로수로 1346 (복대동)",
    "lat": 36.6330823096643,
    "lng": 127.442898740012,
    "region_1depth": "충북",
    "region_2depth": "청주시 흥덕구"
  },
  {
    "category": "한식_면류",
    "name": "선우손칼국수",
    "main_item": "칼국수",
    "price": "7,000",
    "phone": "043-233-1116",
    "address": "충청북도 청주시 흥덕구 풍년로194번길 19-2 (가경동) 가경동 898",
    "lat": 36.6298314676637,
    "lng": 127.431955634188,
    "region_1depth": "충북",
    "region_2depth": "청주시 흥덕구"
  },
  {
    "category": "한식_일반",
    "name": "성진식당",
    "main_item": "뚝배기닭볶음탕",
    "price": "8,000",
    "phone": "043-255-2323",
    "address": "충청북도 청주시 청원구 수암로 82 (우암동)",
    "lat": 36.6495899553165,
    "lng": 127.493900142355,
    "region_1depth": "충북",
    "region_2depth": "청주시 청원구"
  },
  {
    "category": "한식_일반",
    "name": "소문난올갱이해장국",
    "main_item": "올갱이국",
    "price": "10,000",
    "phone": "043-215-7008",
    "address": "충청북도 청주시 청원구 충청대로 27 (내덕동)",
    "lat": 36.6596271105818,
    "lng": 127.490198588634,
    "region_1depth": "충북",
    "region_2depth": "청주시 청원구"
  },
  {
    "category": "한식_일반",
    "name": "소주신랑보쌈부인",
    "main_item": "보쌈정식",
    "price": "9,000",
    "phone": "043-260-1477",
    "address": "충청북도 청주시 서원구 1순환로674번길 26 (사창동) 3층",
    "lat": 36.6328079189863,
    "lng": 127.45910883809,
    "region_1depth": "충북",
    "region_2depth": "청주시 서원구"
  },
  {
    "category": "한식_면류",
    "name": "송원칼국수",
    "main_item": "조개칼국수",
    "price": "6,000",
    "phone": "043-256-5292",
    "address": "충청북도 청주시 상당구 우암산로 5 (수동)",
    "lat": 36.6393681261905,
    "lng": 127.490844987851,
    "region_1depth": "충북",
    "region_2depth": "청주시 상당구"
  },
  {
    "category": "한식_육류",
    "name": "송정식당",
    "main_item": "삼겹살(200g)",
    "price": "13,000",
    "phone": "",
    "address": "충청북도 청주시 흥덕구 흥덕로175번길 3 (운천동)",
    "lat": 36.6488936710184,
    "lng": 127.47774498288,
    "region_1depth": "충북",
    "region_2depth": "청주시 흥덕구"
  },
  {
    "category": "한식_일반",
    "name": "수레로돈가스&메밀",
    "main_item": "수제돈가스",
    "price": "9,000",
    "phone": "043-215-7086",
    "address": "충청북도 청주시 청원구 오창읍 오창공원로 73-9",
    "lat": 36.7157666069379,
    "lng": 127.422155943572,
    "region_1depth": "충북",
    "region_2depth": "청주시 청원구"
  },
  {
    "category": "한식_육류",
    "name": "순신토불이식당",
    "main_item": "삼겹살(250g)",
    "price": "14,000",
    "phone": "043-293-2423",
    "address": "충청북도 청주시 상당구 무농정로 116-6 (용암동)",
    "lat": 36.610807987602,
    "lng": 127.513596208981,
    "region_1depth": "충북",
    "region_2depth": "청주시 상당구"
  },
  {
    "category": "한식_육류",
    "name": "술이술술생고기육회신",
    "main_item": "생삼겹살(200g)",
    "price": "13,000",
    "phone": "043-221-2708",
    "address": "충청북도 청주시 청원구 중앙로 175 (내덕동)",
    "lat": 36.6528111600203,
    "lng": 127.487524968878,
    "region_1depth": "충북",
    "region_2depth": "청주시 청원구"
  },
  {
    "category": "한식_일반",
    "name": "시골밥상",
    "main_item": "백반",
    "price": "7,000",
    "phone": "043-272-8068",
    "address": "충청북도 청주시 서원구 남이면 구미길 10",
    "lat": 36.5657285463531,
    "lng": 127.388750347018,
    "region_1depth": "충북",
    "region_2depth": "청주시 서원구"
  },
  {
    "category": "한식_육류",
    "name": "시골생고기본점",
    "main_item": "생삼겹살(200g)",
    "price": "12,000",
    "phone": "043-294-0018",
    "address": "충청북도 청주시 상당구 용암북로94번길 20-1 1층(용암동)",
    "lat": 36.6190049407226,
    "lng": 127.509650345443,
    "region_1depth": "충북",
    "region_2depth": "청주시 상당구"
  },
  {
    "category": "한식_일반",
    "name": "신가네칼국수만두",
    "main_item": "칼만두",
    "price": "7,000",
    "phone": "043-268-2400",
    "address": "충청북도 청주시 서원구 사북로30번길 10 (사직동) 1층",
    "lat": 36.6424547987108,
    "lng": 127.474736670541,
    "region_1depth": "충북",
    "region_2depth": "청주시 서원구"
  },
  {
    "category": "한식_육류",
    "name": "신거산생막창 오창직영점",
    "main_item": "돼지막창(200g)",
    "price": "13,000",
    "phone": "043-218-8914",
    "address": "충청북도 청주시 청원구 오창읍 양청택지로 113 1층",
    "lat": 36.7162428464577,
    "lng": 127.422588134338,
    "region_1depth": "충북",
    "region_2depth": "청주시 청원구"
  },
  {
    "category": "한식_육류",
    "name": "신거산생막창구이",
    "main_item": "생막창구이(200g)",
    "price": "13,000",
    "phone": "",
    "address": "충청북도 청주시 흥덕구 운천로3번길 17 (운천동)",
    "lat": 36.6511121337159,
    "lng": 127.474119022986,
    "region_1depth": "충북",
    "region_2depth": "청주시 흥덕구"
  },
  {
    "category": "한식_일반",
    "name": "신항도복집",
    "main_item": "밀복탕",
    "price": "11,000",
    "phone": "",
    "address": "충청북도 청주시 청원구 우암로 59 (우암동)",
    "lat": 36.6538868004504,
    "lng": 127.485591794838,
    "region_1depth": "충북",
    "region_2depth": "청주시 청원구"
  },
  {
    "category": "한식_일반",
    "name": "신화당분식",
    "main_item": "우동",
    "price": "5,000",
    "phone": "043-256-5463",
    "address": "충청북도 청주시 상당구 대성로22번길 5-1 (석교동)",
    "lat": 36.6273000685023,
    "lng": 127.493715394525,
    "region_1depth": "충북",
    "region_2depth": "청주시 상당구"
  },
  {
    "category": "미용업",
    "name": "아름다운사람들",
    "main_item": "컷트",
    "price": "8,000",
    "phone": "043-252-6267",
    "address": "충청북도 청주시 상당구 용담로63번길 42 (탑동)",
    "lat": 36.6324721814131,
    "lng": 127.49946769104,
    "region_1depth": "충북",
    "region_2depth": "청주시 상당구"
  },
  {
    "category": "세탁업",
    "name": "아리랑세탁소",
    "main_item": "일반세탁",
    "price": "8,000",
    "phone": "043-296-2993",
    "address": "충청북도 청주시 서원구 매봉로 84 (수곡동)",
    "lat": 36.6176443311531,
    "lng": 127.47855058429,
    "region_1depth": "충북",
    "region_2depth": "청주시 서원구"
  },
  {
    "category": "미용업",
    "name": "아토미헤어",
    "main_item": "커트(여자)",
    "price": "13,000",
    "phone": "043-235-0370",
    "address": "충청북도 청주시 서원구 사직대로144번길 23 (사창동) 1층",
    "lat": 36.6340670042628,
    "lng": 127.463315117672,
    "region_1depth": "충북",
    "region_2depth": "청주시 서원구"
  },
  {
    "category": "기타요식업",
    "name": "안단테초콜릿",
    "main_item": "아메리카노",
    "price": "2,000",
    "phone": "",
    "address": "충청북도 청주시 흥덕구 백봉로224번길 16 (봉명동)",
    "lat": 36.6486223292064,
    "lng": 127.460215660837,
    "region_1depth": "충북",
    "region_2depth": "청주시 흥덕구"
  },
  {
    "category": "한식_일반",
    "name": "앵천식당",
    "main_item": "백반",
    "price": "7,000",
    "phone": "043-252-9911",
    "address": "충청북도 청주시 상당구 중앙로 92 (북문로3가)",
    "lat": 36.6453814956554,
    "lng": 127.488309345053,
    "region_1depth": "충북",
    "region_2depth": "청주시 상당구"
  },
  {
    "category": "한식_육류",
    "name": "야간비행",
    "main_item": "삼겹살(200g)",
    "price": "13,000",
    "phone": "043-257-8222",
    "address": "충청북도 청주시 상당구 남사로 89번길 63 (서문동)",
    "lat": 36.6352109905935,
    "lng": 127.485381211229,
    "region_1depth": "충북",
    "region_2depth": "청주시 상당구"
  },
  {
    "category": "양식",
    "name": "에덴",
    "main_item": "돈가스",
    "price": "9,000",
    "phone": "043-264-5272",
    "address": "충청북도 청주시 서원구 창신로 43 (사창동) 1층",
    "lat": 36.6347483927793,
    "lng": 127.464391466784,
    "region_1depth": "충북",
    "region_2depth": "청주시 서원구"
  },
  {
    "category": "미용업",
    "name": "에이치오(HO) 791 헤어샵",
    "main_item": "커트(여)",
    "price": "10,000",
    "phone": "043-274-9874",
    "address": "충청북도 청주시 서원구 모충로 108 (모충동) 1층",
    "lat": 36.6282126413933,
    "lng": 127.474984596767,
    "region_1depth": "충북",
    "region_2depth": "청주시 서원구"
  },
  {
    "category": "한식_일반",
    "name": "에제르 푸드시스템",
    "main_item": "보리밥",
    "price": "6,000",
    "phone": "043-234-7660",
    "address": "충청북도 청주시 서원구 복대로17번길 11 (개신동) 1층 105호",
    "lat": 36.6184416752553,
    "lng": 127.445303823799,
    "region_1depth": "충북",
    "region_2depth": "청주시 서원구"
  },
  {
    "category": "미용업",
    "name": "영헤어라인",
    "main_item": "커트",
    "price": "10,000",
    "phone": "",
    "address": "충청북도 청주시 청원구 대성로254번길 24 (우암동) 1층",
    "lat": 36.6484120373657,
    "lng": 127.492804059225,
    "region_1depth": "충북",
    "region_2depth": "청주시 청원구"
  },
  {
    "category": "이용업",
    "name": "옛날이발소",
    "main_item": "커트",
    "price": "8,000",
    "phone": "043-260-5319",
    "address": "충청북도 청주시 흥덕구 풍년로108번길 8-5 1층 102호(가경동)",
    "lat": 36.6224206220589,
    "lng": 127.436463943576,
    "region_1depth": "충북",
    "region_2depth": "청주시 흥덕구"
  },
  {
    "category": "한식_일반",
    "name": "옛날칼국수",
    "main_item": "칼국수",
    "price": "6,000",
    "phone": "043-272-7739",
    "address": "충청북도 청주시 서원구 내수동로 162-1 (사창동) 1층",
    "lat": 36.6340985512503,
    "lng": 127.465186339608,
    "region_1depth": "충북",
    "region_2depth": "청주시 서원구"
  },
  {
    "category": "한식_일반",
    "name": "오!자네왔는가·365곰탕",
    "main_item": "한우소머리곰탕",
    "price": "10,000",
    "phone": "043-223-0365",
    "address": "충청북도 청주시 상당구 용담로 25-4 1층(문화동)",
    "lat": 36.632665590751,
    "lng": 127.493949535137,
    "region_1depth": "충북",
    "region_2depth": "청주시 상당구"
  },
  {
    "category": "한식_일반",
    "name": "오가네옛날국수",
    "main_item": "수제비",
    "price": "6,000",
    "phone": "043-252-5588",
    "address": "충청북도 청주시 상당구 남사로140번길 73-1 (남문로1가)",
    "lat": 36.6289003316622,
    "lng": 127.490914772145,
    "region_1depth": "충북",
    "region_2depth": "청주시 상당구"
  },
  {
    "category": "한식_육류",
    "name": "오돈생고기",
    "main_item": "삼겹살(200g)",
    "price": "13,000",
    "phone": "0507-1352-9634",
    "address": "충청북도 청주시 상당구 중고개로125번길 9-2 1층(용암동)",
    "lat": 36.6156225633644,
    "lng": 127.518130436673,
    "region_1depth": "충북",
    "region_2depth": "청주시 상당구"
  },
  {
    "category": "한식_육류",
    "name": "오뚜기포차",
    "main_item": "주먹고기",
    "price": "10,000",
    "phone": "043-242-1989",
    "address": "충청북도 청주시 흥덕구 풍산로128번길 37 (복대동) 복대동 2111",
    "lat": 36.627552805661,
    "lng": 127.444177852594,
    "region_1depth": "충북",
    "region_2depth": "청주시 흥덕구"
  },
  {
    "category": "기타요식업",
    "name": "오빠네",
    "main_item": "엣날햄버거",
    "price": "4,000",
    "phone": "0507-1414-7305",
    "address": "충청북도 청주시 서원구 서원남로20번길 1 (모충동)",
    "lat": 36.6220704881682,
    "lng": 127.485549118244,
    "region_1depth": "충북",
    "region_2depth": "청주시 서원구"
  },
  {
    "category": "한식_일반",
    "name": "오성당",
    "main_item": "쫄면",
    "price": "5,000",
    "phone": "043-256-7197",
    "address": "충청북도 청주시 흥덕구 풍산로 55 (가경동)",
    "lat": 36.6276240197553,
    "lng": 127.43629371764,
    "region_1depth": "충북",
    "region_2depth": "청주시 흥덕구"
  },
  {
    "category": "한식_육류",
    "name": "온심",
    "main_item": "삼겹살(180g)",
    "price": "11,000",
    "phone": "0507-1433-5291",
    "address": "충청북도 청주시 상당구 산성로98번길 32 (금천동) (온심)",
    "lat": 36.6309378891861,
    "lng": 127.505054102822,
    "region_1depth": "충북",
    "region_2depth": "청주시 상당구"
  },
  {
    "category": "한식_일반",
    "name": "온정(청주흥덕시니어클럽)",
    "main_item": "백반",
    "price": "7,000",
    "phone": "043-237-0228",
    "address": "충청북도 청주시 흥덕구 복대로200번길 9-1 1층(복대동)",
    "lat": 36.6344667722195,
    "lng": 127.441280821299,
    "region_1depth": "충북",
    "region_2depth": "청주시 흥덕구"
  },
  {
    "category": "한식_면류",
    "name": "왔다국수",
    "main_item": "잔치국수",
    "price": "5,000",
    "phone": "043-211-7213",
    "address": "충청북도 청주시 청원구 안덕벌로 26 (내덕동) 1층",
    "lat": 36.657386144527,
    "lng": 127.491369589653,
    "region_1depth": "충북",
    "region_2depth": "청주시 청원구"
  },
  {
    "category": "중식",
    "name": "왕건",
    "main_item": "짜장면",
    "price": "5,000",
    "phone": "043-223-7241",
    "address": "충청북도 청주시 청원구 내덕로8번길 21 (우암동)",
    "lat": 36.6548000168443,
    "lng": 127.482750304142,
    "region_1depth": "충북",
    "region_2depth": "청주시 청원구"
  },
  {
    "category": "한식_육류",
    "name": "왕조숯불갈비",
    "main_item": "돼지갈비(국내산 250g)",
    "price": "13,000",
    "phone": "043-223-8100",
    "address": "충청북도 청주시 청원구 1순환로330번길 42 (내덕동)",
    "lat": 36.660692391224,
    "lng": 127.476662822621,
    "region_1depth": "충북",
    "region_2depth": "청주시 청원구"
  },
  {
    "category": "한식_일반",
    "name": "요리조리쿡쿡",
    "main_item": "쿡쿡알밥",
    "price": "6,500",
    "phone": "043-265-5556",
    "address": "충청북도 청주시 서원구 내수동로108번길 43 (사창동) 1층",
    "lat": 36.6322599246041,
    "lng": 127.457731583093,
    "region_1depth": "충북",
    "region_2depth": "청주시 서원구"
  },
  {
    "category": "한식_면류",
    "name": "용정당우동",
    "main_item": "우동",
    "price": "5,000",
    "phone": "",
    "address": "충청북도 청주시 상당구 영운천로145번길 28 (용정동)",
    "lat": 36.6232129286623,
    "lng": 127.512092244673,
    "region_1depth": "충북",
    "region_2depth": "청주시 상당구"
  },
  {
    "category": "기타비요식업",
    "name": "우미교복",
    "main_item": "바지/스커트",
    "price": "68,000",
    "phone": "043-221-1318",
    "address": "충청북도 청주시 상당구 상당로 27 (남문로1가)",
    "lat": 36.6307373346364,
    "lng": 127.490902274021,
    "region_1depth": "충북",
    "region_2depth": "청주시 상당구"
  },
  {
    "category": "미용업",
    "name": "원미용실",
    "main_item": "커트(여)",
    "price": "5,000",
    "phone": "043-212-4200",
    "address": "충청북도 청주시 청원구 율봉로94번길 27 (율량동)",
    "lat": 36.6654896584325,
    "lng": 127.480643814831,
    "region_1depth": "충북",
    "region_2depth": "청주시 청원구"
  },
  {
    "category": "한식_육류",
    "name": "육거리 삼십일미&삼삼오삼",
    "main_item": "삼겹살(200g)",
    "price": "13,000",
    "phone": "0507-1494-1374",
    "address": "충청북도 청주시 상당구 상당로1번길 36 (석교동) 2층(육거리 삼십일미&amp;amp;삼삼오삼)",
    "lat": 36.6283315304793,
    "lng": 127.488856694351,
    "region_1depth": "충북",
    "region_2depth": "청주시 상당구"
  },
  {
    "category": "한식_일반",
    "name": "육거리소문난만두",
    "main_item": "사골 떡만두국",
    "price": "8,000",
    "phone": "043-252-1195",
    "address": "충청북도 청주시 상당구 상당로1번길 36 (석교동) 1층(육거리소문난만두)",
    "lat": 36.6283315304793,
    "lng": 127.488856694351,
    "region_1depth": "충북",
    "region_2depth": "청주시 상당구"
  },
  {
    "category": "한식_육류",
    "name": "윤뚱",
    "main_item": "삼겹살(180g)",
    "price": "12,000",
    "phone": "0507-1498-3230",
    "address": "충청북도 청주시 상당구 중고개로125번길 11 (용암동)",
    "lat": 36.6158211859478,
    "lng": 127.517837104054,
    "region_1depth": "충북",
    "region_2depth": "청주시 상당구"
  },
  {
    "category": "한식_일반",
    "name": "이모네김밥",
    "main_item": "야채김밥",
    "price": "2,500",
    "phone": "043-222-3014",
    "address": "충청북도 청주시 청원구 중앙로 181 1층(내덕동)",
    "lat": 36.6533170024594,
    "lng": 127.487471008693,
    "region_1depth": "충북",
    "region_2depth": "청주시 청원구"
  },
  {
    "category": "한식_일반",
    "name": "이쉐프컵밥",
    "main_item": "스팸컵밥",
    "price": "4,100",
    "phone": "",
    "address": "충청북도 청주시 청원구 수암로 98-10 1층(우암동)",
    "lat": 36.650846197604,
    "lng": 127.493817355426,
    "region_1depth": "충북",
    "region_2depth": "청주시 청원구"
  },
  {
    "category": "한식_면류",
    "name": "이향복손칼국수",
    "main_item": "칼국수",
    "price": "6,000",
    "phone": "043-257-5500",
    "address": "충청북도 청주시 상당구 쇠내로104번길 9 (금천동) (이향복손칼국수)",
    "lat": 36.6237886319681,
    "lng": 127.504536911055,
    "region_1depth": "충북",
    "region_2depth": "청주시 상당구"
  },
  {
    "category": "중식",
    "name": "자금성",
    "main_item": "짜장면",
    "price": "6,000",
    "phone": "043-273-1189",
    "address": "충청북도 청주시 흥덕구 내수동로 13 (복대동)",
    "lat": 36.6336259952456,
    "lng": 127.449076316973,
    "region_1depth": "충북",
    "region_2depth": "청주시 흥덕구"
  },
  {
    "category": "한식_육류",
    "name": "장미본가 생고기",
    "main_item": "삼겹살(200g)",
    "price": "12,000",
    "phone": "043-238-2007",
    "address": "충청북도 청주시 흥덕구 가로수로1154번길 21-17 (강서동)",
    "lat": 36.6259201009482,
    "lng": 127.425949898212,
    "region_1depth": "충북",
    "region_2depth": "청주시 흥덕구"
  },
  {
    "category": "한식_일반",
    "name": "점심시간엔",
    "main_item": "한식뷔페",
    "price": "4,500",
    "phone": "043-223-7221",
    "address": "충청북도 청주시 상당구 대성로 164 (수동)",
    "lat": 36.6398625831293,
    "lng": 127.492175298197,
    "region_1depth": "충북",
    "region_2depth": "청주시 상당구"
  },
  {
    "category": "한식_육류",
    "name": "정동진식당",
    "main_item": "삼겹살(180g)",
    "price": "1,200",
    "phone": "",
    "address": "충청북도 청주시 흥덕구 직지대로753번길 64-4 (운천동)",
    "lat": 36.6464753680156,
    "lng": 127.476765081478,
    "region_1depth": "충북",
    "region_2depth": "청주시 흥덕구"
  },
  {
    "category": "미용업",
    "name": "정헤어",
    "main_item": "커트",
    "price": "10,000",
    "phone": "",
    "address": "충청북도 청주시 흥덕구 서경로 20 (가경동)",
    "lat": 36.6175333229511,
    "lng": 127.442063724036,
    "region_1depth": "충북",
    "region_2depth": "청주시 흥덕구"
  },
  {
    "category": "미용업",
    "name": "주은헤어사랑",
    "main_item": "커트(여)",
    "price": "12,000",
    "phone": "043-268-1589",
    "address": "충청북도 청주시 서원구 1순환로648번길 58 (사창동) 1층",
    "lat": 36.6354996781974,
    "lng": 127.45653065016,
    "region_1depth": "충북",
    "region_2depth": "청주시 서원구"
  },
  {
    "category": "이용업",
    "name": "주중이발관",
    "main_item": "커트(남)",
    "price": "5,000",
    "phone": "043-255-7160",
    "address": "충청북도 청주시 상당구 대성로169번길 5 (수동) 1층",
    "lat": 36.640343124132,
    "lng": 127.491724369337,
    "region_1depth": "충북",
    "region_2depth": "청주시 상당구"
  },
  {
    "category": "한식_일반",
    "name": "지경골생고기",
    "main_item": "김치찌개",
    "price": "8,000",
    "phone": "043-294-6464",
    "address": "충청북도 청주시 상당구 남일면 노동두산길 172 (지경골생고기)",
    "lat": 36.5618263335845,
    "lng": 127.532601801999,
    "region_1depth": "충북",
    "region_2depth": "청주시 상당구"
  },
  {
    "category": "한식_일반",
    "name": "진천장터순대",
    "main_item": "순대국밥",
    "price": "7,000",
    "phone": "043-272-5388",
    "address": "충청북도 청주시 흥덕구 봉명로 231-1 (봉명동)",
    "lat": 36.6399865914264,
    "lng": 127.467426134602,
    "region_1depth": "충북",
    "region_2depth": "청주시 흥덕구"
  },
  {
    "category": "미용업",
    "name": "진헤어",
    "main_item": "커트",
    "price": "8,000",
    "phone": "",
    "address": "충청북도 청주시 서원구 천석로 8 (사창동)",
    "lat": 36.6360089657931,
    "lng": 127.465642392761,
    "region_1depth": "충북",
    "region_2depth": "청주시 서원구"
  },
  {
    "category": "중식",
    "name": "짜장나라",
    "main_item": "짜장면",
    "price": "5,500",
    "phone": "043-212-2999",
    "address": "충청북도 청주시 청원구 내덕동 150-1",
    "lat": 36.6586107239817,
    "lng": 127.496876930607,
    "region_1depth": "충북",
    "region_2depth": "청주시 청원구"
  },
  {
    "category": "한식_일반",
    "name": "찌개 먹고 달려",
    "main_item": "칼국수",
    "price": "7,000",
    "phone": "",
    "address": "충청북도 청주시 흥덕구 1순환로577번길 3 (봉명동)",
    "lat": 36.641757249172,
    "lng": 127.461896644405,
    "region_1depth": "충북",
    "region_2depth": "청주시 흥덕구"
  },
  {
    "category": "미용업",
    "name": "착한미용실",
    "main_item": "커트(여)",
    "price": "13,000",
    "phone": "043-221-7221",
    "address": "충청북도 청주시 상당구 사직대로361번길 30 (북문로2가)",
    "lat": 36.6382622567242,
    "lng": 127.487642713471,
    "region_1depth": "충북",
    "region_2depth": "청주시 상당구"
  },
  {
    "category": "기타비요식업",
    "name": "착한카 주식회사",
    "main_item": "엔진오일(소나타)",
    "price": "58,000",
    "phone": "043-288-1234",
    "address": "충청북도 청주시 서원구 용평로93번길 57 (분평동)",
    "lat": 36.6030796267718,
    "lng": 127.486798190003,
    "region_1depth": "충북",
    "region_2depth": "청주시 서원구"
  },
  {
    "category": "한식_육류",
    "name": "참살이 오리 전문점",
    "main_item": "오리정식(4인)",
    "price": "75,000",
    "phone": "043-287-5233",
    "address": "충청북도 청주시 상당구 용암북로 124-1 (용암동)",
    "lat": 36.6202316809174,
    "lng": 127.511598424333,
    "region_1depth": "충북",
    "region_2depth": "청주시 상당구"
  },
  {
    "category": "미용업",
    "name": "창조헤어",
    "main_item": "커트",
    "price": "10,000",
    "phone": "",
    "address": "충청북도 청주시 청원구 1순환로341번길 33 (내덕동)",
    "lat": 36.6569511608311,
    "lng": 127.478064081698,
    "region_1depth": "충북",
    "region_2depth": "청주시 청원구"
  },
  {
    "category": "중식",
    "name": "천안문",
    "main_item": "짜장면",
    "price": "5,000",
    "phone": "043-217-1210",
    "address": "충청북도 청주시 청원구 오창읍 양청2길 22",
    "lat": 36.7190440204368,
    "lng": 127.427520825962,
    "region_1depth": "충북",
    "region_2depth": "청주시 청원구"
  },
  {
    "category": "한식_일반",
    "name": "청전주",
    "main_item": "뼈다귀해장국",
    "price": "9,000",
    "phone": "043-223-0287",
    "address": "충청북도 청주시 청원구 새터로 115-1 (내덕동) 1층",
    "lat": 36.6607703375882,
    "lng": 127.478864598883,
    "region_1depth": "충북",
    "region_2depth": "청주시 청원구"
  },
  {
    "category": "한식_일반",
    "name": "청주 힘찬낙지 명가",
    "main_item": "낙지볶음",
    "price": "10,000",
    "phone": "043-267-1006",
    "address": "충청북도 청주시 서원구 예체로 67번길 62 (사창동)",
    "lat": 36.6324345350346,
    "lng": 127.465253149166,
    "region_1depth": "충북",
    "region_2depth": "청주시 서원구"
  },
  {
    "category": "중식",
    "name": "청해루",
    "main_item": "짜장면",
    "price": "6,000",
    "phone": "043-221-6101",
    "address": "충청북도 청주시 상당구 탑동로 32 (탑동) (서운동)",
    "lat": 36.6290992962852,
    "lng": 127.49788672157,
    "region_1depth": "충북",
    "region_2depth": "청주시 상당구"
  },
  {
    "category": "한식_육류",
    "name": "충주돌구이",
    "main_item": "삼겹살(200g)",
    "price": "12,000",
    "phone": "043-253-0531",
    "address": "충청북도 청주시 상당구 남사로89번길 37 (서문동)",
    "lat": 36.6340152917944,
    "lng": 127.485401216698,
    "region_1depth": "충북",
    "region_2depth": "청주시 상당구"
  },
  {
    "category": "중식",
    "name": "칠성반점",
    "main_item": "짜장면",
    "price": "4,000",
    "phone": "043-236-7853",
    "address": "충청북도 청주시 흥덕구 2순환로 1130 (비하동) 스타쁠레르빌딩 102호",
    "lat": 36.6340359578803,
    "lng": 127.424106647552,
    "region_1depth": "충북",
    "region_2depth": "청주시 흥덕구"
  },
  {
    "category": "기타비요식업",
    "name": "카마인드",
    "main_item": "후방카메라(부가세 별도)",
    "price": "70,000",
    "phone": "",
    "address": "충청북도 청주시 청원구 향군로 7 (우암동) (내덕동)",
    "lat": 36.6469026769774,
    "lng": 127.488465779198,
    "region_1depth": "충북",
    "region_2depth": "청주시 청원구"
  },
  {
    "category": "기타요식업",
    "name": "카페어메이징",
    "main_item": "아메리카노",
    "price": "2,000",
    "phone": "043-213-0999",
    "address": "충청북도 청주시 청원구 안덕벌로 29 (내덕동) 101호",
    "lat": 36.6577246644795,
    "lng": 127.491705036993,
    "region_1depth": "충북",
    "region_2depth": "청주시 청원구"
  },
  {
    "category": "기타요식업",
    "name": "커티(coftea)",
    "main_item": "아메리카노",
    "price": "2,500",
    "phone": "0507-1347-0142",
    "address": "충청북도 청주시 청원구 새터로 59 1층(내덕동)",
    "lat": 36.657723044681,
    "lng": 127.483982064894,
    "region_1depth": "충북",
    "region_2depth": "청주시 청원구"
  },
  {
    "category": "미용업",
    "name": "컷트마당",
    "main_item": "커트",
    "price": "10,000",
    "phone": "043-293-9123",
    "address": "충청북도 청주시 상당구 월평로 206 (용암동)",
    "lat": 36.6086837375626,
    "lng": 127.506482950857,
    "region_1depth": "충북",
    "region_2depth": "청주시 상당구"
  },
  {
    "category": "한식_육류",
    "name": "콩가루생삼겹살",
    "main_item": "삼겹살(200g)",
    "price": "12,000",
    "phone": "043-250-1030",
    "address": "충청북도 청주시 청원구 중앙로 172 (내덕동)",
    "lat": 36.6525731392504,
    "lng": 127.487819276854,
    "region_1depth": "충북",
    "region_2depth": "청주시 청원구"
  },
  {
    "category": "일식",
    "name": "타다시제면소",
    "main_item": "가케우동",
    "price": "7,000",
    "phone": "043-212-0220",
    "address": "충청북도 청주시 청원구 주성로 273 (주성동)",
    "lat": 36.6706266227571,
    "lng": 127.496649571708,
    "region_1depth": "충북",
    "region_2depth": "청주시 청원구"
  },
  {
    "category": "일식",
    "name": "타코찡",
    "main_item": "타코야끼(7알)",
    "price": "4,500",
    "phone": "043-715-1251",
    "address": "충청북도 청주시 흥덕구 신율로111번길 10 (복대동) 1층",
    "lat": 36.6277444537736,
    "lng": 127.445679994961,
    "region_1depth": "충북",
    "region_2depth": "청주시 흥덕구"
  },
  {
    "category": "한식_육류",
    "name": "통일식당",
    "main_item": "삼겹살(200g)",
    "price": "13,000",
    "phone": "043-223-3639",
    "address": "충청북도 청주시 상당구 남사로89번길 50 (서문동) (통일식당)",
    "lat": 36.6345108329255,
    "lng": 127.485597645826,
    "region_1depth": "충북",
    "region_2depth": "청주시 상당구"
  },
  {
    "category": "한식_일반",
    "name": "풍년고을",
    "main_item": "청국장",
    "price": "8,000",
    "phone": "043-225-2088",
    "address": "충청북도 청주시 상당구 상당로131번길 7-15 (북문로2가)",
    "lat": 36.6393741019815,
    "lng": 127.489611787563,
    "region_1depth": "충북",
    "region_2depth": "청주시 상당구"
  },
  {
    "category": "중식",
    "name": "한가네짬뽕",
    "main_item": "짬뽕",
    "price": "8,000",
    "phone": "043-262-0410",
    "address": "충청북도 청주시 서원구 1순환로672번길 53 2층(사창동)",
    "lat": 36.6324020827384,
    "lng": 127.457437027557,
    "region_1depth": "충북",
    "region_2depth": "청주시 서원구"
  },
  {
    "category": "한식_일반",
    "name": "한끼밥상",
    "main_item": "청국장",
    "price": "7,000",
    "phone": "043-285-8635",
    "address": "충청북도 청주시 서원구 수곡로58번길 8 (수곡동) 1층",
    "lat": 36.6171587987052,
    "lng": 127.47297662898,
    "region_1depth": "충북",
    "region_2depth": "청주시 서원구"
  },
  {
    "category": "한식_면류",
    "name": "한복남칼국수",
    "main_item": "칼국수",
    "price": "3,500",
    "phone": "",
    "address": "충청북도 청주시 상당구 산성로 16 (금천동)",
    "lat": 36.6253967983615,
    "lng": 127.499142764957,
    "region_1depth": "충북",
    "region_2depth": "청주시 상당구"
  },
  {
    "category": "한식_육류",
    "name": "한식더고기",
    "main_item": "삼겹살(200g)",
    "price": "13,000",
    "phone": "043-223-8259",
    "address": "충청북도 청주시 상당구 무심동로 372번길 21-14 (서문동)",
    "lat": 36.6346965349578,
    "lng": 127.485226704014,
    "region_1depth": "충북",
    "region_2depth": "청주시 상당구"
  },
  {
    "category": "한식_육류",
    "name": "한우일번지",
    "main_item": "한우샤브샤브",
    "price": "15,000",
    "phone": "043-292-1238",
    "address": "충청북도 청주시 상당구 남일면 고은두산로 29",
    "lat": 36.5622892333038,
    "lng": 127.511216441363,
    "region_1depth": "충북",
    "region_2depth": "청주시 상당구"
  },
  {
    "category": "한식_기타",
    "name": "해늘두부",
    "main_item": "두부(600g)",
    "price": "5,000",
    "phone": "043-235-8892",
    "address": "충청북도 청주시 서원구 경신로 32-15 1층(개신동)",
    "lat": 36.6204149499819,
    "lng": 127.44627388882,
    "region_1depth": "충북",
    "region_2depth": "청주시 서원구"
  },
  {
    "category": "이용업",
    "name": "행복나눔이발소",
    "main_item": "커트(남)",
    "price": "7,000",
    "phone": "",
    "address": "충청북도 청주시 서원구 수영로59번길 2 (수곡동) 1층",
    "lat": 36.6158364435707,
    "lng": 127.492667429929,
    "region_1depth": "충북",
    "region_2depth": "청주시 서원구"
  },
  {
    "category": "한식_면류",
    "name": "행복한국수집",
    "main_item": "칼국수",
    "price": "6,000",
    "phone": "043-221-3839",
    "address": "충청북도 청주시 상당구 교동로27번길 30 (수동) (행복한국수집)",
    "lat": 36.6385828160506,
    "lng": 127.493108876898,
    "region_1depth": "충북",
    "region_2depth": "청주시 상당구"
  },
  {
    "category": "한식_일반",
    "name": "행복한밥상",
    "main_item": "한식뷔페",
    "price": "6,000",
    "phone": "043-292-3359",
    "address": "충청북도 청주시 상당구 단재로170번길 7-16 (용암동) (행복한밥상)",
    "lat": 36.6139551169077,
    "lng": 127.499859636544,
    "region_1depth": "충북",
    "region_2depth": "청주시 상당구"
  },
  {
    "category": "미용업",
    "name": "행운미용실",
    "main_item": "커트",
    "price": "7,000",
    "phone": "",
    "address": "충청북도 청주시 상당구 영운천로 33-6 (영운동)",
    "lat": 36.6175651427003,
    "lng": 127.50260035094,
    "region_1depth": "충북",
    "region_2depth": "청주시 상당구"
  },
  {
    "category": "한식_육류",
    "name": "행운삼겹살",
    "main_item": "삼겹살(200g)",
    "price": "13,000",
    "phone": "043-276-7936",
    "address": "충청북도 청주시 상당구 남사로89번길 64 1층(서문동)",
    "lat": 36.6351946266737,
    "lng": 127.485615466023,
    "region_1depth": "충북",
    "region_2depth": "청주시 상당구"
  },
  {
    "category": "미용업",
    "name": "헤어풍경",
    "main_item": "커트(여)",
    "price": "8,000",
    "phone": "043-285-3385",
    "address": "충청북도 청주시 서원구 원마루로 18 (분평동) 1층",
    "lat": 36.6097906269366,
    "lng": 127.495306318453,
    "region_1depth": "충북",
    "region_2depth": "청주시 서원구"
  },
  {
    "category": "미용업",
    "name": "헤이븐헤어",
    "main_item": "커트",
    "price": "12,000",
    "phone": "043-250-4583",
    "address": "충청북도 청주시 청원구 중앙로 180 (내덕동)",
    "lat": 36.6532594180158,
    "lng": 127.487801797602,
    "region_1depth": "충북",
    "region_2depth": "청주시 청원구"
  },
  {
    "category": "중식",
    "name": "홍등",
    "main_item": "짜장면",
    "price": "5,000",
    "phone": "043-265-8246",
    "address": "충청북도 청주시 흥덕구 성봉로 247 (복대동)",
    "lat": 36.627279259445,
    "lng": 127.449693190185,
    "region_1depth": "충북",
    "region_2depth": "청주시 흥덕구"
  },
  {
    "category": "한식_육류",
    "name": "화당털보식당",
    "main_item": "삼겹살(220g)",
    "price": "14,000",
    "phone": "043-292-2368",
    "address": "충청북도 청주시 상당구 남일면 화당3길 19-13 (화당털보식당)",
    "lat": 36.5523987437057,
    "lng": 127.500133296572,
    "region_1depth": "충북",
    "region_2depth": "청주시 상당구"
  },
  {
    "category": "한식_육류",
    "name": "황제왕갈비왕냉면",
    "main_item": "양념갈비(250g)",
    "price": "15,000",
    "phone": "043-284-8292",
    "address": "충청북도 청주시 상당구 용암북로 130 (용암동)",
    "lat": 36.6205137830243,
    "lng": 127.512132522569,
    "region_1depth": "충북",
    "region_2depth": "청주시 상당구"
  },
  {
    "category": "한식_면류",
    "name": "후생식당",
    "main_item": "칼국수",
    "price": "7,000",
    "phone": "043-297-7467",
    "address": "충청북도 청주시 상당구 문의면 문의시내로 56",
    "lat": 36.5182903395214,
    "lng": 127.49747485412,
    "region_1depth": "충북",
    "region_2depth": "청주시 상당구"
  },
  {
    "category": "기타비요식업",
    "name": "강남종합상사",
    "main_item": "온돌기본",
    "price": "24,000",
    "phone": "043-851-8225",
    "address": "충청북도 충주시 동량면 충원대로 1315-4",
    "lat": 37.0422765168413,
    "lng": 127.927737807665,
    "region_1depth": "충북",
    "region_2depth": "충주시"
  },
  {
    "category": "한식_일반",
    "name": "거꾸로콩나물국밥",
    "main_item": "콩나물국밥",
    "price": "5,000",
    "phone": "043-857-9900",
    "address": "충청북도 충주시 예성로 244-1 (교현안림동)",
    "lat": 36.9781408068719,
    "lng": 127.935581391984,
    "region_1depth": "충북",
    "region_2depth": "충주시"
  },
  {
    "category": "한식_일반",
    "name": "금강감자탕",
    "main_item": "김치찌개",
    "price": "8,000",
    "phone": "043-847-1736",
    "address": "충청북도 충주시 남산로 58 (용산동)",
    "lat": 36.9614669819938,
    "lng": 127.938528468882,
    "region_1depth": "충북",
    "region_2depth": "충주시"
  },
  {
    "category": "한식_면류",
    "name": "금주네가야밀면",
    "main_item": "밀면(얼큰한 물 / 물 / 비빔 / 물같은 비빔 )",
    "price": "7,000",
    "phone": "043-851-6553",
    "address": "충청북도 충주시 행정10길 15 (목행동)",
    "lat": 37.0138118057782,
    "lng": 127.917977485252,
    "region_1depth": "충북",
    "region_2depth": "충주시"
  },
  {
    "category": "한식_일반",
    "name": "김가네원조설악추어탕",
    "main_item": "돌솥추어탕",
    "price": "8,000",
    "phone": "043-845-4559",
    "address": "충청북도 충주시 행정5길22 (목행용탄동)",
    "lat": 37.01179593401,
    "lng": 127.91730762819,
    "region_1depth": "충북",
    "region_2depth": "충주시"
  },
  {
    "category": "한식_일반",
    "name": "도토리고을",
    "main_item": "도토리묵밥",
    "price": "8,000",
    "phone": "043-844-0990",
    "address": "충청북도 충주시 갱고개로 38-17 (교현안림동)",
    "lat": 36.9738317170811,
    "lng": 127.941051883263,
    "region_1depth": "충북",
    "region_2depth": "충주시"
  },
  {
    "category": "한식_일반",
    "name": "돈이랑칼국수",
    "main_item": "김치찌개",
    "price": "5,000",
    "phone": "043-854-5656",
    "address": "충청북도 충주시 금제1길 39-1 (칠금금릉동)",
    "lat": 36.9910167353347,
    "lng": 127.924912291684,
    "region_1depth": "충북",
    "region_2depth": "충주시"
  },
  {
    "category": "숙박업",
    "name": "래미안느",
    "main_item": "일반객실",
    "price": "35,000",
    "phone": "043-857-8855",
    "address": "충청북도 충주시 동량면 김생로 58",
    "lat": 37.0255496437375,
    "lng": 127.919887552974,
    "region_1depth": "충북",
    "region_2depth": "충주시"
  },
  {
    "category": "한식_육류",
    "name": "마사밥상슈퍼",
    "main_item": "마사밥상",
    "price": "8,000",
    "phone": "043-855-4420",
    "address": "충청북도 충주시 금가면 금가중앙2길 111",
    "lat": 37.0382631608805,
    "lng": 127.91232091092,
    "region_1depth": "충북",
    "region_2depth": "충주시"
  },
  {
    "category": "이용업",
    "name": "마을이발관",
    "main_item": "커트",
    "price": "10,000",
    "phone": "043-855-8444",
    "address": "충청북도 충주시 원호암3길1 (호암동)",
    "lat": 36.9536671138053,
    "lng": 127.940427268487,
    "region_1depth": "충북",
    "region_2depth": "충주시"
  },
  {
    "category": "미용업",
    "name": "만나미용실",
    "main_item": "커트 (남자)",
    "price": "10,000",
    "phone": "043-844-7234",
    "address": "충청북도 충주시 봉계10길 33 (봉방동) 1층",
    "lat": 36.9768499247831,
    "lng": 127.916911560155,
    "region_1depth": "충북",
    "region_2depth": "충주시"
  },
  {
    "category": "한식_면류",
    "name": "메밀마당",
    "main_item": "메밀 새싹 물 막국수",
    "price": "8,000",
    "phone": "043-855-0283",
    "address": "충청북도 충주시 중앙탑면 중앙탑길103",
    "lat": 37.0175914141272,
    "lng": 127.864321447212,
    "region_1depth": "충북",
    "region_2depth": "충주시"
  },
  {
    "category": "한식_일반",
    "name": "명진관",
    "main_item": "보리밥",
    "price": "5,000",
    "phone": "043-843-9897",
    "address": "충청북도 충주시 사직산23길2 (문화동)",
    "lat": 36.9714288156464,
    "lng": 127.929289224206,
    "region_1depth": "충북",
    "region_2depth": "충주시"
  },
  {
    "category": "한식_일반",
    "name": "목행짱구네",
    "main_item": "소머리국밥",
    "price": "10,000",
    "phone": "043-852-1772",
    "address": "충청북도 충주시 행정1길77 (목행용탄동)",
    "lat": 37.0130417109157,
    "lng": 127.92085778411,
    "region_1depth": "충북",
    "region_2depth": "충주시"
  },
  {
    "category": "한식_일반",
    "name": "무림장",
    "main_item": "감자탕(소)",
    "price": "15,000",
    "phone": "043-842-0357",
    "address": "충청북도 충주시 사직산21길 10-1 (문화동)",
    "lat": 36.9720630814122,
    "lng": 127.925411480696,
    "region_1depth": "충북",
    "region_2depth": "충주시"
  },
  {
    "category": "한식_일반",
    "name": "박가네식당",
    "main_item": "청국장",
    "price": "6,000",
    "phone": "043-843-4136",
    "address": "충청북도 충주시 사직산21길 43 (문화동)",
    "lat": 36.9722936258302,
    "lng": 127.92908468447,
    "region_1depth": "충북",
    "region_2depth": "충주시"
  },
  {
    "category": "한식_일반",
    "name": "밤안개식당",
    "main_item": "청국장",
    "price": "8,000",
    "phone": "043-852-6065",
    "address": "충청북도 충주시 엄정면 구룡로393",
    "lat": 37.0790607077669,
    "lng": 127.892427191592,
    "region_1depth": "충북",
    "region_2depth": "충주시"
  },
  {
    "category": "한식_일반",
    "name": "백세보리밥(충주시니어클럽)",
    "main_item": "보리밥",
    "price": "6,500",
    "phone": "043-855-7402",
    "address": "충청북도 충주시 으뜸로 9 (금릉동)",
    "lat": 36.9899425479299,
    "lng": 127.924779207745,
    "region_1depth": "충북",
    "region_2depth": "충주시"
  },
  {
    "category": "한식_일반",
    "name": "백송식당",
    "main_item": "칼국수",
    "price": "4,000",
    "phone": "043-851-1020",
    "address": "충청북도 충주시 사직산23길10 (문화동)",
    "lat": 36.9718544280273,
    "lng": 127.928627116373,
    "region_1depth": "충북",
    "region_2depth": "충주시"
  },
  {
    "category": "한식_일반",
    "name": "버드나무집",
    "main_item": "황태구이정식",
    "price": "10,000",
    "phone": "043-855-9611",
    "address": "충청북도 충주시 금가면 경촌1길 2",
    "lat": 37.0431214089605,
    "lng": 127.926540755447,
    "region_1depth": "충북",
    "region_2depth": "충주시"
  },
  {
    "category": "이용업",
    "name": "사랑이용원",
    "main_item": "커트",
    "price": "10,000",
    "phone": "043-843-4624",
    "address": "충청북도 충주시 연원5길 5 (연수동)",
    "lat": 36.9838269417592,
    "lng": 127.929024323415,
    "region_1depth": "충북",
    "region_2depth": "충주시"
  },
  {
    "category": "한식_일반",
    "name": "산꼴",
    "main_item": "옛날 선지해장국",
    "price": "3,500",
    "phone": "043-852-3655",
    "address": "충청북도 충주시 야현8길 18 (교현동)",
    "lat": 36.9792096392862,
    "lng": 127.937191527578,
    "region_1depth": "충북",
    "region_2depth": "충주시"
  },
  {
    "category": "한식_육류",
    "name": "산수촌숯불갈비",
    "main_item": "한방돼지갈비",
    "price": "10,000",
    "phone": "043-846-6692",
    "address": "충청북도 충주시 봉현로 184 (교현동)",
    "lat": 36.9790130159377,
    "lng": 127.92463411353,
    "region_1depth": "충북",
    "region_2depth": "충주시"
  },
  {
    "category": "한식_일반",
    "name": "선이네밥집",
    "main_item": "보리밥",
    "price": "6,000",
    "phone": "043-855-6625",
    "address": "충청북도 충주시 자유시장길 35 (충인동) 1층",
    "lat": 36.9733695940754,
    "lng": 127.932965653168,
    "region_1depth": "충북",
    "region_2depth": "충주시"
  },
  {
    "category": "세탁업",
    "name": "성서옷수선",
    "main_item": "바지수선",
    "price": "2,000",
    "phone": "043-845-7477",
    "address": "충청북도 충주시 자유시장길 33-2 (충인동) (성내충인동)",
    "lat": 36.9734740451293,
    "lng": 127.932745357037,
    "region_1depth": "충북",
    "region_2depth": "충주시"
  },
  {
    "category": "한식_면류",
    "name": "수산칼국수",
    "main_item": "칼국수",
    "price": "6,000",
    "phone": "043-855-6513",
    "address": "충청북도 충주시 봉방4길 5 (봉방동)",
    "lat": 36.9728953362255,
    "lng": 127.917325335611,
    "region_1depth": "충북",
    "region_2depth": "충주시"
  },
  {
    "category": "한식_일반",
    "name": "수억식당",
    "main_item": "손칼국수",
    "price": "5,000",
    "phone": "043-842-0122",
    "address": "충청북도 충주시 동촌3길 6 (교현안림동)",
    "lat": 36.9696213120868,
    "lng": 127.939352214952,
    "region_1depth": "충북",
    "region_2depth": "충주시"
  },
  {
    "category": "중식",
    "name": "야상회",
    "main_item": "삼선짜장",
    "price": "7,000",
    "phone": "043-851-1788",
    "address": "충청북도 충주시 상아배이길 100-1 (호암직동)",
    "lat": 36.9590062913095,
    "lng": 127.92326574339,
    "region_1depth": "충북",
    "region_2depth": "충주시"
  },
  {
    "category": "기타요식업",
    "name": "양지찐빵",
    "main_item": "찐빵(4개)",
    "price": "2,000",
    "phone": "0507-1401-8957",
    "address": "충청북도 충주시 대현6길15-1 (교현동)",
    "lat": 36.9838215809126,
    "lng": 127.92643591484,
    "region_1depth": "충북",
    "region_2depth": "충주시"
  },
  {
    "category": "한식_일반",
    "name": "엄정우리집",
    "main_item": "백반",
    "price": "8,000",
    "phone": "043-848-0017",
    "address": "충청북도 충주시 엄정면 동막 강현길401",
    "lat": 37.0856943245361,
    "lng": 127.912498726114,
    "region_1depth": "충북",
    "region_2depth": "충주시"
  },
  {
    "category": "기타비요식업",
    "name": "연수꽃화원",
    "main_item": "꽃다발",
    "price": "30,000",
    "phone": "043-843-0991",
    "address": "충청북도 충주시 지곡10길40 (지현동)",
    "lat": 36.9645524084375,
    "lng": 127.933013339598,
    "region_1depth": "충북",
    "region_2depth": "충주시"
  },
  {
    "category": "한식_육류",
    "name": "오륙도식육식당",
    "main_item": "생고기모듬(200g)",
    "price": "13,000",
    "phone": "043-857-2943",
    "address": "충청북도 충주시 사직로 113 (문화동)",
    "lat": 36.9676618926343,
    "lng": 127.925941786122,
    "region_1depth": "충북",
    "region_2depth": "충주시"
  },
  {
    "category": "한식_육류",
    "name": "오리본가",
    "main_item": "누룽지닭백숙",
    "price": "25,000",
    "phone": "043-847-5989",
    "address": "충청북도 충주시 만리산8길1 (교현안림동)",
    "lat": 36.9740790191276,
    "lng": 127.940340123055,
    "region_1depth": "충북",
    "region_2depth": "충주시"
  },
  {
    "category": "한식_일반",
    "name": "오복쌈밥",
    "main_item": "우렁이쌈밥",
    "price": "9,000",
    "phone": "043-842-9710",
    "address": "충청북도 충주시 사직로191-3 (성내충인동)",
    "lat": 36.9694837818511,
    "lng": 127.932061855523,
    "region_1depth": "충북",
    "region_2depth": "충주시"
  },
  {
    "category": "한식_일반",
    "name": "은영갈비",
    "main_item": "생삼겹살",
    "price": "14,000",
    "phone": "043-842-5172",
    "address": "충청북도 충주시 지곡10길 38 (지현동)",
    "lat": 36.9645234309,
    "lng": 127.932676120437,
    "region_1depth": "충북",
    "region_2depth": "충주시"
  },
  {
    "category": "한식_일반",
    "name": "장수맛집",
    "main_item": "가정식 백반",
    "price": "6,000",
    "phone": "043-854-5592",
    "address": "충청북도 충주시 사직로 220 (성내충인동)",
    "lat": 36.9691672694133,
    "lng": 127.935358018835,
    "region_1depth": "충북",
    "region_2depth": "충주시"
  },
  {
    "category": "한식_면류",
    "name": "주혜옹심이칼국수",
    "main_item": "옹심이메밀칼국수",
    "price": "8,000",
    "phone": "043-843-2077",
    "address": "충청북도 충주시 동수9길 6 (연수동)",
    "lat": 36.9836999619724,
    "lng": 127.934479911024,
    "region_1depth": "충북",
    "region_2depth": "충주시"
  },
  {
    "category": "한식_일반",
    "name": "착한국밥",
    "main_item": "착한국밥",
    "price": "7,000",
    "phone": "043-852-3442",
    "address": "충청북도 충주시 대흥6길33 (교현동)",
    "lat": 36.981779585131,
    "lng": 127.929321881753,
    "region_1depth": "충북",
    "region_2depth": "충주시"
  },
  {
    "category": "중식",
    "name": "천우",
    "main_item": "짜장면",
    "price": "5,000",
    "phone": "0507-1355-8973",
    "address": "충청북도 충주시 사직산21길 26-1 (문화동)",
    "lat": 36.9720661845338,
    "lng": 127.927207975765,
    "region_1depth": "충북",
    "region_2depth": "충주시"
  },
  {
    "category": "한식_면류",
    "name": "청정야채버섯칼국수",
    "main_item": "고기샤브칼국수",
    "price": "9,000",
    "phone": "043-852-6966",
    "address": "충청북도 충주시 형설로 109 (용산동)",
    "lat": 36.9636160755289,
    "lng": 127.93917939043,
    "region_1depth": "충북",
    "region_2depth": "충주시"
  },
  {
    "category": "한식_일반",
    "name": "청춘밥상(시니어클럽)",
    "main_item": "뷔페식백반",
    "price": "6,000",
    "phone": "043-847-7401",
    "address": "충청북도 충주시 예성로 207 (교현동)",
    "lat": 36.9747798006466,
    "lng": 127.933806278093,
    "region_1depth": "충북",
    "region_2depth": "충주시"
  },
  {
    "category": "한식_일반",
    "name": "청향가든",
    "main_item": "청국장",
    "price": "7,000",
    "phone": "043-847-8977",
    "address": "충청북도 충주시 노은면 감노로 746",
    "lat": 37.0470392412736,
    "lng": 127.685995000183,
    "region_1depth": "충북",
    "region_2depth": "충주시"
  },
  {
    "category": "이용업",
    "name": "충일이용원",
    "main_item": "커트",
    "price": "7,000",
    "phone": "043-847-7251",
    "address": "충청북도 충주시 동촌5길5 (교현안림동)",
    "lat": 36.9693013559244,
    "lng": 127.940841925012,
    "region_1depth": "충북",
    "region_2depth": "충주시"
  },
  {
    "category": "기타요식업",
    "name": "카페단우",
    "main_item": "아메리카노",
    "price": "2,500",
    "phone": "070-8880-4279",
    "address": "충청북도 충주시 예성로 180 (성내충인동)",
    "lat": 36.9725982235709,
    "lng": 127.933994341765,
    "region_1depth": "충북",
    "region_2depth": "충주시"
  },
  {
    "category": "중식",
    "name": "평화루",
    "main_item": "짜장면",
    "price": "5,000",
    "phone": "043-855-8798",
    "address": "충청북도 충주시 엄정면 미내장터길11",
    "lat": 37.0860769978966,
    "lng": 127.915864638375,
    "region_1depth": "충북",
    "region_2depth": "충주시"
  },
  {
    "category": "미용업",
    "name": "하나미용실",
    "main_item": "커트",
    "price": "9,000",
    "phone": "043-847-6943",
    "address": "충청북도 충주시 사직산21길35 (문화동)",
    "lat": 36.9725448128903,
    "lng": 127.928224148317,
    "region_1depth": "충북",
    "region_2depth": "충주시"
  },
  {
    "category": "미용업",
    "name": "헤어센스미용실",
    "main_item": "커트",
    "price": "10,000",
    "phone": "043-852-1141",
    "address": "충청북도 충주시 신니면 용원1길3",
    "lat": 36.9970344717918,
    "lng": 127.737089719387,
    "region_1depth": "충북",
    "region_2depth": "충주시"
  },
  {
    "category": "한식_면류",
    "name": "홍천식당",
    "main_item": "메밀칼국수",
    "price": "7,000",
    "phone": "043-851-2075",
    "address": "충청북도 충주시 교동1길15-7 (교현안림동)",
    "lat": 36.974435004413,
    "lng": 127.935369703546,
    "region_1depth": "충북",
    "region_2depth": "충주시"
  },
  {
    "category": "한식_육류",
    "name": "대복이네 밥집",
    "main_item": "수육정식",
    "price": "10,000",
    "phone": "043-647-6114",
    "address": "충청북도 제천시 장락로 187 (장락동)",
    "lat": 37.1583696387016,
    "lng": 128.227684608865,
    "region_1depth": "충북",
    "region_2depth": "제천시"
  },
  {
    "category": "한식_육류",
    "name": "대패꽃피네",
    "main_item": "돼지고기(대패)",
    "price": "4,200",
    "phone": "043-647-9289",
    "address": "충청북도 제천시 봉양읍 제원로2길 1",
    "lat": 37.1333841898113,
    "lng": 128.126239127744,
    "region_1depth": "충북",
    "region_2depth": "제천시"
  },
  {
    "category": "한식_육류",
    "name": "돼지세상",
    "main_item": "돼지왕갈비",
    "price": "14,000",
    "phone": "043-645-3692",
    "address": "충청북도 제천시 의병대로 246 (신백동)",
    "lat": 37.132032472235,
    "lng": 128.227581796148,
    "region_1depth": "충북",
    "region_2depth": "제천시"
  },
  {
    "category": "미용업",
    "name": "드라마헤어샵",
    "main_item": "파마",
    "price": "30,000",
    "phone": "043-647-5074",
    "address": "충청북도 제천시 의병대로55 (명동)",
    "lat": 37.1372908200093,
    "lng": 128.207293997405,
    "region_1depth": "충북",
    "region_2depth": "제천시"
  },
  {
    "category": "한식_일반",
    "name": "맹이네촌가",
    "main_item": "두부찌개",
    "price": "8,000",
    "phone": "043-646-2992",
    "address": "충청북도 제천시 의림대로33길 23-1 (청전동)",
    "lat": 37.1491096880724,
    "lng": 128.212543617064,
    "region_1depth": "충북",
    "region_2depth": "제천시"
  },
  {
    "category": "한식_일반",
    "name": "미락정",
    "main_item": "염소탕",
    "price": "14,000",
    "phone": "043-645-7965",
    "address": "충청북도 제천시 용두천로 266 (장락동)",
    "lat": 37.1496710048381,
    "lng": 128.220181597761,
    "region_1depth": "충북",
    "region_2depth": "제천시"
  },
  {
    "category": "한식_일반",
    "name": "미성설렁탕",
    "main_item": "설렁탕",
    "price": "9,000",
    "phone": "043-645-8833",
    "address": "충청북도 제천시 내제로 31길 4 (청전동)",
    "lat": 37.1468298845101,
    "lng": 128.21504993909,
    "region_1depth": "충북",
    "region_2depth": "제천시"
  },
  {
    "category": "한식_일반",
    "name": "미성식당",
    "main_item": "삼겹살(250g)",
    "price": "12,000",
    "phone": "",
    "address": "충청북도 제천시 내토로28길 1 (화산동) 미성식당",
    "lat": 37.1295871725812,
    "lng": 128.207023168716,
    "region_1depth": "충북",
    "region_2depth": "제천시"
  },
  {
    "category": "한식_육류",
    "name": "밥상위의보약한첩",
    "main_item": "약고추장더덕삼겹",
    "price": "13,000",
    "phone": "043-647-0065",
    "address": "충청북도 제천시 청풍면 배시론로 40 (청풍면)",
    "lat": 37.0000048504513,
    "lng": 128.165492268785,
    "region_1depth": "충북",
    "region_2depth": "제천시"
  },
  {
    "category": "한식_일반",
    "name": "비룡한우육개장",
    "main_item": "한우육개장",
    "price": "9,000",
    "phone": "043-645-2666",
    "address": "충청북도 제천시 청풍호로4가길 6 (영천동)",
    "lat": 37.126894895964,
    "lng": 128.201842165552,
    "region_1depth": "충북",
    "region_2depth": "제천시"
  },
  {
    "category": "한식_일반",
    "name": "사또가든",
    "main_item": "청국장",
    "price": "8,000",
    "phone": "043-653-4960",
    "address": "충청북도 제천시 봉양읍 제원로 394",
    "lat": 37.1604087736533,
    "lng": 128.109864247247,
    "region_1depth": "충북",
    "region_2depth": "제천시"
  },
  {
    "category": "한식_일반",
    "name": "선미식당",
    "main_item": "청국장",
    "price": "8,000",
    "phone": "043-647-9891",
    "address": "충청북도 제천시 봉양읍 북부로 1445",
    "lat": 37.1311869677027,
    "lng": 128.129960531907,
    "region_1depth": "충북",
    "region_2depth": "제천시"
  },
  {
    "category": "미용업",
    "name": "선미용실",
    "main_item": "파마",
    "price": "25,000",
    "phone": "043-644-7424",
    "address": "충청북도 제천시 용두천로 16길 7 (교동)",
    "lat": 37.1396919464834,
    "lng": 128.214776955187,
    "region_1depth": "충북",
    "region_2depth": "제천시"
  },
  {
    "category": "한식_육류",
    "name": "소뜰애",
    "main_item": "갈비살(100g)",
    "price": "13,000",
    "phone": "043-642-9485",
    "address": "충청북도 제천시 금성면 청풍호로 1030",
    "lat": 37.0630509063099,
    "lng": 128.166847436312,
    "region_1depth": "충북",
    "region_2depth": "제천시"
  },
  {
    "category": "한식_일반",
    "name": "소백산육개장",
    "main_item": "육개장",
    "price": "6,000",
    "phone": "043-645-5668",
    "address": "충청북도 제천시 의림대로 10-1 (화산동) (영천동)",
    "lat": 37.1292161993013,
    "lng": 128.206149679988,
    "region_1depth": "충북",
    "region_2depth": "제천시"
  },
  {
    "category": "양식",
    "name": "수제돈까스",
    "main_item": "수제왕돈까스",
    "price": "15,000",
    "phone": "043-645-3939",
    "address": "충청북도 제천시 남산로5길 13 (화산동)",
    "lat": 37.133593216068,
    "lng": 128.209437778879,
    "region_1depth": "충북",
    "region_2depth": "제천시"
  },
  {
    "category": "한식_일반",
    "name": "양지말해장국",
    "main_item": "황태콩나물해장국",
    "price": "8,000",
    "phone": "043-645-9981",
    "address": "충청북도 제천시 청전대로 54 (청전동)",
    "lat": 37.1463585371905,
    "lng": 128.205374003721,
    "region_1depth": "충북",
    "region_2depth": "제천시"
  },
  {
    "category": "한식_찌개류",
    "name": "옛골식당",
    "main_item": "두부전골",
    "price": "10,000",
    "phone": "",
    "address": "충청북도 제천시 내토로7길 13-1 (천남동) 옛골식당",
    "lat": 37.1313449457786,
    "lng": 128.183822576974,
    "region_1depth": "충북",
    "region_2depth": "제천시"
  },
  {
    "category": "한식_면류",
    "name": "옹심이칼국수",
    "main_item": "옹심이칼국수",
    "price": "8,000",
    "phone": "",
    "address": "충청북도 제천시 청전대로15길 14-1 (청전동) 옹심이칼국수",
    "lat": 37.1526677044886,
    "lng": 128.214343480234,
    "region_1depth": "충북",
    "region_2depth": "제천시"
  },
  {
    "category": "한식_면류",
    "name": "용천막국수 본점",
    "main_item": "물막국수",
    "price": "8,000",
    "phone": "043-645-4888",
    "address": "충청북도 제천시 의병대로 165 (동현동)",
    "lat": 37.1339897661374,
    "lng": 128.218882571699,
    "region_1depth": "충북",
    "region_2depth": "제천시"
  },
  {
    "category": "한식_면류",
    "name": "용천막국수 장락직영점",
    "main_item": "물막국수",
    "price": "8,000",
    "phone": "043-643-3425",
    "address": "충청북도 제천시 신죽하로 58 (장락동)",
    "lat": 37.1600027401784,
    "lng": 128.224929990822,
    "region_1depth": "충북",
    "region_2depth": "제천시"
  },
  {
    "category": "한식_일반",
    "name": "우돈명가",
    "main_item": "백반정식",
    "price": "8,000",
    "phone": "043-652-8400",
    "address": "충청북도 제천시 고암로14길 11 (고암동)",
    "lat": 37.1577581860623,
    "lng": 128.215811667316,
    "region_1depth": "충북",
    "region_2depth": "제천시"
  },
  {
    "category": "한식_면류",
    "name": "울산식당",
    "main_item": "칼국수",
    "price": "7,000",
    "phone": "043-643-9568",
    "address": "충청북도 제천시 풍양로 13 (서부동)",
    "lat": 37.1409391992065,
    "lng": 128.202683458212,
    "region_1depth": "충북",
    "region_2depth": "제천시"
  },
  {
    "category": "한식_면류",
    "name": "자매해물칼국수",
    "main_item": "해물칼국수",
    "price": "7,000",
    "phone": "043-645-8142",
    "address": "충청북도 제천시 하소로1길 3 (하소동)",
    "lat": 37.1433419288463,
    "lng": 128.198359077323,
    "region_1depth": "충북",
    "region_2depth": "제천시"
  },
  {
    "category": "미용업",
    "name": "정미용실",
    "main_item": "파마",
    "price": "30,000",
    "phone": "",
    "address": "충청북도 제천시 독순로 91-8 (중앙로2가) 정미용실",
    "lat": 37.1384932448932,
    "lng": 128.213264349137,
    "region_1depth": "충북",
    "region_2depth": "제천시"
  },
  {
    "category": "미용업",
    "name": "제일미용실",
    "main_item": "파마",
    "price": "25,000",
    "phone": "043-644-5419",
    "address": "충청북도 제천시 내제로15길 22 (청전동)",
    "lat": 37.1453957580692,
    "lng": 128.204812279618,
    "region_1depth": "충북",
    "region_2depth": "제천시"
  },
  {
    "category": "한식_일반",
    "name": "쥐눈이콩마을",
    "main_item": "두부전골",
    "price": "9,000",
    "phone": "043-642-4489",
    "address": "충청북도 제천시 내토로17길4-1 (영천동)",
    "lat": 37.130944540531,
    "lng": 128.204853520959,
    "region_1depth": "충북",
    "region_2depth": "제천시"
  },
  {
    "category": "한식_일반",
    "name": "집밥",
    "main_item": "찌개류",
    "price": "8,000",
    "phone": "043-644-1611",
    "address": "충청북도 제천시 내토로28길 7 (화산동)",
    "lat": 37.1292498047749,
    "lng": 128.206787238635,
    "region_1depth": "충북",
    "region_2depth": "제천시"
  },
  {
    "category": "이용업",
    "name": "착한이용원",
    "main_item": "커트",
    "price": "10,000",
    "phone": "",
    "address": "충청북도 제천시 의림대로26길 8 (청전동)",
    "lat": 37.144708900381,
    "lng": 128.214533159704,
    "region_1depth": "충북",
    "region_2depth": "제천시"
  },
  {
    "category": "미용업",
    "name": "착한헤어",
    "main_item": "커트",
    "price": "10,000",
    "phone": "043-643-3303",
    "address": "충청북도 제천시 의림대로26길 13-2 (청전동)",
    "lat": 37.14468918291,
    "lng": 128.215164596163,
    "region_1depth": "충북",
    "region_2depth": "제천시"
  },
  {
    "category": "한식_일반",
    "name": "청풍호 청정한우",
    "main_item": "황기사골곰탕",
    "price": "8,000",
    "phone": "043-647-9485",
    "address": "충청북도 제천시 금성면 청풍호로 743",
    "lat": 37.0724124416032,
    "lng": 128.191207356381,
    "region_1depth": "충북",
    "region_2depth": "제천시"
  },
  {
    "category": "한식_육류",
    "name": "춘천호반닭갈비막국수",
    "main_item": "닭갈비(300g)",
    "price": "13,000",
    "phone": "043-646-8999",
    "address": "충청북도 제천시 신죽하로 145 (고암동)",
    "lat": 37.1603188781895,
    "lng": 128.215104848223,
    "region_1depth": "충북",
    "region_2depth": "제천시"
  },
  {
    "category": "기타요식업",
    "name": "커피프린스",
    "main_item": "아메리카노",
    "price": "3,000",
    "phone": "043-645-8553",
    "address": "충청북도 제천시 신죽하로 58 (장락동)",
    "lat": 37.1600027401784,
    "lng": 128.224929990822,
    "region_1depth": "충북",
    "region_2depth": "제천시"
  },
  {
    "category": "한식_육류",
    "name": "한방고기타운",
    "main_item": "뽈살",
    "price": "11,000",
    "phone": "043-652-8956",
    "address": "충청북도 제천시 내제로29길 11-1 (청전동)",
    "lat": 37.1481484768824,
    "lng": 128.211409005067,
    "region_1depth": "충북",
    "region_2depth": "제천시"
  },
  {
    "category": "한식_면류",
    "name": "한일제면소",
    "main_item": "차돌육칼국수",
    "price": "8,000",
    "phone": "0507-1335-3133",
    "address": "충청북도 제천시 독순로11길 1 1층 (의림동)",
    "lat": 37.1396503668487,
    "lng": 128.209292241418,
    "region_1depth": "충북",
    "region_2depth": "제천시"
  },
  {
    "category": "세탁업",
    "name": "향기나는세탁소",
    "main_item": "세탁수선",
    "price": "9,000",
    "phone": "043-652-8284",
    "address": "충청북도 제천시 장락로 130 (장락동)",
    "lat": 37.1535042356549,
    "lng": 128.225917013658,
    "region_1depth": "충북",
    "region_2depth": "제천시"
  },
  {
    "category": "한식_육류",
    "name": "향촌",
    "main_item": "닭갈비\n(250g)",
    "price": "12,000",
    "phone": "043-646-1557",
    "address": "충청북도 제천시 성봉로 8 (청전동)",
    "lat": 37.1480708687277,
    "lng": 128.206864194156,
    "region_1depth": "충북",
    "region_2depth": "제천시"
  },
  {
    "category": "한식_일반",
    "name": "현금식당",
    "main_item": "가락국수",
    "price": "5,000",
    "phone": "043-645-6668",
    "address": "충청북도 제천시 내토로28길 1 (화산동)",
    "lat": 37.1295871725812,
    "lng": 128.207023168716,
    "region_1depth": "충북",
    "region_2depth": "제천시"
  },
  {
    "category": "한식_면류",
    "name": "홍굴부추칼국수",
    "main_item": "홍굴부추칼국수",
    "price": "8,000",
    "phone": "043-646-4122",
    "address": "충청북도 제천시 풍양로11길 5 (의림동)",
    "lat": 37.138208824728,
    "lng": 128.209329728474,
    "region_1depth": "충북",
    "region_2depth": "제천시"
  },
  {
    "category": "한식_일반",
    "name": "갈비천국",
    "main_item": "삼겹살(200g)",
    "price": "13,000",
    "phone": "043-543-8835",
    "address": "충청북도 보은군 보은읍 동편길 22",
    "lat": 36.4821382763729,
    "lng": 127.721154765581,
    "region_1depth": "충북",
    "region_2depth": "보은군"
  },
  {
    "category": "한식_일반",
    "name": "기사님식당",
    "main_item": "더덕구이 산채정식(청국장 기본제공)",
    "price": "16,000",
    "phone": "043-543-3729",
    "address": "충청북도 보은군 속리산면 법주사로 18",
    "lat": 36.5125711218809,
    "lng": 127.810628813387,
    "region_1depth": "충북",
    "region_2depth": "보은군"
  },
  {
    "category": "한식_육류",
    "name": "보은생고기",
    "main_item": "삼겹살(200g)",
    "price": "12,000",
    "phone": "043-543-7169",
    "address": "충청북도 보은군 회남면 사담길 51 (1층)",
    "lat": 36.4448083719354,
    "lng": 127.580658899283,
    "region_1depth": "충북",
    "region_2depth": "보은군"
  },
  {
    "category": "한식_일반",
    "name": "삼보정",
    "main_item": "삼겹살(200g)",
    "price": "14,000",
    "phone": "043-542-2312",
    "address": "충청북도 보은군 보은읍 삼산로4길 8",
    "lat": 36.4844732887601,
    "lng": 127.718828482724,
    "region_1depth": "충북",
    "region_2depth": "보은군"
  },
  {
    "category": "미용업",
    "name": "성모미용실",
    "main_item": "커트(일반)",
    "price": "8,000",
    "phone": "043-544-4051",
    "address": "충청북도 보은군 보은읍 보은로 116-5",
    "lat": 36.4846023245407,
    "lng": 127.71829101279,
    "region_1depth": "충북",
    "region_2depth": "보은군"
  },
  {
    "category": "한식_일반",
    "name": "성별식당",
    "main_item": "김치찌개",
    "price": "8,000",
    "phone": "043-543-8007",
    "address": "충청북도 보은군 보은읍 삼산로 6길 5",
    "lat": 36.4827300200874,
    "lng": 127.716928501333,
    "region_1depth": "충북",
    "region_2depth": "보은군"
  },
  {
    "category": "한식_일반",
    "name": "송림식당",
    "main_item": "산채비빔밥",
    "price": "10,000",
    "phone": "043-543-3941",
    "address": "충청북도 보은군 속리산면 사내7길 11-1",
    "lat": 36.5322565793867,
    "lng": 127.822023900044,
    "region_1depth": "충북",
    "region_2depth": "보은군"
  },
  {
    "category": "한식_일반",
    "name": "수한식당",
    "main_item": "백반(1인)",
    "price": "8,000",
    "phone": "043-544-2768",
    "address": "충청북도 보은군 보은읍 삼산로2길 12",
    "lat": 36.4855270985025,
    "lng": 127.72040947423,
    "region_1depth": "충북",
    "region_2depth": "보은군"
  },
  {
    "category": "한식_면류",
    "name": "수한칼국수",
    "main_item": "손칼국수",
    "price": "7,000",
    "phone": "043-543-1422",
    "address": "충청북도 보은군 수한면 보청대로 2117-4",
    "lat": 36.4805212166576,
    "lng": 127.697592531824,
    "region_1depth": "충북",
    "region_2depth": "보은군"
  },
  {
    "category": "한식_육류",
    "name": "신사동왕족발",
    "main_item": "보쌈(대)",
    "price": "42,000",
    "phone": "043-542-3187",
    "address": "충청북도 보은군 보은읍 보은로 124-5",
    "lat": 36.4854289171818,
    "lng": 127.718354664283,
    "region_1depth": "충북",
    "region_2depth": "보은군"
  },
  {
    "category": "한식_육류",
    "name": "원남식당(숯불구이)",
    "main_item": "소금구이(삼겹살.목살)(200g)",
    "price": "12,000",
    "phone": "043-542-6419",
    "address": "충청북도 보은군 삼승면 원남로 17",
    "lat": 36.3950827069461,
    "lng": 127.732521276825,
    "region_1depth": "충북",
    "region_2depth": "보은군"
  },
  {
    "category": "한식_일반",
    "name": "은현이네 부대찌개, 생삼겹살",
    "main_item": "생삼겹살(200g)",
    "price": "14,000",
    "phone": "043-542-2223",
    "address": "충청북도 보은군 보은읍 뱃들3길 16-7",
    "lat": 36.4866258586966,
    "lng": 127.727257271584,
    "region_1depth": "충북",
    "region_2depth": "보은군"
  },
  {
    "category": "한식_일반",
    "name": "정이품식당",
    "main_item": "돌솥비빔밥",
    "price": "12,000",
    "phone": "043-543-3995",
    "address": "충청북도 보은군 속리산면 법주사로 273 (1층)",
    "lat": 36.5322146674606,
    "lng": 127.823070502787,
    "region_1depth": "충북",
    "region_2depth": "보은군"
  },
  {
    "category": "한식_일반",
    "name": "중앙식당",
    "main_item": "백반",
    "price": "8,000",
    "phone": "043-544-2250",
    "address": "충청북도 보은군 보은읍 삼산로 34-3",
    "lat": 36.4839602401928,
    "lng": 127.718264775553,
    "region_1depth": "충북",
    "region_2depth": "보은군"
  },
  {
    "category": "한식_일반",
    "name": "초가집가든",
    "main_item": "오리백숙",
    "price": "45,000",
    "phone": "043-543-2859",
    "address": "충청북도 보은군 회인면 보청대로 3876",
    "lat": 36.5212537434734,
    "lng": 127.586813989995,
    "region_1depth": "충북",
    "region_2depth": "보은군"
  },
  {
    "category": "한식_일반",
    "name": "팔도식당",
    "main_item": "돌솥비빔밥",
    "price": "11,000",
    "phone": "043-544-2531",
    "address": "충청북도 보은군 속리산면 법주사로 262",
    "lat": 36.531192388335,
    "lng": 127.82244956177,
    "region_1depth": "충북",
    "region_2depth": "보은군"
  },
  {
    "category": "한식_육류",
    "name": "혜성정육점식당",
    "main_item": "삼겹살(200g)",
    "price": "13,000",
    "phone": "043-542-7361",
    "address": "충청북도 보은군 보은읍 삼산남로 7-1",
    "lat": 36.482836519169,
    "lng": 127.721967816381,
    "region_1depth": "충북",
    "region_2depth": "보은군"
  },
  {
    "category": "한식_일반",
    "name": "환요성",
    "main_item": "오리주물럭",
    "price": "50,000",
    "phone": "043-543-0395",
    "address": "충청북도 보은군 보은읍 보은로 114-4",
    "lat": 36.4841023862684,
    "lng": 127.718243769151,
    "region_1depth": "충북",
    "region_2depth": "보은군"
  },
  {
    "category": "이용업",
    "name": "공주이용원",
    "main_item": "이발",
    "price": "12,000",
    "phone": "043-733-1501",
    "address": "충청북도 옥천군 군북면 옥천로 1122",
    "lat": 36.3303307198831,
    "lng": 127.534621982118,
    "region_1depth": "충북",
    "region_2depth": "옥천군"
  },
  {
    "category": "한식_일반",
    "name": "군서보리밥",
    "main_item": "잔치국수",
    "price": "6,000",
    "phone": "043-733-7104",
    "address": "충청북도 옥천군 옥천읍 삼금로 45 옥천상가",
    "lat": 36.3023921393425,
    "lng": 127.568212995002,
    "region_1depth": "충북",
    "region_2depth": "옥천군"
  },
  {
    "category": "한식_일반",
    "name": "김밥천냥",
    "main_item": "김밥",
    "price": "1,500",
    "phone": "043-731-1471",
    "address": "충청북도 옥천군 옥천읍 삼금로 13",
    "lat": 36.2996957116123,
    "lng": 127.56643241034,
    "region_1depth": "충북",
    "region_2depth": "옥천군"
  },
  {
    "category": "한식_일반",
    "name": "달달이치킨",
    "main_item": "후라이드",
    "price": "16,000",
    "phone": "043-732-6022",
    "address": "충청북도 옥천군 안내면 현리길 90-1",
    "lat": 36.3936557926894,
    "lng": 127.659375099342,
    "region_1depth": "충북",
    "region_2depth": "옥천군"
  },
  {
    "category": "미용업",
    "name": "대원미용실",
    "main_item": "커트",
    "price": "6,000",
    "phone": "043-732-9898",
    "address": "충청북도 옥천군 옥천읍 옥천로 1632",
    "lat": 36.2974771391219,
    "lng": 127.56612135215,
    "region_1depth": "충북",
    "region_2depth": "옥천군"
  },
  {
    "category": "한식_육류",
    "name": "만족",
    "main_item": "왕족발",
    "price": "23,000",
    "phone": "",
    "address": "충청북도 옥천군 옥천읍 삼금로5길 5-14 옥천공설시장",
    "lat": 36.3025129601443,
    "lng": 127.56791516095,
    "region_1depth": "충북",
    "region_2depth": "옥천군"
  },
  {
    "category": "한식_면류",
    "name": "매화칼국수",
    "main_item": "콩나물비빔밥",
    "price": "6,000",
    "phone": "043-731-2878",
    "address": "충청북도 옥천군 옥천읍 매화길 16",
    "lat": 36.303998215539,
    "lng": 127.594763269573,
    "region_1depth": "충북",
    "region_2depth": "옥천군"
  },
  {
    "category": "한식_면류",
    "name": "메밀고개 시골막국수",
    "main_item": "메밀물막국수",
    "price": "8,500",
    "phone": "",
    "address": "충청북도 옥천군 옥천읍 옥천동이로 300",
    "lat": 36.2962515932808,
    "lng": 127.602797147932,
    "region_1depth": "충북",
    "region_2depth": "옥천군"
  },
  {
    "category": "한식_일반",
    "name": "모녀손만두(종합상가점)",
    "main_item": "고기만두",
    "price": "5,000",
    "phone": "043-731-1850",
    "address": "충청북도 옥천군 옥천읍 삼금로 45 옥천상가",
    "lat": 36.3023921393425,
    "lng": 127.568212995002,
    "region_1depth": "충북",
    "region_2depth": "옥천군"
  },
  {
    "category": "한식_일반",
    "name": "민들레",
    "main_item": "삼겹살",
    "price": "13,000",
    "phone": "043-733-9237",
    "address": "충청북도 옥천군 옥천읍 양수로 25-7",
    "lat": 36.3005909807104,
    "lng": 127.562836186803,
    "region_1depth": "충북",
    "region_2depth": "옥천군"
  },
  {
    "category": "한식_일반",
    "name": "보리촌복돼지",
    "main_item": "보리밥",
    "price": "7,500",
    "phone": "043-733-1633",
    "address": "충청북도 옥천군 옥천읍 가화4길 66",
    "lat": 36.301412574371,
    "lng": 127.560939520665,
    "region_1depth": "충북",
    "region_2depth": "옥천군"
  },
  {
    "category": "중식",
    "name": "북경루",
    "main_item": "짜장면",
    "price": "6,000",
    "phone": "043-733-2028",
    "address": "충청북도 옥천군 옥천읍 삼금로5길 5-14",
    "lat": 36.3025129601443,
    "lng": 127.56791516095,
    "region_1depth": "충북",
    "region_2depth": "옥천군"
  },
  {
    "category": "한식_일반",
    "name": "시장백반",
    "main_item": "북어칼국수",
    "price": "5,000",
    "phone": "",
    "address": "충청북도 옥천군 옥천읍 삼금로5길 5-14 옥천공설시장",
    "lat": 36.3025129601443,
    "lng": 127.56791516095,
    "region_1depth": "충북",
    "region_2depth": "옥천군"
  },
  {
    "category": "한식_일반",
    "name": "안덕벌 돈까스",
    "main_item": "안덕벌 돈까스",
    "price": "9,000",
    "phone": "043-731-5552",
    "address": "충청북도 옥천군 옥천읍 성암2길 19-1 1층",
    "lat": 36.2941744426703,
    "lng": 127.568774910135,
    "region_1depth": "충북",
    "region_2depth": "옥천군"
  },
  {
    "category": "한식_육류",
    "name": "옛장터숯불갈비",
    "main_item": "돼지갈비",
    "price": "13,000",
    "phone": "",
    "address": "충청북도 옥천군 이원면 이원로 809",
    "lat": 36.2447229270332,
    "lng": 127.626448807052,
    "region_1depth": "충북",
    "region_2depth": "옥천군"
  },
  {
    "category": "한식_육류",
    "name": "옥천숯불촌",
    "main_item": "삼겹살",
    "price": "13,000",
    "phone": "043-733-6655",
    "address": "충청북도 옥천군 옥천읍 금장로 109-7",
    "lat": 36.2984134523395,
    "lng": 127.574698755769,
    "region_1depth": "충북",
    "region_2depth": "옥천군"
  },
  {
    "category": "한식_육류",
    "name": "옥천푸줏간",
    "main_item": "삼겹살",
    "price": "13,000",
    "phone": "043-731-4333",
    "address": "충청북도 옥천군 옥천읍 삼금로 30",
    "lat": 36.300787088672,
    "lng": 127.567637121516,
    "region_1depth": "충북",
    "region_2depth": "옥천군"
  },
  {
    "category": "기타요식업",
    "name": "은경이네",
    "main_item": "계란빵",
    "price": "1,000",
    "phone": "",
    "address": "충청북도 옥천군 옥천읍 삼금로5길 5-14 122호",
    "lat": 36.3025129601443,
    "lng": 127.56791516095,
    "region_1depth": "충북",
    "region_2depth": "옥천군"
  },
  {
    "category": "한식_일반",
    "name": "이은희 해물전문점",
    "main_item": "해물찜",
    "price": "49,000",
    "phone": "",
    "address": "충청북도 옥천군 안내면 현리4길 52",
    "lat": 36.3944104736335,
    "lng": 127.658745009193,
    "region_1depth": "충북",
    "region_2depth": "옥천군"
  },
  {
    "category": "한식_일반",
    "name": "정자가든식당",
    "main_item": "삼계탕",
    "price": "13,000",
    "phone": "043-731-3355",
    "address": "충청북도 옥천군 군북면 이백길 3",
    "lat": 36.3297616856602,
    "lng": 127.535515318998,
    "region_1depth": "충북",
    "region_2depth": "옥천군"
  },
  {
    "category": "미용업",
    "name": "제일미용실",
    "main_item": "커트",
    "price": "7,000",
    "phone": "043-732-2339",
    "address": "충청북도 옥천군 이원면 신흥길 10-1",
    "lat": 36.2458367872058,
    "lng": 127.620813016702,
    "region_1depth": "충북",
    "region_2depth": "옥천군"
  },
  {
    "category": "중식",
    "name": "중식당향수",
    "main_item": "짜장",
    "price": "6,000",
    "phone": "043-731-5777",
    "address": "충청북도 옥천군 옥천읍 향수2길 29-14",
    "lat": 36.3163466414716,
    "lng": 127.578190924032,
    "region_1depth": "충북",
    "region_2depth": "옥천군"
  },
  {
    "category": "한식_면류",
    "name": "중앙옥",
    "main_item": "김치찌개",
    "price": "7,000",
    "phone": "",
    "address": "충청북도 옥천군 옥천읍 삼금로5길 5-14",
    "lat": 36.3025129601443,
    "lng": 127.56791516095,
    "region_1depth": "충북",
    "region_2depth": "옥천군"
  },
  {
    "category": "한식_육류",
    "name": "진달래가든 2호점",
    "main_item": "흑염소탕",
    "price": "15,000",
    "phone": "",
    "address": "충청북도 옥천군 옥천읍 옥천동이로 225-7",
    "lat": 36.300360584471,
    "lng": 127.598420158642,
    "region_1depth": "충북",
    "region_2depth": "옥천군"
  },
  {
    "category": "미용업",
    "name": "진실미용실",
    "main_item": "커트",
    "price": "7,000",
    "phone": "043-732-0132",
    "address": "충청북도 옥천군 군북면 옥천로 1122-1",
    "lat": 36.33024832648,
    "lng": 127.534748719848,
    "region_1depth": "충북",
    "region_2depth": "옥천군"
  },
  {
    "category": "한식_면류",
    "name": "초롱식당",
    "main_item": "칼국수",
    "price": "7,500",
    "phone": "043-732-2662",
    "address": "충청북도 옥천군 옥천읍 삼양로 33",
    "lat": 36.307016815219,
    "lng": 127.565508116423,
    "region_1depth": "충북",
    "region_2depth": "옥천군"
  },
  {
    "category": "한식_면류",
    "name": "친구네칼국수",
    "main_item": "잔치국수",
    "price": "4,000",
    "phone": "",
    "address": "충청북도 옥천군 옥천읍 삼양로7길 3",
    "lat": 36.3038104829355,
    "lng": 127.567969659846,
    "region_1depth": "충북",
    "region_2depth": "옥천군"
  },
  {
    "category": "기타요식업",
    "name": "카페보노롱",
    "main_item": "수제차",
    "price": "4,000",
    "phone": "",
    "address": "충청북도 옥천군 옥천읍 향수길 48",
    "lat": 36.3148610338428,
    "lng": 127.580520349311,
    "region_1depth": "충북",
    "region_2depth": "옥천군"
  },
  {
    "category": "기타요식업",
    "name": "카페쿠잉",
    "main_item": "아메리카노",
    "price": "2,500",
    "phone": "043-731-8730",
    "address": "충청북도 옥천군 옥천읍 중앙로11길 2",
    "lat": 36.3025501766186,
    "lng": 127.569677188841,
    "region_1depth": "충북",
    "region_2depth": "옥천군"
  },
  {
    "category": "한식_일반",
    "name": "칼국수 전문점 해와달",
    "main_item": "칼국수",
    "price": "7,000",
    "phone": "010-2322-7727",
    "address": "충청북도 옥천군 안남면 연주길 34",
    "lat": 36.3571866940617,
    "lng": 127.67378272416,
    "region_1depth": "충북",
    "region_2depth": "옥천군"
  },
  {
    "category": "한식_일반",
    "name": "콩쥐야팥쥐야",
    "main_item": "콩죽",
    "price": "5,000",
    "phone": "043-731-7342",
    "address": "충청북도 옥천군 옥천읍 삼금로5길 5-14 207호",
    "lat": 36.3025129601443,
    "lng": 127.56791516095,
    "region_1depth": "충북",
    "region_2depth": "옥천군"
  },
  {
    "category": "미용업",
    "name": "파파머리방",
    "main_item": "커트",
    "price": "6,000",
    "phone": "043-731-2298",
    "address": "충청북도 옥천군 옥천읍 중앙로6길 3",
    "lat": 36.3015187963311,
    "lng": 127.56893611432,
    "region_1depth": "충북",
    "region_2depth": "옥천군"
  },
  {
    "category": "기타요식업",
    "name": "하얀풍차",
    "main_item": "햄버거",
    "price": "1,500",
    "phone": "043-732-0871",
    "address": "충청북도 옥천군 옥천읍 중앙로 63",
    "lat": 36.3027336116402,
    "lng": 127.56983773171,
    "region_1depth": "충북",
    "region_2depth": "옥천군"
  },
  {
    "category": "한식_일반",
    "name": "향수올갱이",
    "main_item": "올갱이국",
    "price": "10,000",
    "phone": "",
    "address": "충청북도 옥천군 옥천읍 삼금로5길 5-14 옥천공설시장",
    "lat": 36.3025129601443,
    "lng": 127.56791516095,
    "region_1depth": "충북",
    "region_2depth": "옥천군"
  },
  {
    "category": "한식_육류",
    "name": "갈기산농원식당",
    "main_item": "토종닭백숙",
    "price": "50,000",
    "phone": "043-744-7600",
    "address": "충청북도 영동군 학산면 갈기산로 581",
    "lat": 36.1172059700416,
    "lng": 127.640477032183,
    "region_1depth": "충북",
    "region_2depth": "영동군"
  },
  {
    "category": "한식_육류",
    "name": "구이돈",
    "main_item": "국내산삼겹살(180g)",
    "price": "10,000",
    "phone": "043-742-9289",
    "address": "충청북도 영동군 영동읍 계산로4길 1",
    "lat": 36.1726790294184,
    "lng": 127.781992433722,
    "region_1depth": "충북",
    "region_2depth": "영동군"
  },
  {
    "category": "한식_일반",
    "name": "놀부식당",
    "main_item": "-",
    "price": "",
    "phone": "043-742-6903",
    "address": "충청북도 영동군 심천면 양산심천로 1189-4 놀부식당",
    "lat": 36.2074041383885,
    "lng": 127.70127464429,
    "region_1depth": "충북",
    "region_2depth": "영동군"
  },
  {
    "category": "한식_육류",
    "name": "덕성식육식당",
    "main_item": "생삼겹살(180g)",
    "price": "12,000",
    "phone": "043-744-0900",
    "address": "충청북도 영동군 영동읍 중앙로1길 3",
    "lat": 36.1740785408943,
    "lng": 127.776040863034,
    "region_1depth": "충북",
    "region_2depth": "영동군"
  },
  {
    "category": "일식",
    "name": "동해바다횟집",
    "main_item": "-",
    "price": "",
    "phone": "043-742-0832",
    "address": "충청북도 영동군 영동읍 영동시장1길 18 동해바다횟집",
    "lat": 36.1756004881408,
    "lng": 127.774923108901,
    "region_1depth": "충북",
    "region_2depth": "영동군"
  },
  {
    "category": "한식_육류",
    "name": "매봉가든",
    "main_item": "오리정식(4인분)",
    "price": "45,000",
    "phone": "043-742-0399",
    "address": "충청북도 영동군 용산면 서신항길 12",
    "lat": 36.2572569963522,
    "lng": 127.816173317028,
    "region_1depth": "충북",
    "region_2depth": "영동군"
  },
  {
    "category": "한식_일반",
    "name": "매화골",
    "main_item": "-",
    "price": "",
    "phone": "043-742-3355",
    "address": "충청북도 영동군 매곡면 민주지산로 3467 매화골",
    "lat": 36.180623947683,
    "lng": 127.925941329197,
    "region_1depth": "충북",
    "region_2depth": "영동군"
  },
  {
    "category": "한식_육류",
    "name": "백호정육식당",
    "main_item": "-",
    "price": "",
    "phone": "043-744-1515",
    "address": "충청북도 영동군 영동읍 영산로3길 16 백호정육식당",
    "lat": 36.1763358541855,
    "lng": 127.774992485638,
    "region_1depth": "충북",
    "region_2depth": "영동군"
  },
  {
    "category": "중식",
    "name": "복무춘",
    "main_item": "짜장면",
    "price": "5,000",
    "phone": "043-742-1531",
    "address": "충청북도 영동군 영동읍 영동시장3길 29",
    "lat": 36.1768850067661,
    "lng": 127.774787922126,
    "region_1depth": "충북",
    "region_2depth": "영동군"
  },
  {
    "category": "한식_기타",
    "name": "순이네식당",
    "main_item": "순대국밥",
    "price": "7,000",
    "phone": "043-743-5685",
    "address": "충청북도 영동군 영동읍 영동시장3길 10-1",
    "lat": 36.1755135862831,
    "lng": 127.776123818218,
    "region_1depth": "충북",
    "region_2depth": "영동군"
  },
  {
    "category": "미용업",
    "name": "쎄븐미용실",
    "main_item": "-",
    "price": "",
    "phone": "043-743-0932",
    "address": "충청북도 영동군 영동읍 영동시장4길 10 쎄븐미용실",
    "lat": 36.1757784235155,
    "lng": 127.776710541693,
    "region_1depth": "충북",
    "region_2depth": "영동군"
  },
  {
    "category": "한식_일반",
    "name": "오목식당",
    "main_item": "추어탕",
    "price": "7,000",
    "phone": "043-743-3152",
    "address": "충청북도 영동군 영동읍 부용5길 11",
    "lat": 36.1741668465174,
    "lng": 127.772656734811,
    "region_1depth": "충북",
    "region_2depth": "영동군"
  },
  {
    "category": "한식_육류",
    "name": "장생생고기",
    "main_item": "-",
    "price": "",
    "phone": "043-744-5989",
    "address": "충청북도 영동군 영동읍 영동시장1길 19-1 장생생고기",
    "lat": 36.1756491195075,
    "lng": 127.774635700736,
    "region_1depth": "충북",
    "region_2depth": "영동군"
  },
  {
    "category": "기타요식업",
    "name": "카페하누",
    "main_item": "아메리카노",
    "price": "2,500",
    "phone": "043-742-0609",
    "address": "충청북도 영동군 영동읍 계산로78",
    "lat": 36.1718865725651,
    "lng": 127.785001670171,
    "region_1depth": "충북",
    "region_2depth": "영동군"
  },
  {
    "category": "한식_일반",
    "name": "코끼리만두",
    "main_item": "고기만두(1인분)",
    "price": "5,000",
    "phone": "043-743-4165",
    "address": "충청북도 영동군 영동읍 중앙로 35",
    "lat": 36.1752775433101,
    "lng": 127.777252580758,
    "region_1depth": "충북",
    "region_2depth": "영동군"
  },
  {
    "category": "세탁업",
    "name": "토탈크리닝",
    "main_item": "와이셔츠",
    "price": "4,000",
    "phone": "043-745-1023",
    "address": "충청북도 영동군 영동읍 중앙로1길 6-7",
    "lat": 36.1735765256006,
    "lng": 127.775854959953,
    "region_1depth": "충북",
    "region_2depth": "영동군"
  },
  {
    "category": "한식_육류",
    "name": "홍능갈비",
    "main_item": "돼지갈비(220g)",
    "price": "9,000",
    "phone": "043-744-1185",
    "address": "충청북도 영동군 영동읍 계산로7길 7-4",
    "lat": 36.1714809952974,
    "lng": 127.784266053216,
    "region_1depth": "충북",
    "region_2depth": "영동군"
  },
  {
    "category": "기타요식업",
    "name": "55길거리토스트덕",
    "main_item": "호떡",
    "price": "1,000",
    "phone": "",
    "address": "충청북도 증평군 증평읍 중앙로8길 12 1층",
    "lat": 36.7838704868207,
    "lng": 127.582738315483,
    "region_1depth": "충북",
    "region_2depth": "증평군"
  },