[
  {
    "category": "한식",
    "name": "가마두담",
    "main_item": "김치찜(2인)",
    "price": "20,000",
    "phone": "0507-5116-2226",
    "address": "인천광역시 중구 월촌길 34 (중산동) 1층",
    "lat": 37.4963850871898,
    "lng": 126.564762175807,
    "region_1depth": "인천",
    "region_2depth": "중구"
  },
  {
    "category": "한식",
    "name": "골목집",
    "main_item": "칼국수",
    "price": "6,000",
    "phone": "032-765-3149",
    "address": "인천광역시 중구 신포로 32-22 (신포동)",
    "lat": 37.4714816686167,
    "lng": 126.625847852578,
    "region_1depth": "인천",
    "region_2depth": "중구"
  },
  {
    "category": "한식",
    "name": "공항샤브칼국수",
    "main_item": "공항샤브샤브",
    "price": "10,900",
    "phone": "032-751-3337",
    "address": "인천광역시 중구 운중로48번길 94 (운남동) 1층",
    "lat": 37.4863254638904,
    "lng": 126.539532636522,
    "region_1depth": "인천",
    "region_2depth": "중구"
  },
  {
    "category": "한식",
    "name": "금촌집",
    "main_item": "부대찌개(2인)",
    "price": "16,000",
    "phone": "032-772-9324",
    "address": "인천광역시 중구 우현로90번길 19-1 (인현동) 1층",
    "lat": 37.4739507018643,
    "lng": 126.63100790945,
    "region_1depth": "인천",
    "region_2depth": "중구"
  },
  {
    "category": "한식",
    "name": "김윤식의 착한국수, 솥뚜껑삼겹살",
    "main_item": "국수+떡갈비",
    "price": "7,000",
    "phone": "032-255-9510",
    "address": "인천광역시 중구 운중로 8 (운남동) 2층",
    "lat": 37.4933687248985,
    "lng": 126.534419856576,
    "region_1depth": "인천",
    "region_2depth": "중구"
  },
  {
    "category": "한식",
    "name": "내고향 돼지불백전문점",
    "main_item": "돼지불백+김치찌개",
    "price": "11,000",
    "phone": "032-747-1185",
    "address": "인천광역시 중구 운중로14번길 15 (운남동) 1층",
    "lat": 37.4927117686798,
    "lng": 126.536151082741,
    "region_1depth": "인천",
    "region_2depth": "중구"
  },
  {
    "category": "한식",
    "name": "다정가마솥순두부",
    "main_item": "초당(백)순두부",
    "price": "9,000",
    "phone": "0507-1320-8254",
    "address": "인천광역시 중구 운중로 140-4 (중산동) 1층",
    "lat": 37.4937360981858,
    "lng": 126.547836574852,
    "region_1depth": "인천",
    "region_2depth": "중구"
  },
  {
    "category": "중식",
    "name": "도래순",
    "main_item": "짜장면",
    "price": "6,000",
    "phone": "032-766-3907",
    "address": "인천광역시 중구 신포로15번길 68-1 1층(해안동2가)",
    "lat": 37.4724317342844,
    "lng": 126.621168040258,
    "region_1depth": "인천",
    "region_2depth": "중구"
  },
  {
    "category": "한식",
    "name": "백원이네",
    "main_item": "해물라면",
    "price": "5,000",
    "phone": "032-751-5059",
    "address": "인천광역시 중구 예단포1로 2-10 (운북동)",
    "lat": 37.5314534478937,
    "lng": 126.502439167743,
    "region_1depth": "인천",
    "region_2depth": "중구"
  },
  {
    "category": "한식",
    "name": "부산식당",
    "main_item": "모듬회(중)",
    "price": "30,000",
    "phone": "032-882-8991",
    "address": "인천광역시 중구 연안부두로 16 2층 (항동7가)",
    "lat": 37.4565683327186,
    "lng": 126.603583401783,
    "region_1depth": "인천",
    "region_2depth": "중구"
  },
  {
    "category": "기타요식업",
    "name": "삼미",
    "main_item": "치즈카야토스트",
    "price": "4,000",
    "phone": "032-812-4055",
    "address": "인천광역시 중구 제물량로 210-4 (해안동2가) 1층",
    "lat": 37.4719518769631,
    "lng": 126.621201776034,
    "region_1depth": "인천",
    "region_2depth": "중구"
  },
  {
    "category": "한식",
    "name": "소미국수",
    "main_item": "감자칼국수",
    "price": "8,000",
    "phone": "032-773-1003",
    "address": "인천광역시 중구 서해대로 486-2 (유동) 1층",
    "lat": 37.4691611005938,
    "lng": 126.636549059891,
    "region_1depth": "인천",
    "region_2depth": "중구"
  },
  {
    "category": "한식",
    "name": "신신분식",
    "main_item": "우동",
    "price": "5,500",
    "phone": "032-762-0992",
    "address": "인천광역시 중구 자유공원로27번길 1 (내동)",
    "lat": 37.475111739177,
    "lng": 126.627848403961,
    "region_1depth": "인천",
    "region_2depth": "중구"
  },
  {
    "category": "한식",
    "name": "신포대패",
    "main_item": "신포대패(120g)",
    "price": "6,000",
    "phone": "032-765-5237",
    "address": "인천광역시 중구 개항로 23 (관동3가)",
    "lat": 37.4719246800065,
    "lng": 126.625275097774,
    "region_1depth": "인천",
    "region_2depth": "중구"
  },
  {
    "category": "한식",
    "name": "신포화로구이",
    "main_item": "김치찌개",
    "price": "7,000",
    "phone": "032-777-0099",
    "address": "인천광역시 중구 신포로 27번길 16 (관동3가)",
    "lat": 37.4719823087487,
    "lng": 126.624610999499,
    "region_1depth": "인천",
    "region_2depth": "중구"
  },
  {
    "category": "한식",
    "name": "신흥숯불갈비",
    "main_item": "냉면",
    "price": "8,000",
    "phone": "032-883-7717",
    "address": "인천광역시 중구 서해대로454번길 14-2 (선화동)",
    "lat": 37.4656929791796,
    "lng": 126.636120369468,
    "region_1depth": "인천",
    "region_2depth": "중구"
  },
  {
    "category": "한식",
    "name": "옹진찰밥",
    "main_item": "소라된장찌개",
    "price": "8,000",
    "phone": "032-765-2773",
    "address": "인천광역시 중구 제물량로306번길 45 (북성동2가) 1층",
    "lat": 37.4767581271522,
    "lng": 126.617961699088,
    "region_1depth": "인천",
    "region_2depth": "중구"
  },
  {
    "category": "기타요식업",
    "name": "우리두리머물다",
    "main_item": "미식혜(500ml)",
    "price": "3,000",
    "phone": "0507-1446-1503",
    "address": "인천광역시 중구 제물량로166번길 5 (신생동) 1층",
    "lat": 37.4705062311705,
    "lng": 126.625503746071,
    "region_1depth": "인천",
    "region_2depth": "중구"
  },
  {
    "category": "한식",
    "name": "우현족발",
    "main_item": "무한리필(족발 보쌈 매운족발 감자탕)",
    "price": "14,000",
    "phone": "032-777-8837",
    "address": "인천광역시 중구 우현로49번길 2-7 (내동) 1층",
    "lat": 37.4719929352226,
    "lng": 126.628199955571,
    "region_1depth": "인천",
    "region_2depth": "중구"
  },
  {
    "category": "한식",
    "name": "월미식당",
    "main_item": "짜장면",
    "price": "6,000",
    "phone": "032-761-6800",
    "address": "인천광역시 중구 월미로234번길 6 (북성동1가)",
    "lat": 37.4754721671142,
    "lng": 126.598889031169,
    "region_1depth": "인천",
    "region_2depth": "중구"
  },
  {
    "category": "중식",
    "name": "일등짬뽕",
    "main_item": "짜장면",
    "price": "6,000",
    "phone": "032-747-0660",
    "address": "인천광역시 중구 운중로 28 (운남동) 1층",
    "lat": 37.4931360107842,
    "lng": 126.536600433046,
    "region_1depth": "인천",
    "region_2depth": "중구"
  },
  {
    "category": "한식",
    "name": "일미정",
    "main_item": "불고기백반",
    "price": "12,000",
    "phone": "032-772-9595",
    "address": "인천광역시 중구 신포로23번길 5 (중앙동4가)",
    "lat": 37.4709637592381,
    "lng": 126.624367506796,
    "region_1depth": "인천",
    "region_2depth": "중구"
  },
  {
    "category": "한식",
    "name": "장터삼겹살(신흥)",
    "main_item": "삼겹살(200g)",
    "price": "9,000",
    "phone": "032-887-5355",
    "address": "인천광역시 중구 서해대로454번길 11-3 (선화동)",
    "lat": 37.466061476741,
    "lng": 126.635998763313,
    "region_1depth": "인천",
    "region_2depth": "중구"
  },
  {
    "category": "한식",
    "name": "장터삼겹살(연안)",
    "main_item": "삼겹살 (180g)",
    "price": "9,000",
    "phone": "032-882-6880",
    "address": "인천광역시 중구 연안부두로53번길 31 (항동7가)",
    "lat": 37.4534364723169,
    "lng": 126.604052571574,
    "region_1depth": "인천",
    "region_2depth": "중구"
  },
  {
    "category": "기타요식업",
    "name": "제이콥스핏제리아",
    "main_item": "마르게리타",
    "price": "12,000",
    "phone": "0507-1498-1123",
    "address": "인천광역시 중구 우현로45번길 29 (신포동) 1층",
    "lat": 37.4711445430216,
    "lng": 126.626427082453,
    "region_1depth": "인천",
    "region_2depth": "중구"
  },
  {
    "category": "한식",
    "name": "조은전골칼국수",
    "main_item": "칼국수+보쌈(무한리필)",
    "price": "12,000",
    "phone": "010-3261-2102",
    "address": "인천광역시 중구 운중로 84 (운남동) 1층",
    "lat": 37.4931756795281,
    "lng": 126.542990473167,
    "region_1depth": "인천",
    "region_2depth": "중구"
  },
  {
    "category": "한식",
    "name": "진국",
    "main_item": "콩나물국밥",
    "price": "6,000",
    "phone": "032-772-0321",
    "address": "인천광역시 중구 제물량로 245-2 (항동1가) 1층",
    "lat": 37.4737447792701,
    "lng": 126.617897337798,
    "region_1depth": "인천",
    "region_2depth": "중구"
  },
  {
    "category": "중식",
    "name": "진흥각",
    "main_item": "유니짜장",
    "price": "6,500",
    "phone": "032-772-3058",
    "address": "인천광역시 중구 신포로23번길 20 (중앙동4가) 1층",
    "lat": 37.471703053384,
    "lng": 126.623920326397,
    "region_1depth": "인천",
    "region_2depth": "중구"
  },
  {
    "category": "한식",
    "name": "철이네손수제비랑칼국수(신포)",
    "main_item": "얼큰수제비",
    "price": "6,000",
    "phone": "032-777-1159",
    "address": "인천광역시 중구 개항로 9-1 1층(중앙동4가)",
    "lat": 37.4714042648041,
    "lng": 126.623802333892,
    "region_1depth": "인천",
    "region_2depth": "중구"
  },
  {
    "category": "한식",
    "name": "철이네손수제비랑칼국수(신흥)",
    "main_item": "수제비",
    "price": "6,000",
    "phone": "032-204-8990",
    "address": "인천광역시 중구 인중로144번길 71-1 (답동)",
    "lat": 37.4684000940284,
    "lng": 126.630126454085,
    "region_1depth": "인천",
    "region_2depth": "중구"
  },
  {
    "category": "한식",
    "name": "청수식당",
    "main_item": "오삼불고기",
    "price": "8,500",
    "phone": "032-765-8586",
    "address": "인천광역시 중구 제물량로206번길 3 (해안동2가)",
    "lat": 37.4717703194453,
    "lng": 126.621537648833,
    "region_1depth": "인천",
    "region_2depth": "중구"
  },
  {
    "category": "한식",
    "name": "토담골",
    "main_item": "제육쌈밥(2인이상)",
    "price": "10,000",
    "phone": "032-773-5003",
    "address": "인천광역시 중구 신포로23번길 42-1 1층(중앙동3가)",
    "lat": 37.4722817324526,
    "lng": 126.62291933324,
    "region_1depth": "인천",
    "region_2depth": "중구"
  },
  {
    "category": "한식",
    "name": "할매왕족발순대",
    "main_item": "순대국밥",
    "price": "8,000",
    "phone": "032-772-6919",
    "address": "인천광역시 중구 우현로45번길 11 (신포동)",
    "lat": 37.471178168521,
    "lng": 126.627488752016,
    "region_1depth": "인천",
    "region_2depth": "중구"
  },
  {
    "category": "양식",
    "name": "화양식",
    "main_item": "알리오올리오파스타",
    "price": "12,000",
    "phone": "0507-1348-7897",
    "address": "인천광역시 중구 개항로 81 (경동) 1층",
    "lat": 37.4719492446512,
    "lng": 126.631452526322,
    "region_1depth": "인천",
    "region_2depth": "중구"
  },
  {
    "category": "한식",
    "name": "회마트",
    "main_item": "광어회(중)",
    "price": "27,000",
    "phone": "032-777-2077",
    "address": "인천광역시 중구 개항로96번길 27 (율목동)",
    "lat": 37.4711258296577,
    "lng": 126.634008006028,
    "region_1depth": "인천",
    "region_2depth": "중구"
  },
  {
    "category": "한식",
    "name": "금창식당",
    "main_item": "쌈밥",
    "price": "10,000",
    "phone": "032-777-1271",
    "address": "인천광역시 동구 금창로 56 (금곡동) 1층",
    "lat": 37.472969359504,
    "lng": 126.642001818544,
    "region_1depth": "인천",
    "region_2depth": "동구"
  },
  {
    "category": "한식",
    "name": "남서방면옥",
    "main_item": "칼국수",
    "price": "6,000",
    "phone": "032-773-5556",
    "address": "인천광역시 동구 송림로 109 (송림동) 1층 1호, 2호",
    "lat": 37.4767060375637,
    "lng": 126.646801448988,
    "region_1depth": "인천",
    "region_2depth": "동구"
  },
  {
    "category": "한식",
    "name": "냠냠분식",
    "main_item": "떡볶이",
    "price": "3,500",
    "phone": "032-777-3355",
    "address": "인천광역시 동구 수문통로 39 (송현동) 1층",
    "lat": 37.4798506373559,
    "lng": 126.633983885308,
    "region_1depth": "인천",
    "region_2depth": "동구"
  },
  {
    "category": "중식",
    "name": "대성각",
    "main_item": "짜장면",
    "price": "4,500",
    "phone": "032-763-4079",
    "address": "인천광역시 동구 금곡로82번길 5 (송림동)",
    "lat": 37.4729319391856,
    "lng": 126.644678866573,
    "region_1depth": "인천",
    "region_2depth": "동구"
  },
  {
    "category": "한식",
    "name": "대청마루감자탕",
    "main_item": "뼈해장국",
    "price": "9,000",
    "phone": "032-773-1885",
    "address": "인천광역시 동구 금곡로 104 (송림동)",
    "lat": 37.4742393509073,
    "lng": 126.646649360445,
    "region_1depth": "인천",
    "region_2depth": "동구"
  },
  {
    "category": "한식",
    "name": "몽실식당",
    "main_item": "냉면+불고기",
    "price": "9,000",
    "phone": "032-765-1650",
    "address": "인천광역시 동구 화평로 4 (화평동) 1층",
    "lat": 37.4775632082865,
    "lng": 126.630667375378,
    "region_1depth": "인천",
    "region_2depth": "동구"
  },
  {
    "category": "기타요식업",
    "name": "무지개 상회",
    "main_item": "아메리카노",
    "price": "1,500",
    "phone": "070-8818-1919",
    "address": "인천광역시 동구 중앙로 15 (금곡동) 1층",
    "lat": 37.4734329154486,
    "lng": 126.635047320732,
    "region_1depth": "인천",
    "region_2depth": "동구"
  },
  {
    "category": "중식",
    "name": "문성각",
    "main_item": "짜장면",
    "price": "4,500",
    "phone": "032-777-0400",
    "address": "인천광역시 동구 송미로 35 (송림동) 1층",
    "lat": 37.4829044691454,
    "lng": 126.649726955984,
    "region_1depth": "인천",
    "region_2depth": "동구"
  },
  {
    "category": "양식",
    "name": "미로돈까스",
    "main_item": "카레",
    "price": "6,000",
    "phone": "032-777-7321",
    "address": "인천광역시 동구 송미로 11-8 (송림동) 2층",
    "lat": 37.4817094544744,
    "lng": 126.647420540109,
    "region_1depth": "인천",
    "region_2depth": "동구"
  },
  {
    "category": "한식",
    "name": "밥심",
    "main_item": "한식부페",
    "price": "8,000",
    "phone": "032-766-5648",
    "address": "인천광역시 동구 샛골로 129 (송림동) 1층",
    "lat": 37.4739363401656,
    "lng": 126.644066808358,
    "region_1depth": "인천",
    "region_2depth": "동구"
  },
  {
    "category": "한식",
    "name": "배다리 일품 갈비탕",
    "main_item": "순두부",
    "price": "8,000",
    "phone": "032-777-8222",
    "address": "인천광역시 동구 금곡로 48 (금곡동) 1층",
    "lat": 37.4733859564333,
    "lng": 126.640805017398,
    "region_1depth": "인천",
    "region_2depth": "동구"
  },
  {
    "category": "한식",
    "name": "벽란식당",
    "main_item": "벤뎅이덮밥",
    "price": "9,000",
    "phone": "032-766-7022",
    "address": "인천광역시 동구 화도진로 102-4 (화수동) 1층",
    "lat": 37.480489458906,
    "lng": 126.629247642301,
    "region_1depth": "인천",
    "region_2depth": "동구"
  },
  {
    "category": "한식",
    "name": "석이네분식",
    "main_item": "백반",
    "price": "6,000",
    "phone": "010-2307-9215",
    "address": "인천광역시 동구 샛골로162번길 17 (송림동) 1층 (현대시장 내)",
    "lat": 37.4769582260506,
    "lng": 126.645867337813,
    "region_1depth": "인천",
    "region_2depth": "동구"
  },
  {
    "category": "한식",
    "name": "시온이네집밥",
    "main_item": "청국장",
    "price": "6,000",
    "phone": "032-710-9274",
    "address": "인천광역시 동구 샛골로 168-3 (송림동) 1층 (현대시장 내)",
    "lat": 37.4773499877212,
    "lng": 126.645238147447,
    "region_1depth": "인천",
    "region_2depth": "동구"
  },
  {
    "category": "한식",
    "name": "신대청마루",
    "main_item": "백반",
    "price": "6,000",
    "phone": "032-589-2355",
    "address": "인천광역시 동구 방축로 105 (송림동, 산업용품유통센타 편익 C동 지하 21호)",
    "lat": 37.4841229128464,
    "lng": 126.656111822612,
    "region_1depth": "인천",
    "region_2depth": "동구"
  },
  {
    "category": "한식",
    "name": "아구군갈비양",
    "main_item": "백반",
    "price": "6,000",
    "phone": "032-766-5002",
    "address": "인천광역시 동구 샛골로 117-1 (송림동)",
    "lat": 37.472961619829,
    "lng": 126.643853360434,
    "region_1depth": "인천",
    "region_2depth": "동구"
  },
  {
    "category": "한식",
    "name": "어도(魚島)",
    "main_item": "순두부",
    "price": "8,000",
    "phone": "032-761-8887",
    "address": "인천광역시 동구 금곡로 56-1 (금곡동) 1층",
    "lat": 37.4732491471354,
    "lng": 126.641802083553,
    "region_1depth": "인천",
    "region_2depth": "동구"
  },
  {
    "category": "한식",
    "name": "와글와글 맛있는 국수집",
    "main_item": "잔치국수",
    "price": "4,000",
    "phone": "032-764-3959",
    "address": "인천광역시 동구 솔빛로 87-1 (송림동) 1층",
    "lat": 37.4762627611755,
    "lng": 126.643298318374,
    "region_1depth": "인천",
    "region_2depth": "동구"
  },
  {
    "category": "중식",
    "name": "유풍반점",
    "main_item": "짜장면",
    "price": "5,000",
    "phone": "032-772-5119",
    "address": "인천광역시 동구 샛골로194번길 16 (송림동) 1층",
    "lat": 37.4792548479929,
    "lng": 126.646365486129,
    "region_1depth": "인천",
    "region_2depth": "동구"
  },
  {
    "category": "한식",
    "name": "일월아구",
    "main_item": "쭈꾸미 쌈밥정식",
    "price": "9,000",
    "phone": "032-773-5076",
    "address": "인천광역시 동구 수문통로 4 (송현동) 2층",
    "lat": 37.4771079240154,
    "lng": 126.631964655323,
    "region_1depth": "인천",
    "region_2depth": "동구"
  },
  {
    "category": "한식",
    "name": "자매한우소머리곰탕",
    "main_item": "소머리국밥",
    "price": "10,000",
    "phone": "032-761-7080",
    "address": "인천광역시 동구 금곡로 64 (금곡동) 1층",
    "lat": 37.4731356018175,
    "lng": 126.642509970228,
    "region_1depth": "인천",
    "region_2depth": "동구"
  },
  {
    "category": "한식",
    "name": "청해물텀벙",
    "main_item": "아구뚝배기",
    "price": "8,000",
    "phone": "032-761-4140",
    "address": "인천광역시 동구 수문통로 5-1 (화평동) 1층",
    "lat": 37.477352489794,
    "lng": 126.631599419264,
    "region_1depth": "인천",
    "region_2depth": "동구"
  },
  {
    "category": "한식",
    "name": "평양냉면",
    "main_item": "물냉면",
    "price": "8,000",
    "phone": "032-777-9079",
    "address": "인천광역시 동구 송림로62번길 27 (금곡동)",
    "lat": 37.4736098665114,
    "lng": 126.642055401228,
    "region_1depth": "인천",
    "region_2depth": "동구"
  },
  {
    "category": "한식",
    "name": "한울타리",
    "main_item": "청국장",
    "price": "7,000",
    "phone": "032-221-8887",
    "address": "인천광역시 동구 석수로 47-1 (만석동)",
    "lat": 37.4812451729467,
    "lng": 126.626571605068,
    "region_1depth": "인천",
    "region_2depth": "동구"
  },
  {
    "category": "한식",
    "name": "해주식당",
    "main_item": "백반",
    "price": "8,000",
    "phone": "032-888-4009",
    "address": "인천광역시 동구 화도진로44번길 3 (송현동) 1층 송현시장 내",
    "lat": 37.4765045332892,
    "lng": 126.633911797078,
    "region_1depth": "인천",
    "region_2depth": "동구"
  },
  {
    "category": "한식",
    "name": "화도진순대국",
    "main_item": "순대국",
    "price": "9,000",
    "phone": "032-777-1289",
    "address": "인천광역시 동구  화도진로 101 (화평동) 1층",
    "lat": 37.4801807743095,
    "lng": 126.628989131469,
    "region_1depth": "인천",
    "region_2depth": "동구"
  },
  {
    "category": "한식",
    "name": "횡성생고기",
    "main_item": "생삼겹살",
    "price": "11,900",
    "phone": "032-766-2886",
    "address": "인천광역시 동구 송화로 20번길 11 1층 (화평동)",
    "lat": 37.4787055731497,
    "lng": 126.632684567415,
    "region_1depth": "인천",
    "region_2depth": "동구"
  },
  {
    "category": "한식",
    "name": "강원국수집",
    "main_item": "잔치국수",
    "price": "5,000",
    "phone": "032-887-6802",
    "address": "인천광역시 미추홀구 독배로432번길 4 (용현동) .",
    "lat": 37.4580409791808,
    "lng": 126.649499696186,
    "region_1depth": "인천",
    "region_2depth": "미추홀구"
  },
  {
    "category": "양식",
    "name": "공일돈까스 인천주안점",
    "main_item": "공일돈까스",
    "price": "7,900",
    "phone": "032-710-0176",
    "address": "인천광역시 미추홀구 석정로 430 (주안동) 102호",
    "lat": 37.4663741076328,
    "lng": 126.683257370195,
    "region_1depth": "인천",
    "region_2depth": "미추홀구"
  },
  {
    "category": "중식",
    "name": "국민짬뽕",
    "main_item": "자장면",
    "price": "5,000",
    "phone": "032-873-8856",
    "address": "인천광역시 미추홀구 인하로 272 (주안동)",
    "lat": 37.4478869096719,
    "lng": 126.678377552438,
    "region_1depth": "인천",
    "region_2depth": "미추홀구"
  },
  {
    "category": "한식",
    "name": "김밥짜장",
    "main_item": "김치찌개",
    "price": "4,000",
    "phone": "032-873-8234",
    "address": "인천광역시 미추홀구 주안로 86 (주안동)",
    "lat": 37.4638502206899,
    "lng": 126.67922171474,
    "region_1depth": "인천",
    "region_2depth": "미추홀구"
  },
  {
    "category": "한식",
    "name": "김밥타운",
    "main_item": "원조김밥",
    "price": "3,000",
    "phone": "032-863-6690",
    "address": "인천광역시 미추홀구 인하로 259 (주안동)",
    "lat": 37.4483828653468,
    "lng": 126.6769384892,
    "region_1depth": "인천",
    "region_2depth": "미추홀구"
  },
  {
    "category": "한식",
    "name": "다우리식당",
    "main_item": "된장찌개",
    "price": "7,000",
    "phone": "032-874-6616",
    "address": "인천광역시 미추홀구 인하로67번길 16 (용현동)",
    "lat": 37.4521598060643,
    "lng": 126.65630352755,
    "region_1depth": "인천",
    "region_2depth": "미추홀구"
  },
  {
    "category": "한식",
    "name": "당가네대박삼겹",
    "main_item": "삼겹살(150g)",
    "price": "7,500",
    "phone": "032-866-1991",
    "address": "인천광역시 미추홀구 인하로 77번길 30 (용현동)",
    "lat": 37.4523786695911,
    "lng": 126.65782792134,
    "region_1depth": "인천",
    "region_2depth": "미추홀구"
  },
  {
    "category": "한식",
    "name": "대박집",
    "main_item": "삼겹살(200g)",
    "price": "8,000",
    "phone": "032-861-4147",
    "address": "인천광역시 미추홀구 미추홀대로 707 (주안동)",
    "lat": 37.4605274414486,
    "lng": 126.679837792489,
    "region_1depth": "인천",
    "region_2depth": "미추홀구"
  },
  {
    "category": "중식",
    "name": "도원",
    "main_item": "자장면",
    "price": "5,000",
    "phone": "032-887-9664",
    "address": "인천광역시 미추홀구 토금중로 40번길 26 (용현동)",
    "lat": 37.4516741242274,
    "lng": 126.636886391782,
    "region_1depth": "인천",
    "region_2depth": "미추홀구"
  },
  {
    "category": "중식",
    "name": "도화차이나",
    "main_item": "짜장면",
    "price": "4,000",
    "phone": "032-434-0535",
    "address": "인천광역시 미추홀구 장고개로 42번길 19 (도화동)",
    "lat": 37.4711186699165,
    "lng": 126.668457992591,
    "region_1depth": "인천",
    "region_2depth": "미추홀구"
  },
  {
    "category": "중식",
    "name": "딕인차이나",
    "main_item": "자장면",
    "price": "4,000",
    "phone": "032-442-6666",
    "address": "인천광역시 미추홀구 석산로 42 (주안동)",
    "lat": 37.4614038603058,
    "lng": 126.696679296029,
    "region_1depth": "인천",
    "region_2depth": "미추홀구"
  },
  {
    "category": "한식",
    "name": "레커훈스 인하대점",
    "main_item": "크리스피치킨",
    "price": "12,000",
    "phone": "032-255-0505",
    "address": "인천광역시 미추홀구 인하로67번길 10 (용현동) .",
    "lat": 37.4518763767919,
    "lng": 126.656189321434,
    "region_1depth": "인천",
    "region_2depth": "미추홀구"
  },
  {
    "category": "기타요식업",
    "name": "루루네과자점",
    "main_item": "카페라떼/카푸치노",
    "price": "2,000",
    "phone": "010-4405-8310",
    "address": "인천광역시 미추홀구 낙섬중로 63 (용현동) 103호",
    "lat": 37.4535837309584,
    "lng": 126.638800519441,
    "region_1depth": "인천",
    "region_2depth": "미추홀구"
  },
  {
    "category": "한식",
    "name": "맛사랑",
    "main_item": "수제돈가스",
    "price": "7,000",
    "phone": "032-872-5181",
    "address": "인천광역시 미추홀구 인하로 77번길6-26 (용현동)",
    "lat": 37.4511890983475,
    "lng": 126.657776493234,
    "region_1depth": "인천",
    "region_2depth": "미추홀구"
  },
  {
    "category": "한식",
    "name": "명가촌",
    "main_item": "설렁탕",
    "price": "8,000",
    "phone": "032-881-5979",
    "address": "인천광역시 미추홀구 미추로36번길 43 (숭의동) 1층",
    "lat": 37.4642133475547,
    "lng": 126.648897909219,
    "region_1depth": "인천",
    "region_2depth": "미추홀구"
  },
  {
    "category": "한식",
    "name": "모모라면",
    "main_item": "얼큰라면+밥",
    "price": "4,000",
    "phone": "032-888-7871",
    "address": "인천광역시 미추홀구 석정로150번길 43 (도화동) 1층",
    "lat": 37.4675408080551,
    "lng": 126.654352135212,
    "region_1depth": "인천",
    "region_2depth": "미추홀구"
  },
  {
    "category": "한식",
    "name": "박승광샤브샤브",
    "main_item": "소고기샤브세트1(2인)",
    "price": "23,000",
    "phone": "032-873-0940",
    "address": "인천광역시 미추홀구 매소홀로 372 (학익동) .",
    "lat": 37.44014983582,
    "lng": 126.663173092555,
    "region_1depth": "인천",
    "region_2depth": "미추홀구"
  },
  {
    "category": "한식",
    "name": "백년갈비",
    "main_item": "설렁탕",
    "price": "8,000",
    "phone": "032-884-1362",
    "address": "인천광역시 미추홀구 석정로236-1 (도화동)",
    "lat": 37.4680446843206,
    "lng": 126.661616878026,
    "region_1depth": "인천",
    "region_2depth": "미추홀구"
  },
  {
    "category": "한식",
    "name": "본전집",
    "main_item": "갈매기살(200g)",
    "price": "11,000",
    "phone": "032-868-9293",
    "address": "인천광역시 미추홀구 경인로326번길 49 (주안동) 1층",
    "lat": 37.4564256404864,
    "lng": 126.675820791916,
    "region_1depth": "인천",
    "region_2depth": "미추홀구"
  },
  {
    "category": "한식",
    "name": "사계절 구이와 조림",
    "main_item": "가자미구이",
    "price": "10,000",
    "phone": "032-421-8255",
    "address": "인천광역시 미추홀구 경인로438번길 12 (주안동) .",
    "lat": 37.4572747335643,
    "lng": 126.688545527292,
    "region_1depth": "인천",
    "region_2depth": "미추홀구"
  },
  {
    "category": "한식",
    "name": "삼삼오오",
    "main_item": "부대찌개",
    "price": "7,000",
    "phone": "032-872-6651",
    "address": "인천광역시 미추홀구 인하로 83 나동 1층(용현동)",
    "lat": 37.4512259783811,
    "lng": 126.657630874111,
    "region_1depth": "인천",
    "region_2depth": "미추홀구"
  },
  {
    "category": "한식",
    "name": "삼팔뚝배기",
    "main_item": "소고기미역국",
    "price": "6,800",
    "phone": "032-252-9393",
    "address": "인천광역시 미추홀구 매소홀로576번길 16 (문학동) 1층",
    "lat": 37.4376643965489,
    "lng": 126.685949842067,
    "region_1depth": "인천",
    "region_2depth": "미추홀구"
  },
  {
    "category": "한식",
    "name": "새우물식당",
    "main_item": "삼겹살(100g)",
    "price": "6,000",
    "phone": "032-886-5239",
    "address": "인천광역시 미추홀구 미추로19번길 14 (숭의동)",
    "lat": 37.4618256420211,
    "lng": 126.646618715853,
    "region_1depth": "인천",
    "region_2depth": "미추홀구"
  },
  {
    "category": "한식",
    "name": "성원멸치국수",
    "main_item": "멸치국수",
    "price": "4,500",
    "phone": "032-875-1600",
    "address": "인천광역시 미추홀구 염창로 69 (주안동) 106호",
    "lat": 37.4658652878818,
    "lng": 126.681841006371,
    "region_1depth": "인천",
    "region_2depth": "미추홀구"
  },
  {
    "category": "한식",
    "name": "소문난식당",
    "main_item": "백반",
    "price": "7,000",
    "phone": "032-465-3549",
    "address": "인천광역시 미추홀구 독정이로 94 (숭의동) 2층 소문난식당",
    "lat": 37.463874806216,
    "lng": 126.650863469062,
    "region_1depth": "인천",
    "region_2depth": "미추홀구"
  },
  {
    "category": "한식",
    "name": "소와돼지방",
    "main_item": "생삼겹(200g)",
    "price": "9,000",
    "phone": "032-421-1243",
    "address": "인천광역시 미추홀구 인하로 293 (주안동)",
    "lat": 37.4481426832573,
    "lng": 126.680795119913,
    "region_1depth": "인천",
    "region_2depth": "미추홀구"
  },
  {
    "category": "한식",
    "name": "숙이갈비",
    "main_item": "돼지갈비(250g)",
    "price": "9,900",
    "phone": "032-710-3328",
    "address": "인천광역시 미추홀구 인하로 307 (주안동) 1층",
    "lat": 37.4480859517419,
    "lng": 126.68231185515,
    "region_1depth": "인천",
    "region_2depth": "미추홀구"
  },
  {
    "category": "한식",
    "name": "숙이네즉석떡볶이",
    "main_item": "즉석떡볶이 기본(2인)",
    "price": "7,000",
    "phone": "032-423-7805",
    "address": "인천광역시 미추홀구 주승로 258 (관교동) .",
    "lat": 37.44031137884,
    "lng": 126.695413997832,
    "region_1depth": "인천",
    "region_2depth": "미추홀구"
  },
  {
    "category": "한식",
    "name": "숯불구이 먹방(인하대점)",
    "main_item": "육회비빔밥",
    "price": "6,000",
    "phone": "032-214-4544",
    "address": "인천광역시 미추홀구 경인남길 30번길 39 (용현동)",
    "lat": 37.4519357671212,
    "lng": 126.656658972979,
    "region_1depth": "인천",
    "region_2depth": "미추홀구"
  },
  {
    "category": "한식",
    "name": "숯불구이 먹방(주안점)",
    "main_item": "생삼겹(150g)",
    "price": "7,500",
    "phone": "032-422-5339",
    "address": "인천광역시 미추홀구 석바위로 77-6 (주안동)",
    "lat": 37.4611461187819,
    "lng": 126.681755770969,
    "region_1depth": "인천",
    "region_2depth": "미추홀구"
  },
  {
    "category": "한식",
    "name": "신포수산",
    "main_item": "대구탕",
    "price": "8,000",
    "phone": "032-867-4286",
    "address": "인천광역시 미추홀구 제일로27번길 3-1 (도화동)",
    "lat": 37.4592524073554,
    "lng": 126.673182728856,
    "region_1depth": "인천",
    "region_2depth": "미추홀구"
  },
  {
    "category": "한식",
    "name": "쑥골국수집",
    "main_item": "왕돈가스",
    "price": "6,000",
    "phone": "032-864-0302",
    "address": "인천광역시 미추홀구 주안로 5 (주안동)",
    "lat": 37.4640543639252,
    "lng": 126.670146620464,
    "region_1depth": "인천",
    "region_2depth": "미추홀구"
  },
  {
    "category": "한식",
    "name": "아는족발",
    "main_item": "족발(중)",
    "price": "29,900",
    "phone": "032-888-1529",
    "address": "인천광역시 미추홀구 용오로 80 (용현동) 1층",
    "lat": 37.4532761609696,
    "lng": 126.643440510068,
    "region_1depth": "인천",
    "region_2depth": "미추홀구"
  },
  {
    "category": "한식",
    "name": "엄지김밥",
    "main_item": "엄지김밥",
    "price": "2,500",
    "phone": "032-202-0303",
    "address": "인천광역시 미추홀구 석정로 422 (주안동) 1층",
    "lat": 37.4664614973838,
    "lng": 126.682381630371,
    "region_1depth": "인천",
    "region_2depth": "미추홀구"
  },
  {
    "category": "중식",
    "name": "왕가",
    "main_item": "짜장면",
    "price": "5,000",
    "phone": "032-442-4560",
    "address": "인천광역시 미추홀구 주안중로 26-1 (주안동)",
    "lat": 37.4607703324175,
    "lng": 126.682837252757,
    "region_1depth": "인천",
    "region_2depth": "미추홀구"
  },
  {
    "category": "한식",
    "name": "이모떡즉석떡볶이",
    "main_item": "옛날즉석떡볶이",
    "price": "5,000",
    "phone": "032-864-4180",
    "address": "인천광역시 미추홀구 인하로77번길 6-21 (용현동) .",
    "lat": 37.4513255119813,
    "lng": 126.657776775883,
    "region_1depth": "인천",
    "region_2depth": "미추홀구"
  },
  {
    "category": "한식",
    "name": "이웃집",
    "main_item": "김밥",
    "price": "3,000",
    "phone": "032-881-3634",
    "address": "인천광역시 미추홀구 독정이로 69 (숭의동)",
    "lat": 37.4617887050798,
    "lng": 126.651780020603,
    "region_1depth": "인천",
    "region_2depth": "미추홀구"
  },
  {
    "category": "한식",
    "name": "잇다(IT-DA)",
    "main_item": "소고기쌀국수",
    "price": "7,000",
    "phone": "070-8910-3512",
    "address": "인천광역시 미추홀구 소성로 178 (학익동) .",
    "lat": 37.4412358258514,
    "lng": 126.66791797982,
    "region_1depth": "인천",
    "region_2depth": "미추홀구"
  },
  {
    "category": "중식",
    "name": "짜장전설",
    "main_item": "자장면",
    "price": "5,000",
    "phone": "032-861-0660",
    "address": "인천광역시 미추홀구 인하로 77번길 33 (용현동)",
    "lat": 37.4526526429804,
    "lng": 126.657508754313,
    "region_1depth": "인천",
    "region_2depth": "미추홀구"
  },
  {
    "category": "한식",
    "name": "착한탕국",
    "main_item": "선짓국(2인분)",
    "price": "7,000",
    "phone": "032-872-8294",
    "address": "인천광역시 미추홀구 인하로 266번길 29 (주안동)",
    "lat": 37.4467542825083,
    "lng": 126.677893411379,
    "region_1depth": "인천",
    "region_2depth": "미추홀구"
  },
  {
    "category": "중식",
    "name": "청해루",
    "main_item": "짬뽕",
    "price": "6,000",
    "phone": "032-876-4007",
    "address": "인천광역시 미추홀구 학익소로 61번길 21-19 (학익동)",
    "lat": 37.4432477561403,
    "lng": 126.67119546057,
    "region_1depth": "인천",
    "region_2depth": "미추홀구"
  },
  {
    "category": "한식",
    "name": "카페나무아래",
    "main_item": "등심돈가스",
    "price": "8,000",
    "phone": "032-873-2175",
    "address": "인천광역시 미추홀구 수봉안길 32 (숭의동)",
    "lat": 37.4619470605044,
    "lng": 126.659964932579,
    "region_1depth": "인천",
    "region_2depth": "미추홀구"
  },
  {
    "category": "한식",
    "name": "하루국수",
    "main_item": "콩나물비빔밥",
    "price": "7,000",
    "phone": "032-213-8998",
    "address": "인천광역시 미추홀구 주안중로50번길 19 (주안동) 2층",
    "lat": 37.4629868512097,
    "lng": 126.684062441208,
    "region_1depth": "인천",
    "region_2depth": "미추홀구"
  },
  {
    "category": "한식",
    "name": "하얀감자탕",
    "main_item": "콩나물뼈해장국",
    "price": "8,500",
    "phone": "032-883-2225",
    "address": "인천광역시 미추홀구 인하로 101 (용현동) 1층",
    "lat": 37.4505965381804,
    "lng": 126.659472604712,
    "region_1depth": "인천",
    "region_2depth": "미추홀구"
  },
  {
    "category": "한식",
    "name": "해와달",
    "main_item": "수제돈가스",
    "price": "9,000",
    "phone": "032-874-3266",
    "address": "인천광역시 미추홀구 주안로90번길 39 (주안동)",
    "lat": 37.4621994992278,
    "lng": 126.679625961953,
    "region_1depth": "인천",
    "region_2depth": "미추홀구"
  },
  {
    "category": "한식",
    "name": "현대식당",
    "main_item": "김치찌개",
    "price": "4,000",
    "phone": "032-888-6300",
    "address": "인천광역시 미추홀구 미추로36번길19-1 (숭의동)",
    "lat": 37.4637864374696,
    "lng": 126.647743110493,
    "region_1depth": "인천",
    "region_2depth": "미추홀구"
  },
  {
    "category": "한식",
    "name": "홍가네",
    "main_item": "제육덮밥",
    "price": "7,000",
    "phone": "032-434-6853",
    "address": "인천광역시 미추홀구 석바위로101번길 31-6 (주안동, 수성주택)",
    "lat": 37.4621879438599,
    "lng": 126.683866526922,
    "region_1depth": "인천",
    "region_2depth": "미추홀구"
  },
  {
    "category": "중식",
    "name": "가나안반점",
    "main_item": "자장면",
    "price": "4,000",
    "phone": "032-832-0732",
    "address": "인천광역시 연수구 비류대로156번길 5 (옥련동)",
    "lat": 37.4285933925357,
    "lng": 126.652260464481,
    "region_1depth": "인천",
    "region_2depth": "연수구"
  },
  {
    "category": "한식",
    "name": "구이촌",
    "main_item": "우차돌박이(130g)",
    "price": "10,000",
    "phone": "032-819-9595",
    "address": "인천광역시 연수구 학나래로 14번길 16-1 (선학동)",
    "lat": 37.4244709708316,
    "lng": 126.697497161605,
    "region_1depth": "인천",
    "region_2depth": "연수구"
  },
  {
    "category": "한식",
    "name": "국수골목",
    "main_item": "멸치국수",
    "price": "6,000",
    "phone": "032-821-1408",
    "address": "인천광역시 연수구 샘말로 15-3 (연수동) 1층",
    "lat": 37.4123633687514,
    "lng": 126.677840796013,
    "region_1depth": "인천",
    "region_2depth": "연수구"
  },
  {
    "category": "한식",
    "name": "김밥나라",
    "main_item": "비빔밥",
    "price": "6,000",
    "phone": "032-831-1213",
    "address": "인천광역시 연수구 독배로 40번길 11 (옥련동)",
    "lat": 37.4245267307736,
    "lng": 126.645636090343,
    "region_1depth": "인천",
    "region_2depth": "연수구"
  },
  {
    "category": "한식",
    "name": "김밥이랑토스트",
    "main_item": "야채토스트",
    "price": "2,700",
    "phone": "032-817-7611",
    "address": "인천광역시 연수구 함박뫼로 250 (연수동, 연수풍림1차아파트) 연수풍림1차아파트 상가 102호",
    "lat": 37.4179020529147,
    "lng": 126.691508051936,
    "region_1depth": "인천",
    "region_2depth": "연수구"
  },
  {
    "category": "한식",
    "name": "모박사 김밥",
    "main_item": "원조김밥",
    "price": "3,000",
    "phone": "032-812-4888",
    "address": "인천광역시 연수구 먼우금로 69 (동춘동, 대동아파트) 대동아파트상가 113호",
    "lat": 37.4063420014134,
    "lng": 126.66878757639,
    "region_1depth": "인천",
    "region_2depth": "연수구"
  },
  {
    "category": "한식",
    "name": "밀사랑",
    "main_item": "칼국수",
    "price": "6,000",
    "phone": "",
    "address": "인천광역시 연수구 학나래로5번길 60 (선학동, 근린생활시설,주택) 1층",
    "lat": 37.4236022843463,
    "lng": 126.693293836111,
    "region_1depth": "인천",
    "region_2depth": "연수구"
  },
  {
    "category": "양식",
    "name": "부리또 정거장",
    "main_item": "부리또 세트",
    "price": "7,000",
    "phone": "032-811-7609",
    "address": "인천광역시 연수구 새말로99번길 17 (연수동) 102호",
    "lat": 37.419152849029,
    "lng": 126.680085975095,
    "region_1depth": "인천",
    "region_2depth": "연수구"
  },
  {
    "category": "한식",
    "name": "소랑돼지랑",
    "main_item": "돼지갈비(300g)",
    "price": "12,000",
    "phone": "032-817-8592",
    "address": "인천광역시 연수구 함박로 24 (연수동)",
    "lat": 37.4257212532482,
    "lng": 126.679890032116,
    "region_1depth": "인천",
    "region_2depth": "연수구"
  },
  {
    "category": "중식",
    "name": "연수차이나",
    "main_item": "자장면",
    "price": "4,000",
    "phone": "032-822-5544",
    "address": "인천광역시 연수구 먼우금로 252번길 12 (연수동)",
    "lat": 37.4187874426349,
    "lng": 126.680002804279,
    "region_1depth": "인천",
    "region_2depth": "연수구"
  },
  {
    "category": "한식",
    "name": "장재은한방통닭",
    "main_item": "한방통닭",
    "price": "10,900",
    "phone": "032-435-5282",
    "address": "인천광역시 연수구 청학로 10 (청학동) 1층",
    "lat": 37.4279702597177,
    "lng": 126.663596774914,
    "region_1depth": "인천",
    "region_2depth": "연수구"
  },
  {
    "category": "한식",
    "name": "정아네 선지국",
    "main_item": "선짓국",
    "price": "7,000",
    "phone": "032-833-9098",
    "address": "인천광역시 연수구 한나루로 202-6 (옥련동) 103호",
    "lat": 37.427140585402,
    "lng": 126.6576576571,
    "region_1depth": "인천",
    "region_2depth": "연수구"
  },
  {
    "category": "한식",
    "name": "진이네김밥",
    "main_item": "참치주먹밥",
    "price": "3,000",
    "phone": "032-834-3406",
    "address": "인천광역시 연수구 비류대로294번길 32-8 (청학동) 1층",
    "lat": 37.4248896416829,
    "lng": 126.665992771145,
    "region_1depth": "인천",
    "region_2depth": "연수구"
  },
  {
    "category": "한식",
    "name": "착한한식 집밥65 유주푸드",
    "main_item": "오징어볶음",
    "price": "8,000",
    "phone": "032-813-7779",
    "address": "인천광역시 연수구 먼우금로252번길 7-1 (연수동) 1층",
    "lat": 37.4191839748053,
    "lng": 126.679801503448,
    "region_1depth": "인천",
    "region_2depth": "연수구"
  },
  {
    "category": "한식",
    "name": "케이푸드(여기손맛국밥)",
    "main_item": "돼지국밥",
    "price": "7,900",
    "phone": "010-5266-5502",
    "address": "인천광역시 연수구 먼우금로252번길 27-4 (연수동) 101호",
    "lat": 37.419138914838,
    "lng": 126.680931143873,
    "region_1depth": "인천",
    "region_2depth": "연수구"
  },
  {
    "category": "한식",
    "name": "고기좋아",
    "main_item": "한돈목살",
    "price": "12,000",
    "phone": "0507-1465-6637",
    "address": "인천광역시 남동구 만수로75번길 16 (만수동) 1층",
    "lat": 37.4628457091528,
    "lng": 126.736123440848,
    "region_1depth": "인천",
    "region_2depth": "남동구"
  },
  {
    "category": "한식",
    "name": "고향모밀촌",
    "main_item": "온모밀",
    "price": "7,000",
    "phone": "032-467-0995",
    "address": "인천광역시 남동구 복개동로 6 (만수동)",
    "lat": 37.4493265657651,
    "lng": 126.728828482517,
    "region_1depth": "인천",
    "region_2depth": "남동구"
  },
  {
    "category": "한식",
    "name": "국수마을",
    "main_item": "잔치국수",
    "price": "5,000",
    "phone": "032-467-3393",
    "address": "인천광역시 남동구 하촌서로 12 (만수동)",
    "lat": 37.4497071877383,
    "lng": 126.729787836643,
    "region_1depth": "인천",
    "region_2depth": "남동구"
  },
  {
    "category": "한식",
    "name": "김밥나라",
    "main_item": "김밥",
    "price": "2,500",
    "phone": "032-469-1265",
    "address": "인천광역시 남동구 용천로 82 , 1층 (구월동)",
    "lat": 37.4569137243728,
    "lng": 126.715050433423,
    "region_1depth": "인천",
    "region_2depth": "남동구"
  },
  {
    "category": "한식",
    "name": "김밥마을",
    "main_item": "원조김밥",
    "price": "3,000",
    "phone": "032-464-6777",
    "address": "인천광역시 남동구 장승남로 44 (만수동)",
    "lat": 37.443165713953,
    "lng": 126.737000545,
    "region_1depth": "인천",
    "region_2depth": "남동구"
  },
  {
    "category": "한식",
    "name": "남포면옥",
    "main_item": "꽃게간장백반",
    "price": "8,000",
    "phone": "032-441-2996",
    "address": "인천광역시 남동구 남동대로898번길 89-8 (간석동) 1층",
    "lat": 37.4631400129066,
    "lng": 126.713540639149,
    "region_1depth": "인천",
    "region_2depth": "남동구"
  },
  {
    "category": "한식",
    "name": "내고향만두",
    "main_item": "고기만두",
    "price": "5,000",
    "phone": "032-471-8334",
    "address": "인천광역시 남동구 인주대로888번길 27 (만수동)",
    "lat": 37.4469223640487,
    "lng": 126.735735138313,
    "region_1depth": "인천",
    "region_2depth": "남동구"
  },
  {
    "category": "한식",
    "name": "녹차한돈갈비",
    "main_item": "한식부페",
    "price": "6,000",
    "phone": "032-468-9009",
    "address": "인천광역시 남동구 장수로 8 , 1층 (장수동)",
    "lat": 37.4500612249184,
    "lng": 126.749856509921,
    "region_1depth": "인천",
    "region_2depth": "남동구"
  },
  {
    "category": "한식",
    "name": "대부도바지락칼국수",
    "main_item": "바지락칼국수",
    "price": "6,000",
    "phone": "032-424-2327",
    "address": "인천광역시 남동구 석산로62번길 11 (간석동, 삼마 TOP-Class) 1층",
    "lat": 37.4605145549358,
    "lng": 126.699036619044,
    "region_1depth": "인천",
    "region_2depth": "남동구"
  },
  {
    "category": "한식",
    "name": "델리푸드",
    "main_item": "한식부페",
    "price": "6,000",
    "phone": "032-468-2502",
    "address": "인천광역시 남동구 백범로124번길 7 (만수동)",
    "lat": 37.455554242597,
    "lng": 126.733373909902,
    "region_1depth": "인천",
    "region_2depth": "남동구"
  },
  {
    "category": "양식",
    "name": "돈킹돈까스",
    "main_item": "등심돈까스(매장주문가격)",
    "price": "8,500",
    "phone": "032-469-0322",
    "address": "인천광역시 남동구 남동대로799번길 34 (구월동, 신영구월지웰시티푸르지오) 판매시설동 2층 C동 207호",
    "lat": 37.4543946528772,
    "lng": 126.707187770716,
    "region_1depth": "인천",
    "region_2depth": "남동구"
  },
  {
    "category": "한식",
    "name": "두리왕돈까스",
    "main_item": "돈까스",
    "price": "7,500",
    "phone": "032-467-5522",
    "address": "인천광역시 남동구 장승남로 42 , 105호 (만수동)",
    "lat": 37.4431636514412,
    "lng": 126.736802569717,
    "region_1depth": "인천",
    "region_2depth": "남동구"
  },
  {
    "category": "중식",
    "name": "만수숯불양꼬치",
    "main_item": "양꼬치",
    "price": "13,000",
    "phone": "032-463-9233",
    "address": "인천광역시 남동구 담방로48번길 7-11 (만수동) 1층",
    "lat": 37.4444177838009,
    "lng": 126.739165982999,
    "region_1depth": "인천",
    "region_2depth": "남동구"
  },
  {
    "category": "한식",
    "name": "맛깔김밥",
    "main_item": "김밥",
    "price": "3,000",
    "phone": "032-433-2355",
    "address": "인천광역시 남동구 백범로 312-64 (간석동)",
    "lat": 37.4637592245094,
    "lng": 126.715159306606,
    "region_1depth": "인천",
    "region_2depth": "남동구"
  },
  {
    "category": "한식",
    "name": "매일하하",
    "main_item": "매일하하 카레",
    "price": "8,000",
    "phone": "032-433-6476",
    "address": "인천광역시 남동구 남동대로799번길 34 (구월동, 신영구월지웰시티푸르지오) 판매시설동 2층 B동 219호",
    "lat": 37.4543946528772,
    "lng": 126.707187770716,
    "region_1depth": "인천",
    "region_2depth": "남동구"
  },
  {
    "category": "기타요식업",
    "name": "멜로디아",
    "main_item": "아메리카노",
    "price": "2,000",
    "phone": "032-471-1519",
    "address": "인천광역시 남동구 장승로 25 , 5동 1층 (만수동, 장승백이상가)",
    "lat": 37.4456697258957,
    "lng": 126.735833001435,
    "region_1depth": "인천",
    "region_2depth": "남동구"
  },
  {
    "category": "한식",
    "name": "박가네삼감포",
    "main_item": "장어탕",
    "price": "7,000",
    "phone": "032-422-5449",
    "address": "인천광역시 남동구 논현로46번길 14 (논현동)",
    "lat": 37.401806274783,
    "lng": 126.710675275788,
    "region_1depth": "인천",
    "region_2depth": "남동구"
  },
  {
    "category": "한식",
    "name": "별난곱창",
    "main_item": "뼈해장국",
    "price": "7,000",
    "phone": "032-466-3237",
    "address": "인천광역시 남동구 하촌서로 13 (만수동) , 1층",
    "lat": 37.4498775826358,
    "lng": 126.729439367284,
    "region_1depth": "인천",
    "region_2depth": "남동구"
  },
  {
    "category": "한식",
    "name": "불발치족발보쌈",
    "main_item": "보쌈(대)",
    "price": "30,000",
    "phone": "032-422-0221",
    "address": "인천광역시 남동구 예술로284번길 11 (간석동) 1층",
    "lat": 37.4596456006337,
    "lng": 126.703124609572,
    "region_1depth": "인천",
    "region_2depth": "남동구"
  },
  {
    "category": "한식",
    "name": "비담비",
    "main_item": "판모밀",
    "price": "7,500",
    "phone": "032-463-7760",
    "address": "인천광역시 남동구 독점로3번길 10-24 (구월동) 101호",
    "lat": 37.4510299424451,
    "lng": 126.710414820874,
    "region_1depth": "인천",
    "region_2depth": "남동구"
  },
  {
    "category": "중식",
    "name": "서인반점",
    "main_item": "자장면",
    "price": "6,000",
    "phone": "032-464-5365",
    "address": "인천광역시 남동구 하촌서로 13 (만수동)",
    "lat": 37.4498775826358,
    "lng": 126.729439367284,
    "region_1depth": "인천",
    "region_2depth": "남동구"
  },
  {
    "category": "중식",
    "name": "소망각",
    "main_item": "자장면",
    "price": "4,500",
    "phone": "032-433-8552",
    "address": "인천광역시 남동구 문화서로4번길 25-8 (구월동)",
    "lat": 37.4452522950486,
    "lng": 126.69683107587,
    "region_1depth": "인천",
    "region_2depth": "남동구"
  },
  {
    "category": "양식",
    "name": "써니돈까스",
    "main_item": "김치찌개돈까스",
    "price": "8,000",
    "phone": "032-467-6139",
    "address": "인천광역시 남동구 장수로 20 (장수동) 1층",
    "lat": 37.4512212627158,
    "lng": 126.749849708642,
    "region_1depth": "인천",
    "region_2depth": "남동구"
  },
  {
    "category": "한식",
    "name": "아랫목김밥",
    "main_item": "김밥",
    "price": "2,000",
    "phone": "032-432-1233",
    "address": "인천광역시 남동구 용천로 170 (간석동)",
    "lat": 37.4647391032199,
    "lng": 126.714463129941,
    "region_1depth": "인천",
    "region_2depth": "남동구"
  },
  {
    "category": "한식",
    "name": "에바다떡볶이",
    "main_item": "떡볶이",
    "price": "3,500",
    "phone": "032-423-7494",
    "address": "인천광역시 남동구 장도로 4-2 (논현동)",
    "lat": 37.4048449593266,
    "lng": 126.734886464883,
    "region_1depth": "인천",
    "region_2depth": "남동구"
  },
  {
    "category": "중식",
    "name": "여명차이나",
    "main_item": "자장면(매장방문주문)",
    "price": "5,000",
    "phone": "032-465-5522",
    "address": "인천광역시 남동구 장승로 49-1 , 1층 (만수동)",
    "lat": 37.4455081626149,
    "lng": 126.738257574729,
    "region_1depth": "인천",
    "region_2depth": "남동구"
  },
  {
    "category": "중식",
    "name": "예원차이나",
    "main_item": "짜장면(매장방문주문)",
    "price": "5,500",
    "phone": "032-446-5667",
    "address": "인천광역시 남동구 은봉로312번길 29-10 (논현동)",
    "lat": 37.4044439724153,
    "lng": 126.725435806073,
    "region_1depth": "인천",
    "region_2depth": "남동구"
  },
  {
    "category": "한식",
    "name": "옛날국수",
    "main_item": "잔치국수",
    "price": "6,000",
    "phone": "032-219-0412",
    "address": "인천광역시 남동구 용천로 150 (간석동) 1층",
    "lat": 37.4629649675891,
    "lng": 126.714591839834,
    "region_1depth": "인천",
    "region_2depth": "남동구"
  },
  {
    "category": "한식",
    "name": "오가네한우마을",
    "main_item": "칼집생삼겹(500g)",
    "price": "20,000",
    "phone": "032-468-7413",
    "address": "인천광역시 남동구 용천로3번길 26 (구월동)",
    "lat": 37.4499426723915,
    "lng": 126.712658268541,
    "region_1depth": "인천",
    "region_2depth": "남동구"
  },
  {
    "category": "한식",
    "name": "옥가마추어탕",
    "main_item": "돌솥추어탕",
    "price": "8,500",
    "phone": "0507-1443-1131",
    "address": "인천광역시 남동구 구월남로 150 (구월동) 2층",
    "lat": 37.4528013342873,
    "lng": 126.70614619087,
    "region_1depth": "인천",
    "region_2depth": "남동구"
  },
  {
    "category": "기타요식업",
    "name": "운카페",
    "main_item": "아메리카노",
    "price": "1,500",
    "phone": "0507-1483-1250",
    "address": "인천광역시 남동구 구월로 121 (간석동) 1층",
    "lat": 37.4568953945268,
    "lng": 126.703856689243,
    "region_1depth": "인천",
    "region_2depth": "남동구"
  },
  {
    "category": "기타요식업",
    "name": "이엠에스카페",
    "main_item": "아메리카노",
    "price": "3,500",
    "phone": "0507-1392-8872",
    "address": "인천광역시 남동구 은봉로 297 (논현동) 근린생활시설동 1층 근생4호",
    "lat": 37.4058352966025,
    "lng": 126.722375722642,
    "region_1depth": "인천",
    "region_2depth": "남동구"
  },
  {
    "category": "한식",
    "name": "자가제면모밀지기",
    "main_item": "온모밀",
    "price": "6,000",
    "phone": "032-467-7956",
    "address": "인천광역시 남동구 구월로372번길 40 (만수동, 정은베스트빌)",
    "lat": 37.4531019815897,
    "lng": 126.731630938774,
    "region_1depth": "인천",
    "region_2depth": "남동구"
  },
  {
    "category": "한식",
    "name": "정김밥",
    "main_item": "김밥",
    "price": "3,000",
    "phone": "032-461-3332",
    "address": "인천광역시 남동구 만수서로105번길 25 (만수동)",
    "lat": 37.4622175582346,
    "lng": 126.73861123039,
    "region_1depth": "인천",
    "region_2depth": "남동구"
  },
  {
    "category": "중식",
    "name": "중국관",
    "main_item": "자장면(매장방문주문)",
    "price": "5,000",
    "phone": "032-441-0644",
    "address": "인천광역시 남동구 은봉로312번길 23 , 1층 (논현동)",
    "lat": 37.4046414856689,
    "lng": 126.724936203753,
    "region_1depth": "인천",
    "region_2depth": "남동구"
  },
  {
    "category": "중식",
    "name": "중국성",
    "main_item": "자장면(매장방문주문)",
    "price": "4,500",
    "phone": "032-426-7979",
    "address": "인천광역시 남동구 남동대로747번길 51 (구월동)",
    "lat": 37.449148363036,
    "lng": 126.704374089724,
    "region_1depth": "인천",
    "region_2depth": "남동구"
  },
  {
    "category": "중식",
    "name": "짜장일번지",
    "main_item": "자장면",
    "price": "6,000",
    "phone": "032-461-2802",
    "address": "인천광역시 남동구 복개동로 8 (만수동)",
    "lat": 37.4494154777678,
    "lng": 126.728702943063,
    "region_1depth": "인천",
    "region_2depth": "남동구"
  },
  {
    "category": "중식",
    "name": "차우마 인천논현점",
    "main_item": "자장면",
    "price": "5,000",
    "phone": "0504-975-1052",
    "address": "인천광역시 남동구 논현로 22 (논현동) 1층",
    "lat": 37.4030748141626,
    "lng": 126.70898483101,
    "region_1depth": "인천",
    "region_2depth": "남동구"
  },
  {
    "category": "한식",
    "name": "착한탕국",
    "main_item": "선지해장국 2인분",
    "price": "7,000",
    "phone": "032-465-8294",
    "address": "인천광역시 남동구 호구포로800번길 17 (구월동)",
    "lat": 37.4538057557758,
    "lng": 126.720244515614,
    "region_1depth": "인천",
    "region_2depth": "남동구"
  },
  {
    "category": "한식",
    "name": "최복남직화쭈꾸미명가",
    "main_item": "쭈꾸미정식",
    "price": "15,000",
    "phone": "032-421-8780",
    "address": "인천광역시 남동구 경인로 520 (간석동) 1층",
    "lat": 37.4607539768125,
    "lng": 126.697036044356,
    "region_1depth": "인천",
    "region_2depth": "남동구"
  },
  {
    "category": "한식",
    "name": "춘보네돼지국밥앤수제돈까스",
    "main_item": "수육국밥",
    "price": "7,000",
    "phone": "032-432-8777",
    "address": "인천광역시 남동구 예술로226번길 4 (구월동) 1층",
    "lat": 37.4541027845267,
    "lng": 126.702056214384,
    "region_1depth": "인천",
    "region_2depth": "남동구"
  },
  {
    "category": "기타요식업",
    "name": "카페최고요",
    "main_item": "수제쿠키",
    "price": "1,500",
    "phone": "0507-778-5135",
    "address": "인천광역시 남동구 용천로11번길 22 (구월동) 1층",
    "lat": 37.4506330092452,
    "lng": 126.712947658411,
    "region_1depth": "인천",
    "region_2depth": "남동구"
  },
  {
    "category": "한식",
    "name": "큰집손칼국수",
    "main_item": "잔치국수",
    "price": "3,500",
    "phone": "032-469-4125",
    "address": "인천광역시 남동구 호구포로790번길 21-5 (구월동)",
    "lat": 37.4528644535934,
    "lng": 126.720237510763,
    "region_1depth": "인천",
    "region_2depth": "남동구"
  },
  {
    "category": "한식",
    "name": "태남식당",
    "main_item": "백반",
    "price": "7,000",
    "phone": "010-8008-8253",
    "address": "인천광역시 남동구 장자북로 31 (장수동) 101호",
    "lat": 37.4517979099886,
    "lng": 126.753451439887,
    "region_1depth": "인천",
    "region_2depth": "남동구"
  },
  {
    "category": "한식",
    "name": "항아리필",
    "main_item": "한식뷔페",
    "price": "8,000",
    "phone": "070-8848-5418",
    "address": "인천광역시 남동구 인주대로888번길 35 (만수동)",
    "lat": 37.4465769620273,
    "lng": 126.735111640358,
    "region_1depth": "인천",
    "region_2depth": "남동구"
  },
  {
    "category": "한식",
    "name": "행복식당",
    "main_item": "백반",
    "price": "8,000",
    "phone": "032-441-2705",
    "address": "인천광역시 남동구 성말로53번길 27-1 (구월동)",
    "lat": 37.4461805012365,
    "lng": 126.706534618282,
    "region_1depth": "인천",
    "region_2depth": "남동구"
  },
  {
    "category": "양식",
    "name": "갈산냉면家돈까스",
    "main_item": "매콤까스",
    "price": "9,000",
    "phone": "032-513-7982",
    "address": "인천광역시 부평구 주부토로 308 1층 (갈산동)",
    "lat": 37.5219382008608,
    "lng": 126.729591699135,
    "region_1depth": "인천",
    "region_2depth": "부평구"
  },
  {
    "category": "한식",
    "name": "거인뒷고기 부평점",
    "main_item": "뒷고기(300g)",
    "price": "11,000",
    "phone": "070-8691-0096",
    "address": "인천광역시 부평구 길주남로125번길 6 (부개동) 1층",
    "lat": 37.5042291494147,
    "lng": 126.735943363683,
    "region_1depth": "인천",
    "region_2depth": "부평구"
  },
  {
    "category": "한식",
    "name": "끼니분식",
    "main_item": "우엉김밥",
    "price": "3,500",
    "phone": "032-255-2734",
    "address": "인천광역시 부평구 신트리로22번길 6 (부평동) 1층",
    "lat": 37.5055630759311,
    "lng": 126.723496223812,
    "region_1depth": "인천",
    "region_2depth": "부평구"
  },
  {
    "category": "중식",
    "name": "동원각",
    "main_item": "간짜장",
    "price": "6,000",
    "phone": "032-501-7194",
    "address": "인천광역시 부평구 부일로113번길 47 (부개동) 1층",
    "lat": 37.4928753329351,
    "lng": 126.741732480987,
    "region_1depth": "인천",
    "region_2depth": "부평구"
  },
  {
    "category": "기타요식업",
    "name": "디마일즈",
    "main_item": "인절미빙수",
    "price": "9,900",
    "phone": "032-330-3001",
    "address": "인천광역시 부평구 경인로891번길 43 (부평동) 1층 101호",
    "lat": 37.4878874599027,
    "lng": 126.718614868608,
    "region_1depth": "인천",
    "region_2depth": "부평구"
  },
  {
    "category": "한식",
    "name": "로데오 친구들",
    "main_item": "제육덮밥",
    "price": "7,000",
    "phone": "032-523-3814",
    "address": "인천광역시 부평구 부평문화로65번길 13 (부평동)",
    "lat": 37.4946457425854,
    "lng": 126.723433913302,
    "region_1depth": "인천",
    "region_2depth": "부평구"
  },
  {
    "category": "한식",
    "name": "면사무소",
    "main_item": "멸치국수",
    "price": "5,000",
    "phone": "032-515-6660",
    "address": "인천광역시 부평구 부흥로303번길 31 1층(부평동)",
    "lat": 37.4999500282762,
    "lng": 126.725708026171,
    "region_1depth": "인천",
    "region_2depth": "부평구"
  },
  {
    "category": "한식",
    "name": "명가설렁탕",
    "main_item": "떡만두국",
    "price": "8,000",
    "phone": "032-330-8277",
    "address": "인천광역시 부평구 주부토로66번길 14 1층 102호(부평동)",
    "lat": 37.5005988378481,
    "lng": 126.726133925369,
    "region_1depth": "인천",
    "region_2depth": "부평구"
  },
  {
    "category": "기타요식업",
    "name": "미스터초이(Mr.CHOI)",
    "main_item": "드립커피",
    "price": "2,000",
    "phone": "032-515-3824",
    "address": "인천광역시 부평구 부흥북로 35 (부평동) 103호",
    "lat": 37.5015770751459,
    "lng": 126.725869789244,
    "region_1depth": "인천",
    "region_2depth": "부평구"
  },
  {
    "category": "한식",
    "name": "밥하루",
    "main_item": "제육볶음",
    "price": "11,900",
    "phone": "032-517-6646",
    "address": "인천광역시 부평구 영성서로 31 (삼산동) 1동 일부호",
    "lat": 37.5210082223938,
    "lng": 126.742673653867,
    "region_1depth": "인천",
    "region_2depth": "부평구"
  },
  {
    "category": "한식",
    "name": "부부밥상",
    "main_item": "간장게장+고등어구이",
    "price": "8,000",
    "phone": "032-513-1694",
    "address": "인천광역시 부평구 경원대로1363번길 5 (부평동) 1층",
    "lat": 37.4917005030821,
    "lng": 126.720318427,
    "region_1depth": "인천",
    "region_2depth": "부평구"
  },
  {
    "category": "한식",
    "name": "부평뼈해장국",
    "main_item": "된장찌개",
    "price": "7,000",
    "phone": "032-514-7767",
    "address": "인천광역시 부평구 주부토로66번길 1 (부평동)",
    "lat": 37.501045401849,
    "lng": 126.725524317889,
    "region_1depth": "인천",
    "region_2depth": "부평구"
  },
  {
    "category": "한식",
    "name": "부평칼국수",
    "main_item": "칼국수",
    "price": "7,500",
    "phone": "032-502-8855",
    "address": "인천광역시 부평구 동수천로 86 (부개동) 1층",
    "lat": 37.4932231020579,
    "lng": 126.736824781505,
    "region_1depth": "인천",
    "region_2depth": "부평구"
  },
  {
    "category": "한식",
    "name": "부흥기사식당",
    "main_item": "된장찌개",
    "price": "7,000",
    "phone": "032-529-4127",
    "address": "인천광역시 부평구 부흥로 387 (부개동) 1층",
    "lat": 37.4981122872826,
    "lng": 126.735080454652,
    "region_1depth": "인천",
    "region_2depth": "부평구"
  },
  {
    "category": "한식",
    "name": "북새통",
    "main_item": "즉석떡볶이",
    "price": "6,000",
    "phone": "032-525-1888",
    "address": "인천광역시 부평구 갈월서로 6 (갈산동) 1층",
    "lat": 37.5080627321351,
    "lng": 126.722960177568,
    "region_1depth": "인천",
    "region_2depth": "부평구"
  },
  {
    "category": "한식",
    "name": "서가면옥",
    "main_item": "한방보쌈정식",
    "price": "10,000",
    "phone": "032-506-9432",
    "address": "인천광역시 부평구 신촌로 68-1 1층(부평동)",
    "lat": 37.4892154657588,
    "lng": 126.711781069843,
    "region_1depth": "인천",
    "region_2depth": "부평구"
  },
  {
    "category": "한식",
    "name": "아구그림본점",
    "main_item": "아구찜(소)",
    "price": "28,000",
    "phone": "032-710-4678",
    "address": "인천광역시 부평구 부평대로 122-2 (부평동) 1층",
    "lat": 37.5024039280893,
    "lng": 126.722015274283,
    "region_1depth": "인천",
    "region_2depth": "부평구"
  },
  {
    "category": "한식",
    "name": "어머니홍두깨칼국수",
    "main_item": "잔치국수",
    "price": "3,000",
    "phone": "032-522-6669",
    "address": "인천광역시 부평구 부흥로316번길 37 1층 21호(부평동)",
    "lat": 37.4964871706648,
    "lng": 126.727134581054,
    "region_1depth": "인천",
    "region_2depth": "부평구"
  },
  {
    "category": "한식",
    "name": "열우물생고기",
    "main_item": "차돌박이(150g)",
    "price": "22,000",
    "phone": "032-506-9289",
    "address": "인천광역시 부평구 평천로 304 (갈산동) 1층 일부",
    "lat": 37.5170055879356,
    "lng": 126.724100348592,
    "region_1depth": "인천",
    "region_2depth": "부평구"
  },
  {
    "category": "한식",
    "name": "오리감자탕곱창전문",
    "main_item": "삼겹살(200g)",
    "price": "5,000",
    "phone": "032-522-8853",
    "address": "인천광역시 부평구 경인로1012번길 34 (부평동) 1층",
    "lat": 37.485542972888,
    "lng": 126.731833788567,
    "region_1depth": "인천",
    "region_2depth": "부평구"
  },
  {
    "category": "한식",
    "name": "원숯불한우촌",
    "main_item": "왕갈비탕",
    "price": "13,000",
    "phone": "032-501-5053",
    "address": "인천광역시 부평구 마장로36번길 26 (십정동) 지하1층 B08~B10호",
    "lat": 37.483288202002,
    "lng": 126.709536453552,
    "region_1depth": "인천",
    "region_2depth": "부평구"
  },
  {
    "category": "기타요식업",
    "name": "임계동커피집",
    "main_item": "아메리카노",
    "price": "2,500",
    "phone": "032-505-9133",
    "address": "인천광역시 부평구 주부토로81번길 50 래미안C상가 221호(부평동)",
    "lat": 37.5027502462353,
    "lng": 126.72261689133,
    "region_1depth": "인천",
    "region_2depth": "부평구"
  },
  {
    "category": "한식",
    "name": "장수반찬",
    "main_item": "4팩",
    "price": "10,000",
    "phone": "010-2828-7035",
    "address": "인천광역시 부평구 체육관로 40 (삼산동) 1층 104호",
    "lat": 37.5082394122578,
    "lng": 126.736140512277,
    "region_1depth": "인천",
    "region_2depth": "부평구"
  },
  {
    "category": "한식",
    "name": "진수성찬",
    "main_item": "백반",
    "price": "6,000",
    "phone": "032-506-5987",
    "address": "인천광역시 부평구 신트리로 14 (부평동)",
    "lat": 37.5060992467213,
    "lng": 126.72264397195,
    "region_1depth": "인천",
    "region_2depth": "부평구"
  },
  {
    "category": "중식",
    "name": "짬뽕집",
    "main_item": "등심탕수육",
    "price": "20,000",
    "phone": "010-2731-8115",
    "address": "인천광역시 부평구 배곶북로 19 (십정동)",
    "lat": 37.4731991305622,
    "lng": 126.696537692602,
    "region_1depth": "인천",
    "region_2depth": "부평구"
  },
  {
    "category": "한식",
    "name": "치킨러버",
    "main_item": "옛날통닭(포장)",
    "price": "9,000",
    "phone": "032-724-9294",
    "address": "인천광역시 부평구 일신로14번길 5 (일신동) 1층",
    "lat": 37.4836596339742,
    "lng": 126.745035394165,
    "region_1depth": "인천",
    "region_2depth": "부평구"
  },
  {
    "category": "한식",
    "name": "타박네",
    "main_item": "가정식백반",
    "price": "8,000",
    "phone": "032-519-6595",
    "address": "인천광역시 부평구 길주로602번길 3 (부평동)",
    "lat": 37.5067788073287,
    "lng": 126.729335365311,
    "region_1depth": "인천",
    "region_2depth": "부평구"
  },
  {
    "category": "한식",
    "name": "태흥정육식당",
    "main_item": "돼지제육백반",
    "price": "8,000",
    "phone": "032-522-8252",
    "address": "인천광역시 부평구 주부토로146번길 32 1층(갈산동)",
    "lat": 37.5079228260088,
    "lng": 126.727617637876,
    "region_1depth": "인천",
    "region_2depth": "부평구"
  },
  {
    "category": "한식",
    "name": "포동포동",
    "main_item": "생고기김치찌개",
    "price": "8,000",
    "phone": "032-330-3032",
    "address": "인천광역시 부평구 안남로 261 113호(산곡동, 전방프라자)",
    "lat": 37.5062512651935,
    "lng": 126.708580379553,
    "region_1depth": "인천",
    "region_2depth": "부평구"
  },
  {
    "category": "한식",
    "name": "풍성한뒷고기",
    "main_item": "백반",
    "price": "9,000",
    "phone": "032-501-8254",
    "address": "인천광역시 부평구 부평대로63번길 8 (부평동) 1층",
    "lat": 37.4971403942869,
    "lng": 126.721801718209,
    "region_1depth": "인천",
    "region_2depth": "부평구"
  },
  {
    "category": "한식",
    "name": "홍두깨손칼국수",
    "main_item": "흑미칼만두",
    "price": "8,000",
    "phone": "032-505-8664",
    "address": "인천광역시 부평구 부흥로334번길 65 (부평동)",
    "lat": 37.4955174649556,
    "lng": 126.727115040356,
    "region_1depth": "인천",
    "region_2depth": "부평구"
  },
  {
    "category": "한식",
    "name": "가빈",
    "main_item": "돈까스",
    "price": "9,000",
    "phone": "032-554-3600",
    "address": "인천광역시 계양구 계양산로 64 102호(계산동)",
    "lat": 37.547617695685,
    "lng": 126.722623628457,
    "region_1depth": "인천",
    "region_2depth": "계양구"
  },
  {
    "category": "한식",
    "name": "공원앞떡볶이",
    "main_item": "떡볶이",
    "price": "3,000",
    "phone": "032-546-6001",
    "address": "인천광역시 계양구 새벌로 108 (효성동) 상가동 1층 101호",
    "lat": 37.5265458489692,
    "lng": 126.716838627857,
    "region_1depth": "인천",
    "region_2depth": "계양구"
  },
  {
    "category": "한식",
    "name": "교대주먹고기",
    "main_item": "주먹고기(220g)",
    "price": "14,000",
    "phone": "032-545-8259",
    "address": "인천광역시 계양구 계산로 105 (계산동) 1층",
    "lat": 37.5376798295784,
    "lng": 126.723909124726,
    "region_1depth": "인천",
    "region_2depth": "계양구"
  },
  {
    "category": "한식",
    "name": "굴천국",
    "main_item": "굴국밥",
    "price": "8,000",
    "phone": "032-546-9295",
    "address": "인천광역시 계양구 임학동로 55-1 (임학동)",
    "lat": 37.5468573879062,
    "lng": 126.73721752813,
    "region_1depth": "인천",
    "region_2depth": "계양구"
  },
  {
    "category": "한식",
    "name": "김재국만두전문점",
    "main_item": "고기만두",
    "price": "4,500",
    "phone": "032-556-8980",
    "address": "인천광역시 계양구 주부토로 530 (계산동)",
    "lat": 37.5413819379111,
    "lng": 126.728494640367,
    "region_1depth": "인천",
    "region_2depth": "계양구"
  },
  {
    "category": "한식",
    "name": "남원골추어탕",
    "main_item": "강황밥추어탕",
    "price": "10,000",
    "phone": "032-543-5588",
    "address": "인천광역시 계양구 계양대로 122 (작전동)",
    "lat": 37.53468481457,
    "lng": 126.72305915857,
    "region_1depth": "인천",
    "region_2depth": "계양구"
  },
  {
    "category": "한식",
    "name": "남원추어탕",
    "main_item": "추어탕",
    "price": "9,000",
    "phone": "032-553-1339",
    "address": "인천광역시 계양구 주부토로 395 1층(작전동)",
    "lat": 37.5295104512434,
    "lng": 126.728640062278,
    "region_1depth": "인천",
    "region_2depth": "계양구"
  },
  {
    "category": "한식",
    "name": "놀부홍두깨칼국수",
    "main_item": "돈가스",
    "price": "7,000",
    "phone": "032-545-4194",
    "address": "인천광역시 계양구 계양산로215번길 4 1층(병방동)",
    "lat": 37.5478229963368,
    "lng": 126.740276515572,
    "region_1depth": "인천",
    "region_2depth": "계양구"
  },
  {
    "category": "한식",
    "name": "단골분식",
    "main_item": "김밥",
    "price": "3,000",
    "phone": "032-549-9043",
    "address": "인천광역시 계양구 안산로 50 (임학동)",
    "lat": 37.5435189251247,
    "lng": 126.734238559529,
    "region_1depth": "인천",
    "region_2depth": "계양구"
  },
  {
    "category": "한식",
    "name": "대복갈비",
    "main_item": "돼지왕갈비",
    "price": "15,000",
    "phone": "032-555-4645",
    "address": "인천광역시 계양구 안남로554번길 10 (효성동) 1층",
    "lat": 37.5320518020123,
    "lng": 126.711678875795,
    "region_1depth": "인천",
    "region_2depth": "계양구"
  },
  {
    "category": "중식",
    "name": "동경식당",
    "main_item": "짜장면",
    "price": "5,500",
    "phone": "032-547-4479",
    "address": "인천광역시 계양구 아나지로197번길 9 (효성동, 유승그린아파트) 상가동 102호",
    "lat": 37.5263179185701,
    "lng": 126.713151597981,
    "region_1depth": "인천",
    "region_2depth": "계양구"
  },
  {
    "category": "한식",
    "name": "두루정",
    "main_item": "돼지김치짜글이",
    "price": "9,000",
    "phone": "032-555-2572",
    "address": "인천광역시 계양구 오조산로89번길 6 105호(용종동, 에메랄드빌딩)",
    "lat": 37.5390710301393,
    "lng": 126.738177084878,
    "region_1depth": "인천",
    "region_2depth": "계양구"
  },
  {
    "category": "한식",
    "name": "들꽃국시",
    "main_item": "잔치국수",
    "price": "5,000",
    "phone": "032-277-2900",
    "address": "인천광역시 계양구 용종로 30 (계산동) 상가동 101호",
    "lat": 37.5364259480165,
    "lng": 126.741685320627,
    "region_1depth": "인천",
    "region_2depth": "계양구"
  },
  {
    "category": "중식",
    "name": "만복짬뽕집",
    "main_item": "옛날짜장",
    "price": "6,500",
    "phone": "032-547-1999",
    "address": "인천광역시 계양구 벌말로 618 (하야동)",
    "lat": 37.5830373890514,
    "lng": 126.781582146751,
    "region_1depth": "인천",
    "region_2depth": "계양구"
  },
  {
    "category": "한식",
    "name": "밀밭길",
    "main_item": "밀면",
    "price": "7,000",
    "phone": "032-555-4204",
    "address": "인천광역시 계양구 용마루1길 11 (용종동)",
    "lat": 37.5434987311338,
    "lng": 126.74306732287,
    "region_1depth": "인천",
    "region_2depth": "계양구"
  },
  {
    "category": "기타요식업",
    "name": "빈스토리 계산점",
    "main_item": "아메리카노",
    "price": "2,000",
    "phone": "032-552-3518",
    "address": "인천광역시 계양구 어사대로9번길 2 102호(계산동, 성신하이츠빌)",
    "lat": 37.5423322407219,
    "lng": 126.724806134137,
    "region_1depth": "인천",
    "region_2depth": "계양구"
  },
  {
    "category": "중식",
    "name": "손가네짬뽕",
    "main_item": "짬뽕",
    "price": "6,000",
    "phone": "032-555-8688",
    "address": "인천광역시 계양구 계양대로194번길 8 (계산동)",
    "lat": 37.5409971798137,
    "lng": 126.723587311187,
    "region_1depth": "인천",
    "region_2depth": "계양구"
  },
  {
    "category": "한식",
    "name": "어머니밥상",
    "main_item": "김치찌개",
    "price": "7,000",
    "phone": "032-556-6330",
    "address": "인천광역시 계양구 오조산로57번길 15 3층(계산동)",
    "lat": 37.5359506622345,
    "lng": 126.736865572537,
    "region_1depth": "인천",
    "region_2depth": "계양구"
  },
  {
    "category": "한식",
    "name": "에버그린",
    "main_item": "김치볶음밥",
    "price": "6,500",
    "phone": "032-554-1236",
    "address": "인천광역시 계양구 주부토로 477 1층(계산동)",
    "lat": 37.5367735312274,
    "lng": 126.727796840079,
    "region_1depth": "인천",
    "region_2depth": "계양구"
  },
  {
    "category": "한식",
    "name": "영우동",
    "main_item": "영우동",
    "price": "5,000",
    "phone": "032-212-1888",
    "address": "인천광역시 계양구 임학동로 49 1층 일부호(임학동)",
    "lat": 37.5462354733234,
    "lng": 126.737196513645,
    "region_1depth": "인천",
    "region_2depth": "계양구"
  },
  {
    "category": "한식",
    "name": "우리집분식",
    "main_item": "우리집김밥",
    "price": "3,000",
    "phone": "",
    "address": "인천광역시 계양구 경명대로1045번길 21-1 (계산동) 1층 일부호(5호)",
    "lat": 37.5455093911024,
    "lng": 126.722865224689,
    "region_1depth": "인천",
    "region_2depth": "계양구"
  },
  {
    "category": "한식",
    "name": "장모님본가",
    "main_item": "한방삼계탕",
    "price": "14,000",
    "phone": "032-543-5262",
    "address": "인천광역시 계양구 봉오대로691번길 27 1층(작전동)",
    "lat": 37.5332936784401,
    "lng": 126.725686424515,
    "region_1depth": "인천",
    "region_2depth": "계양구"
  },
  {
    "category": "한식",
    "name": "장수반찬",
    "main_item": "김치등뼈찜",
    "price": "13,000",
    "phone": "010-3317-7035",
    "address": "인천광역시 계양구 병방시장로 70-1 (병방동) 1층 에이동호",
    "lat": 37.5478467573697,
    "lng": 126.739528774677,
    "region_1depth": "인천",
    "region_2depth": "계양구"
  },
  {
    "category": "한식",
    "name": "차종인설렁탕",
    "main_item": "설렁탕",
    "price": "8,500",
    "phone": "032-543-6892",
    "address": "인천광역시 계양구 양지로 44 (동양동)",
    "lat": 37.5626076016464,
    "lng": 126.755679669221,
    "region_1depth": "인천",
    "region_2depth": "계양구"
  },
  {
    "category": "한식",
    "name": "착한고기정육식당",
    "main_item": "한돈생삼겹살(150g)",
    "price": "9,900",
    "phone": "032-552-4144",
    "address": "인천광역시 계양구 장제로 723 (작전동) 2층 일부호",
    "lat": 37.532554449723,
    "lng": 126.733415468488,
    "region_1depth": "인천",
    "region_2depth": "계양구"
  },
  {
    "category": "한식",
    "name": "초이스부대찌개",
    "main_item": "초이스부대찌개",
    "price": "9,900",
    "phone": "032-262-3366",
    "address": "인천광역시 계양구 임학동로 7 (임학동) 1층 일부호",
    "lat": 37.5439174161553,
    "lng": 126.734309790868,
    "region_1depth": "인천",
    "region_2depth": "계양구"
  },
  {
    "category": "한식",
    "name": "풍년막걸리",
    "main_item": "김치전",
    "price": "6,000",
    "phone": "070-4028-6766",
    "address": "인천광역시 계양구 장제로875번길 10-1 (임학동)",
    "lat": 37.5458262195803,
    "lng": 126.737794974623,
    "region_1depth": "인천",
    "region_2depth": "계양구"
  },
  {
    "category": "일식",
    "name": "하나미",
    "main_item": "하나미정식",
    "price": "10,000",
    "phone": "032-556-5551",
    "address": "인천광역시 계양구 오조산로89번길 6 (용종동) 201호",
    "lat": 37.5390710301393,
    "lng": 126.738177084878,
    "region_1depth": "인천",
    "region_2depth": "계양구"
  },
  {
    "category": "한식",
    "name": "행복손칼국수",
    "main_item": "손칼국수",
    "price": "6,000",
    "phone": "032-555-0221",
    "address": "인천광역시 계양구 계산로 83 (계산동)",
    "lat": 37.5378688810153,
    "lng": 126.721386619804,
    "region_1depth": "인천",
    "region_2depth": "계양구"
  },
  {
    "category": "한식",
    "name": "화로터장작구이",
    "main_item": "대패삼겹살",
    "price": "13,000",
    "phone": "032-551-7526",
    "address": "인천광역시 계양구 경명대로1142번길 1 (계산동) 101호",
    "lat": 37.5426841076671,
    "lng": 126.73393906291,
    "region_1depth": "인천",
    "region_2depth": "계양구"
  },
  {
    "category": "한식",
    "name": "가현산 잔치국수",
    "main_item": "잔치국수",
    "price": "6,500",
    "phone": "032-567-3395",
    "address": "인천광역시 서구 대곡로368번길 25 (대곡동) 1층",
    "lat": 37.6305347144585,
    "lng": 126.657369619959,
    "region_1depth": "인천",
    "region_2depth": "서구"
  },
  {
    "category": "한식",
    "name": "강남식당",
    "main_item": "순대국",
    "price": "7,000",
    "phone": "032-577-5559",
    "address": "인천광역시 서구 가정로307번길 10 (석남동) 1층",
    "lat": 37.5123410638002,
    "lng": 126.671472951866,
    "region_1depth": "인천",
    "region_2depth": "서구"
  },
  {
    "category": "한식",
    "name": "거북골",
    "main_item": "순두부",
    "price": "8,000",
    "phone": "032-577-3159",
    "address": "인천광역시 서구 거북로119번길 2 1층 (석남동)",
    "lat": 37.5031980266587,
    "lng": 126.675271470122,
    "region_1depth": "인천",
    "region_2depth": "서구"
  },
  {
    "category": "한식",
    "name": "검암동 두손칼국수",
    "main_item": "칼국수+보쌈+흑미밥(무제한)",
    "price": "7,000",
    "phone": "070-8258-5067",
    "address": "인천광역시 서구 원당대로 99 (오류동) 103호(현빌딩)",
    "lat": 37.5939136469473,
    "lng": 126.614517854471,
    "region_1depth": "인천",
    "region_2depth": "서구"
  },
  {
    "category": "한식",
    "name": "공촌맛국수",
    "main_item": "잔치국수",
    "price": "5,000",
    "phone": "010-5232-5126",
    "address": "인천광역시 서구 대평로8번길 14 (연희동) 1층",
    "lat": 37.5484134581604,
    "lng": 126.676353586951,
    "region_1depth": "인천",
    "region_2depth": "서구"
  },
  {
    "category": "한식",
    "name": "궁전숯불갈비",
    "main_item": "된장찌개",
    "price": "8,000",
    "phone": "032-575-1149",
    "address": "인천광역시 서구 석남로 66-1 (석남동)",
    "lat": 37.5008292590081,
    "lng": 126.669026247091,
    "region_1depth": "인천",
    "region_2depth": "서구"
  },
  {
    "category": "한식",
    "name": "다열 금강산추어탕",
    "main_item": "추어탕(+솥밥)",
    "price": "10,000",
    "phone": "032-573-9009",
    "address": "인천광역시 서구 장고개로 319 (가좌동, 진주아파트) 9동 6~8호",
    "lat": 37.4917212160379,
    "lng": 126.685726026447,
    "region_1depth": "인천",
    "region_2depth": "서구"
  },
  {
    "category": "한식",
    "name": "대부도바지락칼국수",
    "main_item": "칼국수",
    "price": "6,500",
    "phone": "032-581-7701",
    "address": "인천광역시 서구 가정로307번길 11-1 (석남동)",
    "lat": 37.512172509982,
    "lng": 126.671319412036,
    "region_1depth": "인천",
    "region_2depth": "서구"
  },
  {
    "category": "한식",
    "name": "도널드분식",
    "main_item": "김밥",
    "price": "2,000",
    "phone": "032-561-6788",
    "address": "인천광역시 서구 용두산로 5-18 (심곡동) 104호",
    "lat": 37.5446162128601,
    "lng": 126.671394625155,
    "region_1depth": "인천",
    "region_2depth": "서구"
  },
  {
    "category": "한식",
    "name": "라델리김밥",
    "main_item": "김치주먹밥",
    "price": "2,500",
    "phone": "032-584-5225",
    "address": "인천광역시 서구 가정로 384 (가정동)",
    "lat": 37.5191569644563,
    "lng": 126.673298094275,
    "region_1depth": "인천",
    "region_2depth": "서구"
  },
  {
    "category": "한식",
    "name": "마포식당",
    "main_item": "돼지불백",
    "price": "9,000",
    "phone": "032-330-6080",
    "address": "인천광역시 서구 청라에메랄드로41번길 21 (청라동) 1층",
    "lat": 37.5294901341059,
    "lng": 126.655595361329,
    "region_1depth": "인천",
    "region_2depth": "서구"
  },
  {
    "category": "중식",
    "name": "만흥",
    "main_item": "짜장면",
    "price": "6,000",
    "phone": "032-574-5553",
    "address": "인천광역시 서구 신석로 56 1층 (석남동)",
    "lat": 37.5099959799434,
    "lng": 126.66819947567,
    "region_1depth": "인천",
    "region_2depth": "서구"
  },
  {
    "category": "한식",
    "name": "미소곱창",
    "main_item": "야채곱창 중",
    "price": "18,000",
    "phone": "032-576-1368",
    "address": "인천광역시 서구 석곶로 11 (가정동)",
    "lat": 37.518475043145,
    "lng": 126.673607727576,
    "region_1depth": "인천",
    "region_2depth": "서구"
  },
  {
    "category": "한식",
    "name": "박군술상",
    "main_item": "한근 탕수육(600g)",
    "price": "14,000",
    "phone": "0507-1405-9355",
    "address": "인천광역시 서구 탁옥로 10 (심곡동) 1층 101호",
    "lat": 37.5439021680194,
    "lng": 126.670487197643,
    "region_1depth": "인천",
    "region_2depth": "서구"
  },
  {
    "category": "한식",
    "name": "삼부자순대",
    "main_item": "순댓국",
    "price": "9,000",
    "phone": "032-573-4242",
    "address": "인천광역시 서구 건지로249번길 17 (석남동)",
    "lat": 37.5007091355202,
    "lng": 126.669824063214,
    "region_1depth": "인천",
    "region_2depth": "서구"
  },
  {
    "category": "한식",
    "name": "삼원부대찌개전문",
    "main_item": "소고기부대찌개",
    "price": "9,000",
    "phone": "032-561-9409",
    "address": "인천광역시 서구 대평로7번길 9 (심곡동)",
    "lat": 37.5464381992084,
    "lng": 126.676416669755,
    "region_1depth": "인천",
    "region_2depth": "서구"
  },
  {
    "category": "한식",
    "name": "생생손칼국수",
    "main_item": "바지락칼국수",
    "price": "6,000",
    "phone": "032-578-1256",
    "address": "인천광역시 서구 거북로 106 (석남동) 1층 2호 (석남동)",
    "lat": 37.5029649739245,
    "lng": 126.673617354412,
    "region_1depth": "인천",
    "region_2depth": "서구"
  },
  {
    "category": "한식",
    "name": "술상&밥상",
    "main_item": "김치찌개",
    "price": "7,000",
    "phone": "032-577-9305",
    "address": "인천광역시 서구 옻우물로26번길 8 (석남동, 대명아파트) 1층",
    "lat": 37.5085597867517,
    "lng": 126.673992359646,
    "region_1depth": "인천",
    "region_2depth": "서구"
  },
  {
    "category": "기타요식업",
    "name": "슈가로프 베이커리",
    "main_item": "소보로",
    "price": "1,200",
    "phone": "032-561-0456",
    "address": "인천광역시 서구 고산후로95번길 18 리빙프라자 104호 (당하동)",
    "lat": 37.5926362671787,
    "lng": 126.697121237479,
    "region_1depth": "인천",
    "region_2depth": "서구"
  },
  {
    "category": "한식",
    "name": "옛날국수",
    "main_item": "잔치국수",
    "price": "5,000",
    "phone": "032-467-0303",
    "address": "인천광역시 서구 가정로 208 (석남동) 108호",
    "lat": 37.5033178557228,
    "lng": 126.672398359808,
    "region_1depth": "인천",
    "region_2depth": "서구"
  },
  {
    "category": "한식",
    "name": "옛날손칼국수",
    "main_item": "칼국수",
    "price": "5,000",
    "phone": "032-576-2455",
    "address": "인천광역시 서구 석곶로22번길 1 (가정동) 지하1층",
    "lat": 37.5194580091161,
    "lng": 126.673892463771,
    "region_1depth": "인천",
    "region_2depth": "서구"
  },
  {
    "category": "한식",
    "name": "왕소참숯불구이",
    "main_item": "육개장",
    "price": "11,000",
    "phone": "032-218-1592",
    "address": "인천광역시 서구 길주로 119 (석남동)",
    "lat": 37.5065240693541,
    "lng": 126.675073164665,
    "region_1depth": "인천",
    "region_2depth": "서구"
  },
  {
    "category": "중식",
    "name": "참뽕",
    "main_item": "짜장면",
    "price": "6,000",
    "phone": "070-8845-7207",
    "address": "인천광역시 서구 서곶로 788 (당하동) 122호",
    "lat": 37.5881209362767,
    "lng": 126.675351701003,
    "region_1depth": "인천",
    "region_2depth": "서구"
  },
  {
    "category": "한식",
    "name": "참진미바지락칼국수",
    "main_item": "칼국수",
    "price": "7,000",
    "phone": "032-569-3601",
    "address": "인천광역시 서구 승학로 422번길 29 (검암동)",
    "lat": 37.5593419533717,
    "lng": 126.676509478364,
    "region_1depth": "인천",
    "region_2depth": "서구"
  },
  {
    "category": "기타요식업",
    "name": "콩앤티",
    "main_item": "아메리카노",
    "price": "2,000",
    "phone": "",
    "address": "인천광역시 서구 가정로 224 (석남동) 103호",
    "lat": 37.5049513745196,
    "lng": 126.67249685424,
    "region_1depth": "인천",
    "region_2depth": "서구"
  },
  {
    "category": "한식",
    "name": "풍년막걸리",
    "main_item": "계란탕",
    "price": "4,000",
    "phone": "032-574-2560",
    "address": "인천광역시 서구 가정로 122 (가좌동)",
    "lat": 37.495534173185,
    "lng": 126.67180927929,
    "region_1depth": "인천",
    "region_2depth": "서구"
  },
  {
    "category": "한식",
    "name": "풍년왕막걸리",
    "main_item": "파전",
    "price": "7,000",
    "phone": "032-582-8158",
    "address": "인천광역시 서구 신석로 83 (석남동)",
    "lat": 37.5100530688869,
    "lng": 126.67128074951,
    "region_1depth": "인천",
    "region_2depth": "서구"
  },
  {
    "category": "한식",
    "name": "하나식당",
    "main_item": "생선구이+청국장",
    "price": "10,000",
    "phone": "032-583-5097",
    "address": "인천광역시 서구 염곡로 262 쉼터교회내 1층 (석남동)",
    "lat": 37.5078833894057,
    "lng": 126.668483322698,
    "region_1depth": "인천",
    "region_2depth": "서구"
  },
  {
    "category": "한식",
    "name": "합격식당",
    "main_item": "김치찌개",
    "price": "5,000",
    "phone": "032-581-7174",
    "address": "인천광역시 서구 신진말로33번길 8-15 (가좌동) 1층",
    "lat": 37.4942091113528,
    "lng": 126.680235950036,
    "region_1depth": "인천",
    "region_2depth": "서구"
  },
  {
    "category": "한식",
    "name": "홍두깨 손칼국수",
    "main_item": "고기만두",
    "price": "5,000",
    "phone": "032-577-7808",
    "address": "인천광역시 서구 석곶로8번길 7-7 (가정동)",
    "lat": 37.5186499259663,
    "lng": 126.674358064603,
    "region_1depth": "인천",
    "region_2depth": "서구"
  },
  {
    "category": "일식",
    "name": "후타고스시",
    "main_item": "초밥 한접시",
    "price": "1,900",
    "phone": "032-564-3131",
    "address": "인천광역시 서구 청라루비로42번길 5 (청라동) 1층 103호",
    "lat": 37.529010114567,
    "lng": 126.641259902978,
    "region_1depth": "인천",
    "region_2depth": "서구"
  },
  {
    "category": "한식",
    "name": "강화손칼국수",
    "main_item": "부추전",
    "price": "8,000",
    "phone": "032-937-8707",
    "address": "인천광역시 강화군 양도면 강화남로 678",
    "lat": 37.6607725958748,
    "lng": 126.42300746259,
    "region_1depth": "인천",
    "region_2depth": "강화군"
  },
  {
    "category": "한식",
    "name": "남창식당",
    "main_item": "되비지백반",
    "price": "8,000",
    "phone": "032-934-2380",
    "address": "인천광역시 강화군 강화읍 남문안길 3 (신문리)",
    "lat": 37.7444941611323,
    "lng": 126.485938325829,
    "region_1depth": "인천",
    "region_2depth": "강화군"
  },
  {
    "category": "한식",
    "name": "뚱가네",
    "main_item": "생삼겹살",
    "price": "15,000",
    "phone": "032-933-9296",
    "address": "인천광역시 강화군 강화읍 강화대로393번길 10 (신문리)",
    "lat": 37.7444910501612,
    "lng": 126.486754347632,
    "region_1depth": "인천",
    "region_2depth": "강화군"
  },
  {
    "category": "중식",
    "name": "마니산손짜장",
    "main_item": "짜장면",
    "price": "3,000",
    "phone": "032-937-8249",
    "address": "인천광역시 강화군 양도면 가능포로 221 (능내리)",
    "lat": 37.6517388265358,
    "lng": 126.42547936586,
    "region_1depth": "인천",
    "region_2depth": "강화군"
  },
  {
    "category": "한식",
    "name": "서울돼지1986",
    "main_item": "빨강 양념 목살(200g)",
    "price": "13,000",
    "phone": "032-933-8909",
    "address": "인천광역시 강화군 강화읍 갑룡길 122 2동 1층",
    "lat": 37.7451059300474,
    "lng": 126.505656124948,
    "region_1depth": "인천",
    "region_2depth": "강화군"
  },
  {
    "category": "한식",
    "name": "송해식당",
    "main_item": "삼겹살",
    "price": "16,000",
    "phone": "032-934-4775",
    "address": "인천광역시 강화군 강화읍 청하동길9번길 6-3",
    "lat": 37.7467385924567,
    "lng": 126.482286089575,
    "region_1depth": "인천",
    "region_2depth": "강화군"
  },
  {
    "category": "중식",
    "name": "수정반점",
    "main_item": "짜장면",
    "price": "4,000",
    "phone": "032-932-5891",
    "address": "인천광역시 강화군 내가면 강화서로 217 (고천리)",
    "lat": 37.7163833133799,
    "lng": 126.390956700646,
    "region_1depth": "인천",
    "region_2depth": "강화군"
  },
  {
    "category": "한식",
    "name": "오가네국수",
    "main_item": "갈비탕",
    "price": "13,000",
    "phone": "032-933-7155",
    "address": "인천광역시 강화군 강화읍 갑룡길 37 1층 102호",
    "lat": 37.7427841532102,
    "lng": 126.497030576223,
    "region_1depth": "인천",
    "region_2depth": "강화군"
  },
  {
    "category": "한식",
    "name": "일억조",
    "main_item": "생삼겹살",
    "price": "13,000",
    "phone": "032-933-4224",
    "address": "인천광역시 강화군 강화읍 동문안길21번길 17 1층",
    "lat": 37.7475942755004,
    "lng": 126.485175393618,
    "region_1depth": "인천",
    "region_2depth": "강화군"
  },
  {
    "category": "한식",
    "name": "장흥리식당",
    "main_item": "쭈꾸미정식",
    "price": "10,000",
    "phone": "010-4277-3891",
    "address": "인천광역시 강화군 길상면 길상로 236-1 1층",
    "lat": 37.6345342553665,
    "lng": 126.498345830153,
    "region_1depth": "인천",
    "region_2depth": "강화군"
  },
  {
    "category": "중식",
    "name": "중화요리금성",
    "main_item": "짜장면",
    "price": "2,000",
    "phone": "032-937-8559",
    "address": "인천광역시 강화군 양도면 강화남로 736 (하일리)",
    "lat": 37.6651109801167,
    "lng": 126.42051534869,
    "region_1depth": "인천",
    "region_2depth": "강화군"
  },
  {
    "category": "한식",
    "name": "꿀꿀이만찬",
    "main_item": "순대국",
    "price": "8,000",
    "phone": "010-8818-7218",
    "address": "인천광역시 옹진군 영흥면 선재로 342 (선재리)",
    "lat": 37.2541859346822,
    "lng": 126.5138307513,
    "region_1depth": "인천",
    "region_2depth": "옹진군"
  }
]