[
  {
    "category": "미용업",
    "name": "가고파미용실",
    "main_item": "커트",
    "price": "5,000",
    "phone": "033-262-9488",
    "address": "강원특별자치도 춘천시 안마산로 216 (퇴계동)",
    "lat": 37.8495302656251,
    "lng": 127.737647046448,
    "region_1depth": "강원특별자치도",
    "region_2depth": "춘천시"
  },
  {
    "category": "미용업",
    "name": "가위소리 머리방",
    "main_item": "커트",
    "price": "12,000",
    "phone": "033-243-2969",
    "address": "강원특별자치도 춘천시 신북읍 율문길 105 1층",
    "lat": 37.9249373203292,
    "lng": 127.749242419883,
    "region_1depth": "강원특별자치도",
    "region_2depth": "춘천시"
  },
  {
    "category": "한식_육류",
    "name": "감돈",
    "main_item": "생삼겹살(180g)",
    "price": "14,000",
    "phone": "0507-1319-9297",
    "address": "강원특별자치도 춘천시 동내면 거두택지길4번길 7-13 1층",
    "lat": 37.8525580879821,
    "lng": 127.752897892208,
    "region_1depth": "강원특별자치도",
    "region_2depth": "춘천시"
  },
  {
    "category": "한식_육류",
    "name": "강남동골목원조닭갈비",
    "main_item": "닭갈비(300g)",
    "price": "13,000",
    "phone": "0507-1400-5909",
    "address": "강원특별자치도 춘천시 충혼길52번길 20-4 (온의동)",
    "lat": 37.860823829298,
    "lng": 127.718634133002,
    "region_1depth": "강원특별자치도",
    "region_2depth": "춘천시"
  },
  {
    "category": "미용업",
    "name": "개성시대미용실",
    "main_item": "커트",
    "price": "8,000",
    "phone": "033-256-9304",
    "address": "강원특별자치도 춘천시 춘천로68번길 10 (효자동)",
    "lat": 37.8700600426461,
    "lng": 127.725474230628,
    "region_1depth": "강원특별자치도",
    "region_2depth": "춘천시"
  },
  {
    "category": "숙박업",
    "name": "계림산장",
    "main_item": "특실(1인)",
    "price": "30,000",
    "phone": "033-254-7392",
    "address": "강원특별자치도 춘천시 스포츠타운길 340 (강남동)",
    "lat": 37.8714875768873,
    "lng": 127.696150666549,
    "region_1depth": "강원특별자치도",
    "region_2depth": "춘천시"
  },
  {
    "category": "한식_일반",
    "name": "골목손두부",
    "main_item": "순두부",
    "price": "8,000",
    "phone": "033-256-6259",
    "address": "강원특별자치도 춘천시 공지로 439번길 16-4 (근화동)",
    "lat": 37.8726486894719,
    "lng": 127.719572641824,
    "region_1depth": "강원특별자치도",
    "region_2depth": "춘천시"
  },
  {
    "category": "한식_육류",
    "name": "곱돌생삼겹살",
    "main_item": "생삼겹살(캐나다)",
    "price": "10,000",
    "phone": "033-255-4241",
    "address": "강원특별자치도 춘천시 백령로138번길 55 (효자동)",
    "lat": 37.8731172068198,
    "lng": 127.745471505129,
    "region_1depth": "강원특별자치도",
    "region_2depth": "춘천시"
  },
  {
    "category": "한식_일반",
    "name": "광치해장국",
    "main_item": "선지해장국",
    "price": "6,000",
    "phone": "033-253-1100",
    "address": "강원특별자치도 춘천시 소양로 108 (소양동)",
    "lat": 37.8932252439588,
    "lng": 127.726036660624,
    "region_1depth": "강원특별자치도",
    "region_2depth": "춘천시"
  },
  {
    "category": "한식_일반",
    "name": "국수나라",
    "main_item": "김치찌개",
    "price": "6,000",
    "phone": "033-243-5671",
    "address": "강원특별자치도 춘천시 삭주로 130 (후평동)",
    "lat": 37.884975317142,
    "lng": 127.744932071997,
    "region_1depth": "강원특별자치도",
    "region_2depth": "춘천시"
  },
  {
    "category": "한식_면류",
    "name": "국수닭",
    "main_item": "닭국수",
    "price": "6,500",
    "phone": "033-262-6399",
    "address": "강원특별자치도 춘천시 남춘로 36번길 48 (퇴계동)",
    "lat": 37.8615806593812,
    "lng": 127.735535866785,
    "region_1depth": "강원특별자치도",
    "region_2depth": "춘천시"
  },
  {
    "category": "한식_면류",
    "name": "그랑블루바다향기칼국수",
    "main_item": "해물칼국수",
    "price": "8,000",
    "phone": "033-263-2801",
    "address": "강원특별자치도 춘천시 동내면 고은길 168 2층",
    "lat": 37.8383207877726,
    "lng": 127.783588716154,
    "region_1depth": "강원특별자치도",
    "region_2depth": "춘천시"
  },
  {
    "category": "미용업",
    "name": "금란미용실",
    "main_item": "커트",
    "price": "10,000",
    "phone": "033-257-4174",
    "address": "강원특별자치도 춘천시 둥지길 7 (효자동)",
    "lat": 37.8748093431673,
    "lng": 127.735688071927,
    "region_1depth": "강원특별자치도",
    "region_2depth": "춘천시"
  },
  {
    "category": "한식_육류",
    "name": "금산닭갈비",
    "main_item": "닭갈비(250g)",
    "price": "12,000",
    "phone": "033-243-3206",
    "address": "강원특별자치도 춘천시 서면 박사로 928 1층",
    "lat": 37.8982721407595,
    "lng": 127.694185268302,
    "region_1depth": "강원특별자치도",
    "region_2depth": "춘천시"
  },
  {
    "category": "한식_일반",
    "name": "금옥",
    "main_item": "막국수",
    "price": "8,000",
    "phone": "033-241-1791",
    "address": "강원특별자치도 춘천시 동면 금옥길 289-27 1층",
    "lat": 37.9229090212663,
    "lng": 127.80680948061,
    "region_1depth": "강원특별자치도",
    "region_2depth": "춘천시"
  },
  {
    "category": "한식_일반",
    "name": "낭만국수집",
    "main_item": "돌솥비빔밥",
    "price": "8,000",
    "phone": "033-251-5688",
    "address": "강원특별자치도 춘천시 서부대성로57번길2 (옥천동)",
    "lat": 37.8829699924835,
    "lng": 127.72960354019,
    "region_1depth": "강원특별자치도",
    "region_2depth": "춘천시"
  },
  {
    "category": "한식_일반",
    "name": "낭만국시",
    "main_item": "칼국시",
    "price": "7,000",
    "phone": "033-252-6255",
    "address": "강원특별자치도 춘천시 명동길29번길 3 (죽림동)",
    "lat": 37.8781171202343,
    "lng": 127.725962552609,
    "region_1depth": "강원특별자치도",
    "region_2depth": "춘천시"
  },
  {
    "category": "일식",
    "name": "누이네",
    "main_item": "회덮밥",
    "price": "9,000",
    "phone": "033-251-2261",
    "address": "강원특별자치도 춘천시 영서로2279번길 25 (온의동)",
    "lat": 37.8628068929099,
    "lng": 127.720326390422,
    "region_1depth": "강원특별자치도",
    "region_2depth": "춘천시"
  },
  {
    "category": "기타요식업",
    "name": "달콤한게으름",
    "main_item": "아메리카노",
    "price": "4,000",
    "phone": "0507-1359-7877",
    "address": "강원특별자치도 춘천시 신북읍 신샘밭로 502 달콤한게으름",
    "lat": 37.9295512271344,
    "lng": 127.765130880111,
    "region_1depth": "강원특별자치도",
    "region_2depth": "춘천시"
  },
  {
    "category": "한식_일반",
    "name": "더밥",
    "main_item": "제육덮밥",
    "price": "8,900",
    "phone": "033-242-2178",
    "address": "강원특별자치도 춘천시 춘주로91번길 10 (온의동)",
    "lat": 37.862555029709,
    "lng": 127.720541103243,
    "region_1depth": "강원특별자치도",
    "region_2depth": "춘천시"
  },
  {
    "category": "미용업",
    "name": "동네미용실",
    "main_item": "커트",
    "price": "10,000",
    "phone": "033-262-3257",
    "address": "강원특별자치도 춘천시 동내면 영서로 1747 1층",
    "lat": 37.8327701426154,
    "lng": 127.761293705291,
    "region_1depth": "강원특별자치도",
    "region_2depth": "춘천시"
  },
  {
    "category": "한식_일반",
    "name": "동부지짐이다정",
    "main_item": "삼겹살(200g)",
    "price": "12,000",
    "phone": "0507-1339-3946",
    "address": "강원특별자치도 춘천시 동부시장길 8 지하1층 3호(운교동, 동부시장현대아파트)",
    "lat": 37.877292655512,
    "lng": 127.734087864142,
    "region_1depth": "강원특별자치도",
    "region_2depth": "춘천시"
  },
  {
    "category": "한식_일반",
    "name": "동이만두",
    "main_item": "김치찌개",
    "price": "6,000",
    "phone": "033-255-3633",
    "address": "강원특별자치도 춘천시 효제길 36 (효자동)",
    "lat": 37.8709546627662,
    "lng": 127.737049930361,
    "region_1depth": "강원특별자치도",
    "region_2depth": "춘천시"
  },
  {
    "category": "한식_일반",
    "name": "뚝배기마을",
    "main_item": "된장찌개",
    "price": "7,000",
    "phone": "033-255-5455",
    "address": "강원특별자치도 춘천시 중앙로37-3 (중앙로1가)",
    "lat": 37.8814765592669,
    "lng": 127.728258889089,
    "region_1depth": "강원특별자치도",
    "region_2depth": "춘천시"
  },
  {
    "category": "한식_일반",
    "name": "롯데자율식당",
    "main_item": "한식뷔페",
    "price": "8,000",
    "phone": "0507-1395-5955",
    "address": "강원특별자치도 춘천시 공지로 387 지하층(약사동)",
    "lat": 37.8716410438521,
    "lng": 127.723885862381,
    "region_1depth": "강원특별자치도",
    "region_2depth": "춘천시"
  },
  {
    "category": "중식",
    "name": "만리향",
    "main_item": "짜장면",
    "price": "5,000",
    "phone": "033-251-2227",
    "address": "강원특별자치도 춘천시 명동길29번길 4-5 (죽림동)",
    "lat": 37.8779879948066,
    "lng": 127.725893087544,
    "region_1depth": "강원특별자치도",
    "region_2depth": "춘천시"
  },
  {
    "category": "기타요식업",
    "name": "메이카드",
    "main_item": "아메리카노",
    "price": "3,500",
    "phone": "0507-1391-1402",
    "address": "강원특별자치도 춘천시 복골길6번길 21 1층(후평동)",
    "lat": 37.8743681928941,
    "lng": 127.755540944248,
    "region_1depth": "강원특별자치도",
    "region_2depth": "춘천시"
  },
  {
    "category": "기타비요식업",
    "name": "뭉치 그루밍",
    "main_item": "-",
    "price": "",
    "phone": "010-8773-0704",
    "address": "강원특별자치도 춘천시 퇴계로 110 (퇴계동) 상가동 1층 103호",
    "lat": 37.8612128181193,
    "lng": 127.73206491975,
    "region_1depth": "강원특별자치도",
    "region_2depth": "춘천시"
  },
  {
    "category": "한식_면류",
    "name": "미라네해물칼국수",
    "main_item": "장칼국수",
    "price": "8,000",
    "phone": "033-252-2205",
    "address": "강원특별자치도 춘천시 충혼길44번길 18 (온의동)",
    "lat": 37.8617522655622,
    "lng": 127.719574183604,
    "region_1depth": "강원특별자치도",
    "region_2depth": "춘천시"
  },
  {
    "category": "목욕업",
    "name": "바위목욕탕",
    "main_item": "대인",
    "price": "8,000",
    "phone": "033-253-3610",
    "address": "강원특별자치도 춘천시 춘천로213번길 9 (효자동)",
    "lat": 37.8781770353052,
    "lng": 127.737068247626,
    "region_1depth": "강원특별자치도",
    "region_2depth": "춘천시"
  },
  {
    "category": "한식_일반",
    "name": "바탕골분식",
    "main_item": "김치찌개",
    "price": "8,000",
    "phone": "033-254-3564",
    "address": "강원특별자치도 춘천시 서부대성로44번길 19 (요선동)",
    "lat": 37.88168933514,
    "lng": 127.727315490081,
    "region_1depth": "강원특별자치도",
    "region_2depth": "춘천시"
  },
  {
    "category": "한식_면류",
    "name": "박사로냉면",
    "main_item": "냉면",
    "price": "7,000",
    "phone": "0507-1399-2411",
    "address": "강원특별자치도 춘천시 서면 박사로 839 박사로냉면",
    "lat": 37.8919532072736,
    "lng": 127.689617088095,
    "region_1depth": "강원특별자치도",
    "region_2depth": "춘천시"
  },
  {
    "category": "미용업",
    "name": "박설매미용실",
    "main_item": "커트",
    "price": "10,000",
    "phone": "",
    "address": "강원특별자치도 춘천시 서부대성로 126-1 1층(운교동)",
    "lat": 37.8783657017514,
    "lng": 127.73400940214,
    "region_1depth": "강원특별자치도",
    "region_2depth": "춘천시"
  },
  {
    "category": "미용업",
    "name": "박혜숙헤어",
    "main_item": "커트",
    "price": "10,000",
    "phone": "033-257-1360",
    "address": "강원특별자치도 춘천시 춘천로309번길 7 (후평동)",
    "lat": 37.8823136801827,
    "lng": 127.746727606313,
    "region_1depth": "강원특별자치도",
    "region_2depth": "춘천시"
  },
  {
    "category": "한식_일반",
    "name": "밥보네집",
    "main_item": "제육볶음정식",
    "price": "6,000",
    "phone": "033-255-2123",
    "address": "강원특별자치도 춘천시 서부대성로 239번길 4 (효자동)",
    "lat": 37.8730237470997,
    "lng": 127.744950136894,
    "region_1depth": "강원특별자치도",
    "region_2depth": "춘천시"
  },
  {
    "category": "한식_일반",
    "name": "밥짓는마을",
    "main_item": "한식뷔페",
    "price": "7,000",
    "phone": "033-242-2624",
    "address": "강원특별자치도 춘천시 중앙로 63-1 2층(중앙로2가)",
    "lat": 37.8793858304165,
    "lng": 127.726806123679,
    "region_1depth": "강원특별자치도",
    "region_2depth": "춘천시"
  },
  {
    "category": "한식_일반",
    "name": "백령밥집",
    "main_item": "가정식백반",
    "price": "7,000",
    "phone": "033-241-2287",
    "address": "강원특별자치도 춘천시 백령로 180 (후평동) 가운데 1층",
    "lat": 37.8762735958618,
    "lng": 127.746313370184,
    "region_1depth": "강원특별자치도",
    "region_2depth": "춘천시"
  },
  {
    "category": "한식_육류",
    "name": "봉수닭갈비",
    "main_item": "닭갈비(300g)",
    "price": "13,500",
    "phone": "033-252-8136",
    "address": "강원특별자치도 춘천시 서부대성로227번길 3-1 (효자동)",
    "lat": 37.8735338500721,
    "lng": 127.743539804049,
    "region_1depth": "강원특별자치도",
    "region_2depth": "춘천시"
  },
  {
    "category": "한식_일반",
    "name": "봉실스넥",
    "main_item": "순두부찌개",
    "price": "5,000",
    "phone": "033-251-6890",
    "address": "강원특별자치도 춘천시 서부대성로239번길 8 (효자동)",
    "lat": 37.8732547890045,
    "lng": 127.745099874572,
    "region_1depth": "강원특별자치도",
    "region_2depth": "춘천시"
  },
  {
    "category": "한식_육류",
    "name": "불발탄",
    "main_item": "특양구이(200g)",
    "price": "22,000",
    "phone": "033-263-9293",
    "address": "강원특별자치도 춘천시 안마산로 213 (퇴계동)",
    "lat": 37.8500059095325,
    "lng": 127.737669282743,
    "region_1depth": "강원특별자치도",
    "region_2depth": "춘천시"
  },
  {
    "category": "기타요식업",
    "name": "블루밍",
    "main_item": "아메리카노",
    "price": "2,000",
    "phone": "",
    "address": "강원특별자치도 춘천시 옥천길54번길 26-1 (옥천동)",
    "lat": 37.8820003794075,
    "lng": 127.732003414307,
    "region_1depth": "강원특별자치도",
    "region_2depth": "춘천시"
  },
  {
    "category": "한식_일반",
    "name": "삼남매",
    "main_item": "가정식백반",
    "price": "8,000",
    "phone": "033-637-5770",
    "address": "강원특별자치도 춘천시 춘천로170번길 8 1층(운교동)",
    "lat": 37.8756946677783,
    "lng": 127.73332299084,
    "region_1depth": "강원특별자치도",
    "region_2depth": "춘천시"
  },
  {
    "category": "숙박업",
    "name": "서울파크",
    "main_item": "평일",
    "price": "35,000",
    "phone": "033-244-5400",
    "address": "강원특별자치도 춘천시 신북읍 상천3길 11 서울파크",
    "lat": 37.9325818908606,
    "lng": 127.791638718531,
    "region_1depth": "강원특별자치도",
    "region_2depth": "춘천시"
  },
  {
    "category": "중식",
    "name": "석사반점",
    "main_item": "자장면",
    "price": "4,000",
    "phone": "033-262-2354",
    "address": "강원특별자치도 춘천시 효석로67번길 25 (석사동)",
    "lat": 37.862559878518,
    "lng": 127.739362733706,
    "region_1depth": "강원특별자치도",
    "region_2depth": "춘천시"
  },
  {
    "category": "미용업",
    "name": "소유헤어",
    "main_item": "남성컷",
    "price": "11,000",
    "phone": "033-255-8551",
    "address": "강원특별자치도 춘천시 삭주로 136 (후평동) 1층",
    "lat": 37.8853094289737,
    "lng": 127.745593382606,
    "region_1depth": "강원특별자치도",
    "region_2depth": "춘천시"
  },
  {
    "category": "미용업",
    "name": "송혜진미용실",
    "main_item": "커트",
    "price": "9,000",
    "phone": "",
    "address": "강원특별자치도 춘천시 신흥길5번길 8-6 1층(우두동)",
    "lat": 37.9005696948236,
    "lng": 127.727393589753,
    "region_1depth": "강원특별자치도",
    "region_2depth": "춘천시"
  },
  {
    "category": "한식_일반",
    "name": "수제돈가스",
    "main_item": "돈가스정식",
    "price": "7,000",
    "phone": "033-254-5074",
    "address": "강원특별자치도 춘천시 명동길 43 (죽림동)",
    "lat": 37.8773260893336,
    "lng": 127.72485363333,
    "region_1depth": "강원특별자치도",
    "region_2depth": "춘천시"
  },
  {
    "category": "미용업",
    "name": "숙미용실",
    "main_item": "커트",
    "price": "5,000",
    "phone": "033-253-9217",
    "address": "강원특별자치도 춘천시 공지로 432-1 (근화동)",
    "lat": 37.8737216981244,
    "lng": 127.719469536522,
    "region_1depth": "강원특별자치도",
    "region_2depth": "춘천시"
  },
  {
    "category": "미용업",
    "name": "스타미용실",
    "main_item": "커트(남성)",
    "price": "12,000",
    "phone": "033-257-1725",
    "address": "강원특별자치도 춘천시 효자로 60 (효자동)",
    "lat": 37.8689616790159,
    "lng": 127.730202165531,
    "region_1depth": "강원특별자치도",
    "region_2depth": "춘천시"
  },
  {
    "category": "숙박업",
    "name": "시네마모텔",
    "main_item": "일반실(평일)",
    "price": "40,000",
    "phone": "033-241-1575",
    "address": "강원특별자치도 춘천시 동면 가산로 153 시네마모텔",
    "lat": 37.9176615034216,
    "lng": 127.781459390323,
    "region_1depth": "강원특별자치도",
    "region_2depth": "춘천시"
  },
  {
    "category": "미용업",
    "name": "쌍다리이용소",
    "main_item": "커트",
    "price": "5,000",
    "phone": "033-262-5087",
    "address": "강원특별자치도 춘천시 춘천순환로 42 상가동 101호 (석사동)",
    "lat": 37.8546857141914,
    "lng": 127.748703975697,
    "region_1depth": "강원특별자치도",
    "region_2depth": "춘천시"
  },
  {
    "category": "한식_일반",
    "name": "아무거나",
    "main_item": "돼지고기김치찌개(小)",
    "price": "15,000",
    "phone": "033-262-6827",
    "address": "강원특별자치도 춘천시 벌말길 64 (석사동)",
    "lat": 37.8600082400058,
    "lng": 127.742972428393,
    "region_1depth": "강원특별자치도",
    "region_2depth": "춘천시"
  },
  {
    "category": "한식_일반",
    "name": "안가네밥집",
    "main_item": "두부전골(2인이상)",
    "price": "7,000",
    "phone": "033-255-0528",
    "address": "강원특별자치도 춘천시 남춘로25번길 4-1 1층(퇴계동)",
    "lat": 37.863683071761,
    "lng": 127.730587479698,
    "region_1depth": "강원특별자치도",
    "region_2depth": "춘천시"
  },
  {
    "category": "한식_육류",
    "name": "약사촌 닭갈비",
    "main_item": "닭갈비(300g)",
    "price": "15,000",
    "phone": "033-256-9255",
    "address": "강원특별자치도 춘천시 공지로 384-9 (약사동)",
    "lat": 37.8719511821893,
    "lng": 127.724553429217,
    "region_1depth": "강원특별자치도",
    "region_2depth": "춘천시"
  },
  {
    "category": "한식_일반",
    "name": "양지뜨락",
    "main_item": "손두부전골",
    "price": "8,000",
    "phone": "033-244-6690",
    "address": "강원특별자치도 춘천시 동면 만천양지길 114 양지뜨락",
    "lat": 37.8876696194505,
    "lng": 127.766517242331,
    "region_1depth": "강원특별자치도",
    "region_2depth": "춘천시"
  },
  {
    "category": "한식_일반",
    "name": "언덕집",
    "main_item": "보리밥뷔페",
    "price": "6,000",
    "phone": "033-256-2220",
    "address": "강원특별자치도 춘천시 금강로83번길 6 (운교동)",
    "lat": 37.8783065745038,
    "lng": 127.730392278353,
    "region_1depth": "강원특별자치도",
    "region_2depth": "춘천시"
  },
  {
    "category": "중식",
    "name": "연화각",
    "main_item": "짜장면",
    "price": "6,000",
    "phone": "033-256-5863",
    "address": "강원특별자치도 춘천시 충혼길52번길 20-23 (온의동)",
    "lat": 37.8617817124155,
    "lng": 127.71898650725,
    "region_1depth": "강원특별자치도",
    "region_2depth": "춘천시"
  },
  {
    "category": "한식_일반",
    "name": "옛촌",
    "main_item": "백반",
    "price": "8,000",
    "phone": "033-254-1511",
    "address": "강원특별자치도 춘천시 향교앞길 4 (교동)",
    "lat": 37.8810059576535,
    "lng": 127.734270783857,
    "region_1depth": "강원특별자치도",
    "region_2depth": "춘천시"
  },
  {
    "category": "미용업",
    "name": "오드리 햅번",
    "main_item": "커트",
    "price": "13,000",
    "phone": "033-252-0111",
    "address": "강원특별자치도 춘천시 옛경춘로 492 101호(칠전동, 대우아파트상가)",
    "lat": 37.8422914131218,
    "lng": 127.711021913138,
    "region_1depth": "강원특별자치도",
    "region_2depth": "춘천시"
  },
  {
    "category": "한식_일반",
    "name": "오믈하우스",
    "main_item": "오므라이스",
    "price": "5,000",
    "phone": "0507-1363-1331",
    "address": "강원특별자치도 춘천시 서부대성로227번길 24 (효자동) 2층",
    "lat": 37.8733761570024,
    "lng": 127.745183270006,
    "region_1depth": "강원특별자치도",
    "region_2depth": "춘천시"
  },
  {
    "category": "한식_면류",
    "name": "와송칼국수",
    "main_item": "칼국수",
    "price": "7,000",
    "phone": "033-255-7600",
    "address": "강원특별자치도 춘천시 명동길 46-1 (중앙로3가)",
    "lat": 37.8772319253533,
    "lng": 127.724402610449,
    "region_1depth": "강원특별자치도",
    "region_2depth": "춘천시"
  },
  {
    "category": "한식_일반",
    "name": "왕가",
    "main_item": "한식뷔페",
    "price": "6,000",
    "phone": "033-261-0559",
    "address": "강원특별자치도 춘천시 석사길 15 (석사동)",
    "lat": 37.8579328322032,
    "lng": 127.744971856148,
    "region_1depth": "강원특별자치도",
    "region_2depth": "춘천시"
  },
  {
    "category": "미용업",
    "name": "왕언니네미장원",
    "main_item": "커트",
    "price": "8,000",
    "phone": "",
    "address": "강원특별자치도 춘천시 중앙로 77-2 (중앙로2가)",
    "lat": 37.8786098574848,
    "lng": 127.72562344249,
    "region_1depth": "강원특별자치도",
    "region_2depth": "춘천시"
  },
  {
    "category": "한식_일반",
    "name": "왕짱구",
    "main_item": "꼬마김밥(8줄)",
    "price": "3,500",
    "phone": "033-254-4862",
    "address": "강원특별자치도 춘천시 춘천로 195 (효자동) 1층",
    "lat": 37.8769735078936,
    "lng": 127.735724827451,
    "region_1depth": "강원특별자치도",
    "region_2depth": "춘천시"
  },
  {
    "category": "한식_일반",
    "name": "우두동밥집",
    "main_item": "한식뷔페",
    "price": "8,000",
    "phone": "033-255-5999",
    "address": "강원특별자치도 춘천시 벌말길 54-1 (석사동)",
    "lat": 37.859382765949,
    "lng": 127.742351389083,
    "region_1depth": "강원특별자치도",
    "region_2depth": "춘천시"
  },
  {
    "category": "한식_일반",
    "name": "우리순대국",
    "main_item": "순대국",
    "price": "8,000",
    "phone": "033-252-9545",
    "address": "강원특별자치도 춘천시 후석로45번길 15 (석사동)",
    "lat": 37.8593067249022,
    "lng": 127.740549073063,
    "region_1depth": "강원특별자치도",
    "region_2depth": "춘천시"
  },
  {
    "category": "한식_면류",
    "name": "원식이네손칼국수",
    "main_item": "해물칼국수",
    "price": "8,000",
    "phone": "033-257-5652",
    "address": "강원특별자치도 춘천시 후석로 591 (소양로1가) 원식이네손칼국수",
    "lat": 37.8935567713935,
    "lng": 127.727949853704,
    "region_1depth": "강원특별자치도",
    "region_2depth": "춘천시"
  },
  {
    "category": "한식_일반",
    "name": "유봉해물찜",
    "main_item": "아구찜(소)",
    "price": "25,000",
    "phone": "033-243-3323",
    "address": "강원특별자치도 춘천시 퇴계로 63-1 (퇴계동)",
    "lat": 37.8638340743252,
    "lng": 127.72825967046,
    "region_1depth": "강원특별자치도",
    "region_2depth": "춘천시"
  },
  {
    "category": "미용업",
    "name": "이미경헤어클릭",
    "main_item": "커트",
    "price": "10,000",
    "phone": "033-253-0028",
    "address": "강원특별자치도 춘천시 충열로 10-5 (우두동) 이미경헤어클릭",
    "lat": 37.9002054744797,
    "lng": 127.729500447558,
    "region_1depth": "강원특별자치도",
    "region_2depth": "춘천시"
  },
  {
    "category": "한식_면류",
    "name": "이서냉면",
    "main_item": "냉면",
    "price": "7,000",
    "phone": "0507-1487-4040",
    "address": "강원특별자치도 춘천시 우석로 14-1 (석사동) 1층",
    "lat": 37.8619369731876,
    "lng": 127.747666290632,
    "region_1depth": "강원특별자치도",
    "region_2depth": "춘천시"
  },
  {
    "category": "기타요식업",
    "name": "일리터",
    "main_item": "아메리카노",
    "price": "1,000",
    "phone": "033-241-7778",
    "address": "강원특별자치도 춘천시 중앙로68번길 3 (중앙로2가) 1, 2층(중앙로2가)",
    "lat": 37.8793736023541,
    "lng": 127.726028308148,
    "region_1depth": "강원특별자치도",
    "region_2depth": "춘천시"
  },
  {
    "category": "한식_육류",
    "name": "임가네",
    "main_item": "소고기뭇국",
    "price": "8,000",
    "phone": "033-262-5245",
    "address": "강원특별자치도 춘천시 새롬공원길 25 (석사동)",
    "lat": 37.8544088335552,
    "lng": 127.747076544582,
    "region_1depth": "강원특별자치도",
    "region_2depth": "춘천시"
  },
  {
    "category": "한식_육류",
    "name": "장군닭갈비",
    "main_item": "닭갈비(300g)",
    "price": "12,000",
    "phone": "033-241-8342",
    "address": "강원특별자치도 춘천시 춘주로147번길 12-6 (퇴계동)",
    "lat": 37.8593325106694,
    "lng": 127.725627130177,
    "region_1depth": "강원특별자치도",
    "region_2depth": "춘천시"
  },
  {
    "category": "미용업",
    "name": "진미용실",
    "main_item": "커트",
    "price": "10,000",
    "phone": "033-256-8485",
    "address": "강원특별자치도 춘천시 춘주로92번길 11 (온의동)",
    "lat": 37.86103190113,
    "lng": 127.719364224275,
    "region_1depth": "강원특별자치도",
    "region_2depth": "춘천시"
  },
  {
    "category": "미용업",
    "name": "짱미용실",
    "main_item": "커트",
    "price": "10,000",
    "phone": "033-269-7855",
    "address": "강원특별자치도 춘천시 지석로 80 227호 (시너스카펠라 복합빌딩)",
    "lat": 37.8504913627576,
    "lng": 127.743751564575,
    "region_1depth": "강원특별자치도",
    "region_2depth": "춘천시"
  },
  {
    "category": "한식_일반",
    "name": "천하일미 닭갈비",
    "main_item": "닭갈비(300g)",
    "price": "13,000",
    "phone": "033-253-2538",
    "address": "강원특별자치도 춘천시 영서로2279번길 25 (온의동)",
    "lat": 37.8628068929099,
    "lng": 127.720326390422,
    "region_1depth": "강원특별자치도",
    "region_2depth": "춘천시"
  },
  {
    "category": "한식_일반",
    "name": "촌닭곰탕",
    "main_item": "닭곰탕",
    "price": "7,000",
    "phone": "0507-1409-9631",
    "address": "강원특별자치도 춘천시 동내면 영서로 1776",
    "lat": 37.8352490069807,
    "lng": 127.760689284864,
    "region_1depth": "강원특별자치도",
    "region_2depth": "춘천시"
  },
  {
    "category": "한식_육류",
    "name": "춘천뒷고기",
    "main_item": "뒷고기(180g)",
    "price": "13,000",
    "phone": "033-251-0430",
    "address": "강원특별자치도 춘천시 우묵길 52 (퇴계동)",
    "lat": 37.8656528709527,
    "lng": 127.722396160676,
    "region_1depth": "강원특별자치도",
    "region_2depth": "춘천시"
  },
  {
    "category": "일식",
    "name": "춘천민물횟집",
    "main_item": "송어",
    "price": "26,000",
    "phone": "033-252-3383",
    "address": "강원특별자치도 춘천시 효자로 42 (효자동)",
    "lat": 37.8677680218776,
    "lng": 127.728895717992,
    "region_1depth": "강원특별자치도",
    "region_2depth": "춘천시"
  },
  {
    "category": "한식_일반",
    "name": "춘천집",
    "main_item": "냉면",
    "price": "9,000",
    "phone": "033-264-2313",
    "address": "강원특별자치도 춘천시 공지로 61-4 (석사동)",
    "lat": 37.853032438204,
    "lng": 127.750921222382,
    "region_1depth": "강원특별자치도",
    "region_2depth": "춘천시"
  },
  {
    "category": "기타요식업",
    "name": "춘천커피",
    "main_item": "아메리카노",
    "price": "2,000",
    "phone": "033-241-5274",
    "address": "강원특별자치도 춘천시 서부대성로48번길 11-1 (요선동)",
    "lat": 37.8821653047419,
    "lng": 127.727970018015,
    "region_1depth": "강원특별자치도",
    "region_2depth": "춘천시"
  },
  {
    "category": "미용업",
    "name": "큰별미용실",
    "main_item": "커트",
    "price": "5,000",
    "phone": "033-244-5538",
    "address": "강원특별자치도 춘천시 춘천로81번길 38 (약사동)",
    "lat": 37.8733413714153,
    "lng": 127.722242900467,
    "region_1depth": "강원특별자치도",
    "region_2depth": "춘천시"
  },
  {
    "category": "한식_육류",
    "name": "팔도숯불구이",
    "main_item": "생삼겹살(200g)",
    "price": "14,000",
    "phone": "033-242-5885",
    "address": "강원특별자치도 춘천시 춘주로92번길 9-3 (온의동)",
    "lat": 37.8611546164251,
    "lng": 127.719731441747,
    "region_1depth": "강원특별자치도",
    "region_2depth": "춘천시"
  },
  {
    "category": "미용업",
    "name": "펑펑펑미용실",
    "main_item": "커트",
    "price": "7,000",
    "phone": "033-251-2252",
    "address": "강원특별자치도 춘천시 낙원길 50 (중앙로 2가)",
    "lat": 37.8804818562697,
    "lng": 127.726930220315,
    "region_1depth": "강원특별자치도",
    "region_2depth": "춘천시"
  },
  {
    "category": "한식_육류",
    "name": "하나축산 정육식당",
    "main_item": "생오겹살(국내산 200g)",
    "price": "12,000",
    "phone": "033-257-4534",
    "address": "강원특별자치도 춘천시 우묵길56번길 12 (퇴계동) 하나축산 정육식당",
    "lat": 37.8653483519663,
    "lng": 127.723159939753,
    "region_1depth": "강원특별자치도",
    "region_2depth": "춘천시"
  },
  {
    "category": "미용업",
    "name": "하다헤어클리닉",
    "main_item": "컷",
    "price": "12,000",
    "phone": "033-255-1637",
    "address": "강원특별자치도 춘천시 퇴계로105번길 7 (퇴계동) 102호",
    "lat": 37.8621483491186,
    "lng": 127.732281791331,
    "region_1depth": "강원특별자치도",
    "region_2depth": "춘천시"
  },
  {
    "category": "한식_일반",
    "name": "하마집",
    "main_item": "가정식백반",
    "price": "6,000",
    "phone": "033-257-4233",
    "address": "강원특별자치도 춘천시 후석로369번길 2 (후평동)",
    "lat": 37.8835519270005,
    "lng": 127.747393151027,
    "region_1depth": "강원특별자치도",
    "region_2depth": "춘천시"
  },
  {
    "category": "한식_일반",
    "name": "함지박",
    "main_item": "매운주물럭",
    "price": "7,000",
    "phone": "0507-1409-1195",
    "address": "강원특별자치도 춘천시 만천로199번길 30 (후평동)",
    "lat": 37.8857487497596,
    "lng": 127.751892087418,
    "region_1depth": "강원특별자치도",
    "region_2depth": "춘천시"
  },
  {
    "category": "한식_육류",
    "name": "해미담",
    "main_item": "친환경삼겹살(180g)",
    "price": "13,000",
    "phone": "033-241-7376",
    "address": "강원특별자치도 춘천시 효자로24번길 12 (퇴계동)",
    "lat": 37.8659593286983,
    "lng": 127.728164896717,
    "region_1depth": "강원특별자치도",
    "region_2depth": "춘천시"
  },
  {
    "category": "한식_일반",
    "name": "행복한두부",
    "main_item": "두부찌개",
    "price": "8,000",
    "phone": "033-255-7710",
    "address": "강원특별자치도 춘천시 둥지길 4 (효자동)",
    "lat": 37.874746449194,
    "lng": 127.735372273477,
    "region_1depth": "강원특별자치도",
    "region_2depth": "춘천시"
  },
  {
    "category": "미용업",
    "name": "헤어티",
    "main_item": "커트",
    "price": "10,000",
    "phone": "033-244-3478",
    "address": "강원특별자치도 춘천시 후석로 459 104호(후평동, 극동아파트 상가)",
    "lat": 37.8894694953426,
    "lng": 127.740808012375,
    "region_1depth": "강원특별자치도",
    "region_2depth": "춘천시"
  },
  {
    "category": "미용업",
    "name": "현순헤어",
    "main_item": "커트(남성)",
    "price": "10,000",
    "phone": "0507-1302-9763",
    "address": "강원특별자치도 춘천시 공지로 111 (석사동, 석사신우아파트) 상가동 123, 124호",
    "lat": 37.8566455711051,
    "lng": 127.745670677974,
    "region_1depth": "강원특별자치도",
    "region_2depth": "춘천시"
  },
  {
    "category": "미용업",
    "name": "현주헤어숍",
    "main_item": "커트",
    "price": "7,000",
    "phone": "033-262-5535",
    "address": "강원특별자치도 춘천시 효석로89번길 19 (석사동)",
    "lat": 37.8603183053788,
    "lng": 127.740632830673,
    "region_1depth": "강원특별자치도",
    "region_2depth": "춘천시"
  },
  {
    "category": "한식_일반",
    "name": "호반식당",
    "main_item": "김치찌개",
    "price": "7,000",
    "phone": "033-256-0848",
    "address": "강원특별자치도 춘천시 당간지주길 81 (소양로1가)",
    "lat": 37.8925147393794,
    "lng": 127.724462760323,
    "region_1depth": "강원특별자치도",
    "region_2depth": "춘천시"
  },
  {
    "category": "한식_면류",
    "name": "홍두깨장칼국수",
    "main_item": "장칼국수",
    "price": "7,000",
    "phone": "033-255-5954",
    "address": "강원특별자치도 춘천시 춘주로147번길 12-4 (퇴계동)",
    "lat": 37.859415049839,
    "lng": 127.725464078791,
    "region_1depth": "강원특별자치도",
    "region_2depth": "춘천시"
  },
  {
    "category": "미용업",
    "name": "홍혜린머리방",
    "main_item": "커트",
    "price": "10,000",
    "phone": "033-252-1410",
    "address": "강원특별자치도 춘천시 터미널길14번길 3 (온의동)",
    "lat": 37.8647974589568,
    "lng": 127.71869726776,
    "region_1depth": "강원특별자치도",
    "region_2depth": "춘천시"
  },
  {
    "category": "한식_면류",
    "name": "화동손칼국수",
    "main_item": "장칼국수",
    "price": "7,500",
    "phone": "033-251-4819",
    "address": "강원특별자치도 춘천시 춘천로 205-1 (효자동)",
    "lat": 37.8774005990492,
    "lng": 127.736768399399,
    "region_1depth": "강원특별자치도",
    "region_2depth": "춘천시"
  },
  {
    "category": "한식_일반",
    "name": "화롯불",
    "main_item": "제육쌈밥(2인이상)",
    "price": "10,000",
    "phone": "033-243-9289",
    "address": "강원특별자치도 춘천시 충열로 166",
    "lat": 37.907454587231,
    "lng": 127.73985031469,
    "region_1depth": "강원특별자치도",
    "region_2depth": "춘천시"
  },
  {
    "category": "한식_일반",
    "name": "황토집",
    "main_item": "압력돌솥밥",
    "price": "9,000",
    "phone": "033-257-7792",
    "address": "강원특별자치도 춘천시 벌말길 54-1 (석사동)",
    "lat": 37.859382765949,
    "lng": 127.742351389083,
    "region_1depth": "강원특별자치도",
    "region_2depth": "춘천시"
  },
  {
    "category": "한식_일반",
    "name": "3대원주김치만두",
    "main_item": "만두국",
    "price": "6,500",
    "phone": "033-734-5528",
    "address": "강원특별자치도 원주시 행구로 475 (행구동) 1층",
    "lat": 37.3446997231259,
    "lng": 128.008491954914,
    "region_1depth": "강원특별자치도",
    "region_2depth": "원주시"
  },
  {
    "category": "미용업",
    "name": "가위와바리깡",
    "main_item": "성인컷(남성)",
    "price": "9,000",
    "phone": "033-766-4381",
    "address": "강원특별자치도 원주시 한지공원길 28",
    "lat": 37.3300035678376,
    "lng": 127.943253515992,
    "region_1depth": "강원특별자치도",
    "region_2depth": "원주시"
  },
  {
    "category": "한식_면류",
    "name": "강릉장칼국수국밥",
    "main_item": "얼큰굴국밥",
    "price": "7,500",
    "phone": "",
    "address": "강원특별자치도 원주시 동부순환로 313",
    "lat": 37.3434467497945,
    "lng": 127.974890834658,
    "region_1depth": "강원특별자치도",
    "region_2depth": "원주시"
  },
  {
    "category": "한식_육류",
    "name": "고기만세",
    "main_item": "삼겹살(200g)",
    "price": "9,900",
    "phone": "",
    "address": "강원특별자치도 원주시 흥양로18번길 19-33 고기만세",
    "lat": 37.381384503434,
    "lng": 127.949530923337,
    "region_1depth": "강원특별자치도",
    "region_2depth": "원주시"
  },
  {
    "category": "미용업",
    "name": "골목길미용실",
    "main_item": "커트",
    "price": "10,000",
    "phone": "033-743-5640",
    "address": "강원특별자치도 원주시 평원안길 52",
    "lat": 37.3513748145674,
    "lng": 127.951462406698,
    "region_1depth": "강원특별자치도",
    "region_2depth": "원주시"
  },
  {
    "category": "한식_일반",
    "name": "곰식당",
    "main_item": "가정식백반",
    "price": "6,500",
    "phone": "033-763-2271",
    "address": "강원특별자치도 원주시 서원대로 410 109호",
    "lat": 37.3297899345877,
    "lng": 127.950403356989,
    "region_1depth": "강원특별자치도",
    "region_2depth": "원주시"
  },
  {
    "category": "한식_육류",
    "name": "금성식당",
    "main_item": "소갈비찜",
    "price": "21,000",
    "phone": "033-735-7892",
    "address": "강원특별자치도 원주시 중앙로 28 금성식당",
    "lat": 37.3463795948508,
    "lng": 127.954058561852,
    "region_1depth": "강원특별자치도",
    "region_2depth": "원주시"
  },
  {
    "category": "한식_육류",
    "name": "깜황토3겹",
    "main_item": "삼겹살(150g)",
    "price": "9,900",
    "phone": "033-765-2210",
    "address": "강원특별자치도 원주시 치악고교길 49 (관설동) 1층",
    "lat": 37.3159020647866,
    "lng": 127.961493236172,
    "region_1depth": "강원특별자치도",
    "region_2depth": "원주시"
  },
  {
    "category": "한식_일반",
    "name": "꿀맛한식뷔페",
    "main_item": "한식뷔페",
    "price": "7,000",
    "phone": "",
    "address": "강원특별자치도 원주시 지정면 신지정로 205-11",
    "lat": 37.3728335076568,
    "lng": 127.873688994108,
    "region_1depth": "강원특별자치도",
    "region_2depth": "원주시"
  },
  {
    "category": "기타요식업",
    "name": "날으는자전거",
    "main_item": "아메리카노/시골커피",
    "price": "2,500",
    "phone": "0507-1313-6653",
    "address": "강원특별자치도 원주시 판부면 금대길 15-4",
    "lat": 37.2897210000363,
    "lng": 127.99620359588,
    "region_1depth": "강원특별자치도",
    "region_2depth": "원주시"
  },
  {
    "category": "한식_일반",
    "name": "남광한우",
    "main_item": "한우불고기",
    "price": "10,000",
    "phone": "0507-1330-9996",
    "address": "강원특별자치도 원주시 삼광1길 11 (봉산동) 1층",
    "lat": 37.3426868882757,
    "lng": 127.96543814696,
    "region_1depth": "강원특별자치도",
    "region_2depth": "원주시"
  },
  {
    "category": "한식_일반",
    "name": "남애갯마을",
    "main_item": "코다리조림(점심)",
    "price": "10,000",
    "phone": "033-766-7993",
    "address": "강원특별자치도 원주시 봉산로 138 (봉산동) 1층 상가",
    "lat": 37.3425872325624,
    "lng": 127.967831523901,
    "region_1depth": "강원특별자치도",
    "region_2depth": "원주시"
  },
  {
    "category": "한식_육류",
    "name": "남이섬닭갈비",
    "main_item": "닭갈비(200g)",
    "price": "9,900",
    "phone": "033-765-8884",
    "address": "강원특별자치도 원주시 라옹정길 65 남이섬닭갈비",
    "lat": 37.3207378456884,
    "lng": 127.960469663168,
    "region_1depth": "강원특별자치도",
    "region_2depth": "원주시"
  },
  {
    "category": "한식_육류",
    "name": "내고향생고기",
    "main_item": "육회",
    "price": "25,000",
    "phone": "033-731-2323",
    "address": "강원특별자치도 원주시 지정면 신지정로 325-2 내고향생고기",
    "lat": 37.3829400573571,
    "lng": 127.871763250122,
    "region_1depth": "강원특별자치도",
    "region_2depth": "원주시"
  },
  {
    "category": "중식",
    "name": "다래원",
    "main_item": "짜장면",
    "price": "6,000",
    "phone": "033-762-1238",
    "address": "강원특별자치도 원주시 남원로527번길 6-64 (명륜동) 다래원",
    "lat": 37.3340418018435,
    "lng": 127.944004610893,
    "region_1depth": "강원특별자치도",
    "region_2depth": "원주시"
  },
  {
    "category": "기타요식업",
    "name": "단계빵집",
    "main_item": "단팥빵",
    "price": "2,000",
    "phone": "033-731-7765",
    "address": "강원특별자치도 원주시 북원로 2235-12 단계빵집",
    "lat": 37.3456465937541,
    "lng": 127.933213570504,
    "region_1depth": "강원특별자치도",
    "region_2depth": "원주시"
  },
  {
    "category": "한식_일반",
    "name": "대가락",
    "main_item": "수제돈까스",
    "price": "8,500",
    "phone": "033-744-7080",
    "address": "강원특별자치도 원주시 만대로 92 대가락",
    "lat": 37.3381463846398,
    "lng": 127.917784438419,
    "region_1depth": "강원특별자치도",
    "region_2depth": "원주시"
  },
  {
    "category": "한식_면류",
    "name": "대박칼만두",
    "main_item": "만두전골",
    "price": "10,000",
    "phone": "033-733-0945",
    "address": "강원특별자치도 원주시 문막읍 건등로 20-19",
    "lat": 37.3116099013113,
    "lng": 127.819739063741,
    "region_1depth": "강원특별자치도",
    "region_2depth": "원주시"
  },
  {
    "category": "한식_일반",
    "name": "댓기리포차",
    "main_item": "삼겹살 600g",
    "price": "24,000",
    "phone": "033-731-0754",
    "address": "강원특별자치도 원주시 문막읍 건등로 16-15",
    "lat": 37.3115294728549,
    "lng": 127.819161989572,
    "region_1depth": "강원특별자치도",
    "region_2depth": "원주시"
  },
  {
    "category": "이용업",
    "name": "더맨",
    "main_item": "성인컷(남성)",
    "price": "7,000",
    "phone": "033-766-9494",
    "address": "강원특별자치도 원주시 치악고교길 28",
    "lat": 37.315502711512,
    "lng": 127.960254250974,
    "region_1depth": "강원특별자치도",
    "region_2depth": "원주시"
  },
  {
    "category": "기타요식업",
    "name": "더판다관설점",
    "main_item": "아메리카노",
    "price": "3,000",
    "phone": "033-766-7698",
    "address": "강원특별자치도 원주시 치악고교길 24-7 더판다관설점",
    "lat": 37.315042751846,
    "lng": 127.959809916057,
    "region_1depth": "강원특별자치도",
    "region_2depth": "원주시"
  },
  {
    "category": "기타요식업",
    "name": "더판다천매점",
    "main_item": "아메리카노",
    "price": "3,000",
    "phone": "033-761-7698",
    "address": "강원특별자치도 원주시 천매봉길 126-28",
    "lat": 37.3244547138117,
    "lng": 127.943699970925,
    "region_1depth": "강원특별자치도",
    "region_2depth": "원주시"
  },
  {
    "category": "한식_찌개류",
    "name": "돌부대찌개(우산점)",
    "main_item": "부대찌개",
    "price": "9,000",
    "phone": "033-743-0988",
    "address": "강원특별자치도 원주시 상지대길 3 (우산동) 1층",
    "lat": 37.369130376716,
    "lng": 127.940487812002,
    "region_1depth": "강원특별자치도",
    "region_2depth": "원주시"
  },
  {
    "category": "한식_일반",
    "name": "동네밥상",
    "main_item": "요일백반(순두부찌개등)",
    "price": "8,000",
    "phone": "",
    "address": "강원특별자치도 원주시 신림면 치악로 8 동네밥상",
    "lat": 37.2294215045009,
    "lng": 128.082027376852,
    "region_1depth": "강원특별자치도",
    "region_2depth": "원주시"
  },
  {
    "category": "중식",
    "name": "동일각",
    "main_item": "짬뽕",
    "price": "7,000",
    "phone": "033-743-5777",
    "address": "강원특별자치도 원주시 현충로 58",
    "lat": 37.3609846998927,
    "lng": 127.954553282231,
    "region_1depth": "강원특별자치도",
    "region_2depth": "원주시"
  },
  {
    "category": "한식_일반",
    "name": "동태랑코다리랑",
    "main_item": "코다리찜",
    "price": "23,000",
    "phone": "033-743-5999",
    "address": "강원특별자치도 원주시 평원로 37-1 동태랑코다리랑",
    "lat": 37.3496428029584,
    "lng": 127.951924940319,
    "region_1depth": "강원특별자치도",
    "region_2depth": "원주시"
  },
  {
    "category": "한식_일반",
    "name": "땡벌해장국",
    "main_item": "콩나물국밥",
    "price": "6,000",
    "phone": "033-745-3997",
    "address": "강원특별자치도 원주시 나비허리길 50",
    "lat": 37.3237078944514,
    "lng": 127.958069974449,
    "region_1depth": "강원특별자치도",
    "region_2depth": "원주시"
  },
  {
    "category": "숙박업",
    "name": "또아리하우스",
    "main_item": "4인 도미토리",
    "price": "25,000",
    "phone": "0507-1324-3682",
    "address": "강원특별자치도 원주시 판부면 치악로 966",
    "lat": 37.2814222916197,
    "lng": 128.00273694426,
    "region_1depth": "강원특별자치도",
    "region_2depth": "원주시"
  },
  {
    "category": "기타요식업",
    "name": "라띠에르베이커리",
    "main_item": "단팥빵/소보루",
    "price": "1,300",
    "phone": "033-743-3018",
    "address": "강원특별자치도 원주시 우산초교길 37 라띠에르베이커리",
    "lat": 37.367503718188,
    "lng": 127.937378707486,
    "region_1depth": "강원특별자치도",
    "region_2depth": "원주시"
  },
  {
    "category": "미용업",
    "name": "마을미용실",
    "main_item": "커트",
    "price": "9,000",
    "phone": "033-746-6657",
    "address": "강원특별자치도 원주시 우물시장길 28",
    "lat": 37.345085992597,
    "lng": 127.960210495671,
    "region_1depth": "강원특별자치도",
    "region_2depth": "원주시"
  },
  {
    "category": "한식_일반",
    "name": "만복추어탕",
    "main_item": "추어탕",
    "price": "10,000",
    "phone": "033-742-9490",
    "address": "강원특별자치도 원주시 원일로 177-1",
    "lat": 37.3536180812261,
    "lng": 127.945556364586,
    "region_1depth": "강원특별자치도",
    "region_2depth": "원주시"
  },
  {
    "category": "한식_일반",
    "name": "맛깔손",
    "main_item": "백반",
    "price": "7,000",
    "phone": "033-747-8399",
    "address": "강원특별자치도 원주시 원일로 150-2",
    "lat": 37.352094822403,
    "lng": 127.947159892633,
    "region_1depth": "강원특별자치도",
    "region_2depth": "원주시"
  },
  {
    "category": "한식_일반",
    "name": "맛대로부페",
    "main_item": "한식뷔페",
    "price": "8,000",
    "phone": "033-904-8253",
    "address": "강원특별자치도 원주시 도말리길 41",
    "lat": 37.3401917508776,
    "lng": 127.956621985465,
    "region_1depth": "강원특별자치도",
    "region_2depth": "원주시"
  },
  {
    "category": "한식_일반",
    "name": "명가광판원주김밥",
    "main_item": "뽕잎김밥",
    "price": "3,000",
    "phone": "033-731-5066",
    "address": "강원특별자치도 원주시 행구로 71",
    "lat": 37.3419465298701,
    "lng": 127.965052884879,
    "region_1depth": "강원특별자치도",
    "region_2depth": "원주시"
  },
  {
    "category": "한식_일반",
    "name": "명산식당",
    "main_item": "백반",
    "price": "7,000",
    "phone": "033-748-7833",
    "address": "강원특별자치도 원주시 이화1길 41-15",
    "lat": 37.3396602786322,
    "lng": 127.933772098004,
    "region_1depth": "강원특별자치도",
    "region_2depth": "원주시"
  },
  {
    "category": "한식_면류",
    "name": "명품칼국수",
    "main_item": "칼국수",
    "price": "7,000",
    "phone": "033-764-5040",
    "address": "강원특별자치도 원주시 치악로 1827",
    "lat": 37.345522347369,
    "lng": 127.954956748624,
    "region_1depth": "강원특별자치도",
    "region_2depth": "원주시"
  },
  {
    "category": "한식_일반",
    "name": "미식가",
    "main_item": "한우탕",
    "price": "8,800",
    "phone": "033-743-1245",
    "address": "강원특별자치도 원주시 혁신로 39-1 (반곡동) 6층",
    "lat": 37.3242351975616,
    "lng": 127.979119549795,
    "region_1depth": "강원특별자치도",
    "region_2depth": "원주시"
  },
  {
    "category": "한식_일반",
    "name": "민생회관",
    "main_item": "곤드레밥",
    "price": "8,000",
    "phone": "033-742-2837",
    "address": "강원특별자치도 원주시 중앙로 46",
    "lat": 37.3474156106316,
    "lng": 127.95303520016,
    "region_1depth": "강원특별자치도",
    "region_2depth": "원주시"
  },
  {
    "category": "일식",
    "name": "바다별마켓",
    "main_item": "모듬회(대)",
    "price": "45,000",
    "phone": "033-745-0745",
    "address": "강원특별자치도 원주시 반곡길 101",
    "lat": 37.3341147912263,
    "lng": 127.967359135729,
    "region_1depth": "강원특별자치도",
    "region_2depth": "원주시"
  },
  {
    "category": "한식_일반",
    "name": "바다앤육지",
    "main_item": "선지해장국",
    "price": "6,000",
    "phone": "033-766-0091",
    "address": "강원특별자치도 원주시 단구로 358 바다앤육지",
    "lat": 37.3243187409215,
    "lng": 127.957806732612,
    "region_1depth": "강원특별자치도",
    "region_2depth": "원주시"
  },
  {
    "category": "한식_일반",
    "name": "바우식당",
    "main_item": "백반/된장찌개",
    "price": "8,000",
    "phone": "033-763-5838",
    "address": "강원특별자치도 원주시 흥업면 남원로 53 바우식당",
    "lat": 37.3010655243707,
    "lng": 127.919131338507,
    "region_1depth": "강원특별자치도",
    "region_2depth": "원주시"
  },
  {
    "category": "한식_일반",
    "name": "바우집",
    "main_item": "들깨칼국수",
    "price": "6,000",
    "phone": "033-763-7891",
    "address": "강원특별자치도 원주시 단관길 110-9",
    "lat": 37.3197670016057,
    "lng": 127.958126892706,
    "region_1depth": "강원특별자치도",
    "region_2depth": "원주시"
  },
  {
    "category": "한식_일반",
    "name": "밥s프렌즈",
    "main_item": "칼국수",
    "price": "6,000",
    "phone": "033-762-8900",
    "address": "강원특별자치도 원주시 치악고교길 1-12 밥s프렌즈",
    "lat": 37.3162756244727,
    "lng": 127.959027916623,
    "region_1depth": "강원특별자치도",
    "region_2depth": "원주시"
  },
  {
    "category": "한식_면류",
    "name": "배터져국수",
    "main_item": "-",
    "price": "",
    "phone": "033-732-7800",
    "address": "강원특별자치도 원주시 소초면 치악로 2328 배터져국수",
    "lat": 37.3831135782557,
    "lng": 127.975512229806,
    "region_1depth": "강원특별자치도",
    "region_2depth": "원주시"
  },
  {
    "category": "한식_일반",
    "name": "복을복을만두전골",
    "main_item": "만두전골",
    "price": "11,000",
    "phone": "033-732-3553",
    "address": "강원특별자치도 원주시 문막읍 건등로 32",
    "lat": 37.3131661993842,
    "lng": 127.819676434663,
    "region_1depth": "강원특별자치도",
    "region_2depth": "원주시"
  },
  {
    "category": "한식_육류",
    "name": "봄내닭갈비",
    "main_item": "닭갈비(200g)",
    "price": "9,900",
    "phone": "033-747-8884",
    "address": "강원특별자치도 원주시 봄마중길 20",
    "lat": 37.3257914806037,
    "lng": 127.979099014998,
    "region_1depth": "강원특별자치도",
    "region_2depth": "원주시"
  },
  {
    "category": "한식_일반",
    "name": "부론뚝배기감자탕",
    "main_item": "냉면/열무국수",
    "price": "7,000",
    "phone": "033-732-7757",
    "address": "강원특별자치도 원주시 부론면 법천시장길 26 부론뚝배기감자탕",
    "lat": 37.2097684693457,
    "lng": 127.749385925991,
    "region_1depth": "강원특별자치도",
    "region_2depth": "원주시"
  },
  {
    "category": "숙박업",
    "name": "부론장",
    "main_item": "2인실(평일/주말동일)",
    "price": "40,000",
    "phone": "033-732-6132",
    "address": "강원특별자치도 원주시 부론면 법천시장길 70",
    "lat": 37.2066717618303,
    "lng": 127.750091119033,
    "region_1depth": "강원특별자치도",
    "region_2depth": "원주시"
  },
  {
    "category": "한식_육류",
    "name": "불백",
    "main_item": "불백",
    "price": "8,000",
    "phone": "033-742-4175",
    "address": "강원특별자치도 원주시 무실본동길 32 301호",
    "lat": 37.3361125716582,
    "lng": 127.933101352769,
    "region_1depth": "강원특별자치도",
    "region_2depth": "원주시"
  },
  {
    "category": "미용업",
    "name": "블루밍아이래쉬",
    "main_item": "속눈썹연장",
    "price": "33,000",
    "phone": "0507-1353-2531",
    "address": "강원특별자치도 원주시 혁신로 37-2 블루밍아이래쉬",
    "lat": 37.3238032027813,
    "lng": 127.978995708417,
    "region_1depth": "강원특별자치도",
    "region_2depth": "원주시"
  },
  {
    "category": "한식_육류",
    "name": "비원갈비",
    "main_item": "돼지갈비(250g)",
    "price": "10,000",
    "phone": "033-763-9164",
    "address": "강원특별자치도 원주시 흥업면 광터길 89",
    "lat": 37.3381974653834,
    "lng": 127.881772614793,
    "region_1depth": "강원특별자치도",
    "region_2depth": "원주시"
  },
  {
    "category": "중식",
    "name": "산동원",
    "main_item": "짜장면",
    "price": "5,500",
    "phone": "033-742-5188",
    "address": "강원특별자치도 원주시 중앙로 171 산동원",
    "lat": 37.3524412055337,
    "lng": 127.948211959348,
    "region_1depth": "강원특별자치도",
    "region_2depth": "원주시"
  },
  {
    "category": "한식_일반",
    "name": "삼천원국밥",
    "main_item": "콩나물국밥",
    "price": "5,000",
    "phone": "033-761-4166",
    "address": "강원특별자치도 원주시 단구로 378",
    "lat": 37.3228826583967,
    "lng": 127.956645982131,
    "region_1depth": "강원특별자치도",
    "region_2depth": "원주시"
  },
  {
    "category": "미용업",
    "name": "새무지개미용실",
    "main_item": "커트",
    "price": "10,000",
    "phone": "033-744-6520",
    "address": "강원특별자치도 원주시 흥양로86번길 11 (태장동) 새무지개미용실",
    "lat": 37.3826096723032,
    "lng": 127.956595955755,
    "region_1depth": "강원특별자치도",
    "region_2depth": "원주시"
  },
  {
    "category": "한식_일반",
    "name": "서래분식",
    "main_item": "김밥/떡볶이",
    "price": "2,000",
    "phone": "033-742-8289",
    "address": "강원특별자치도 원주시 원문로137번길 50",
    "lat": 37.3527054593483,
    "lng": 127.931475823044,
    "region_1depth": "강원특별자치도",
    "region_2depth": "원주시"
  },
  {
    "category": "한식_면류",
    "name": "석경칼국수",
    "main_item": "칼국수/수제비",
    "price": "7,000",
    "phone": "033-747-1297",
    "address": "강원특별자치도 원주시 석경길 15",
    "lat": 37.3567190984742,
    "lng": 128.007872379968,
    "region_1depth": "강원특별자치도",
    "region_2depth": "원주시"
  },
  {
    "category": "한식_육류",
    "name": "설악숯불갈비",
    "main_item": "돼지갈비(300g)",
    "price": "15,000",
    "phone": "033-748-2510",
    "address": "강원특별자치도 원주시 금불4길 25-3",
    "lat": 37.3490622068177,
    "lng": 127.932673948134,
    "region_1depth": "강원특별자치도",
    "region_2depth": "원주시"
  },
  {
    "category": "기타비요식업",
    "name": "성균관독서실",
    "main_item": "관리형(한달)",
    "price": "150,000",
    "phone": "033-762-0960",
    "address": "강원특별자치도 원주시 남원로 534번길 20",
    "lat": 37.3303885713712,
    "lng": 127.948684136563,
    "region_1depth": "강원특별자치도",
    "region_2depth": "원주시"
  },
  {
    "category": "한식_일반",
    "name": "성원순대",
    "main_item": "순대국밥",
    "price": "8,000",
    "phone": "033-766-7080",
    "address": "강원특별자치도 원주시 흥업면 남원로 67",
    "lat": 37.3021621038682,
    "lng": 127.919460493218,
    "region_1depth": "강원특별자치도",
    "region_2depth": "원주시"
  },
  {
    "category": "한식_면류",
    "name": "세화네국수집",
    "main_item": "잔치국수",
    "price": "5,000",
    "phone": "010-8793-0093",
    "address": "강원특별자치도 원주시 개운2길 5 (개운동) 1층",
    "lat": 37.3407487161966,
    "lng": 127.95826227344,
    "region_1depth": "강원특별자치도",
    "region_2depth": "원주시"
  },
  {
    "category": "한식_일반",
    "name": "소초장터추어탕",
    "main_item": "추어탕",
    "price": "11,000",
    "phone": "033-763-0307",
    "address": "강원특별자치도 원주시 금불3길 17-2",
    "lat": 37.349252391954,
    "lng": 127.931715531107,
    "region_1depth": "강원특별자치도",
    "region_2depth": "원주시"
  },
  {
    "category": "한식_일반",
    "name": "수미감자탕",
    "main_item": "우거지뼈해장국",
    "price": "8,000",
    "phone": "033-743-4858",
    "address": "강원특별자치도 원주시 만대공원길 21 수미감자탕",
    "lat": 37.3376759578669,
    "lng": 127.927375691123,
    "region_1depth": "강원특별자치도",
    "region_2depth": "원주시"
  },
  {
    "category": "한식_일반",
    "name": "순대고",
    "main_item": "순대국밥2인분",
    "price": "10,000",
    "phone": "033-745-2989",
    "address": "강원특별자치도 원주시 중앙로 137",
    "lat": 37.3508202396385,
    "lng": 127.949355735075,
    "region_1depth": "강원특별자치도",
    "region_2depth": "원주시"
  },
  {
    "category": "이용업",
    "name": "신사바버샵",
    "main_item": "모히칸컷",
    "price": "15,000",
    "phone": "0507-1391-8978",
    "address": "강원특별자치도 원주시 남산로 192",
    "lat": 37.3531211750697,
    "lng": 127.941343771854,
    "region_1depth": "강원특별자치도",
    "region_2depth": "원주시"
  },
  {
    "category": "한식_일반",
    "name": "신장터국밥",
    "main_item": "뼈다귀해장국",
    "price": "7,500",
    "phone": "033-743-7779",
    "address": "강원특별자치도 원주시 평원로 73 신장터국밥",
    "lat": 37.3518082812694,
    "lng": 127.949859582748,
    "region_1depth": "강원특별자치도",
    "region_2depth": "원주시"
  },
  {
    "category": "미용업",
    "name": "안녕예쁜아&아카데미",
    "main_item": "케라틴펌",
    "price": "30,000",
    "phone": "",
    "address": "강원특별자치도 원주시 능라동길 42 프라임시티 2층 203호",
    "lat": 37.3338314741761,
    "lng": 127.929225425066,
    "region_1depth": "강원특별자치도",
    "region_2depth": "원주시"
  },
  {
    "category": "한식_일반",
    "name": "안채",
    "main_item": "-",
    "price": "",
    "phone": "033-734-6668",
    "address": "강원특별자치도 원주시 원일로 254 (학성동) 안채",
    "lat": 37.3583324562997,
    "lng": 127.942745045247,
    "region_1depth": "강원특별자치도",
    "region_2depth": "원주시"
  },
  {
    "category": "기타요식업",
    "name": "암스퀘어커피로스터스",
    "main_item": "에스프레소",
    "price": "1,800",
    "phone": "0507-1336-5240",
    "address": "강원특별자치도 원주시 천사로 172 101호",
    "lat": 37.349695345583,
    "lng": 127.943353234757,
    "region_1depth": "강원특별자치도",
    "region_2depth": "원주시"
  },
  {
    "category": "한식_일반",
    "name": "어머니손칼만두집",
    "main_item": "손칼국수",
    "price": "5,000",
    "phone": "033-742-6989",
    "address": "강원특별자치도 원주시 중앙시장길 6",
    "lat": 37.3500134496197,
    "lng": 127.94919208538,
    "region_1depth": "강원특별자치도",
    "region_2depth": "원주시"
  },
  {
    "category": "중식",
    "name": "연강춘",
    "main_item": "짜장면",
    "price": "6,000",
    "phone": "033-742-3163",
    "address": "강원특별자치도 원주시 원일로 148-7",
    "lat": 37.3521867064917,
    "lng": 127.947612049287,
    "region_1depth": "강원특별자치도",
    "region_2depth": "원주시"
  },
  {
    "category": "미용업",
    "name": "예원헤어샵",
    "main_item": "커트(어르신)",
    "price": "8,000",
    "phone": "0507-1339-3560",
    "address": "강원특별자치도 원주시 반곡길 46 예원헤어샵",
    "lat": 37.3386964224925,
    "lng": 127.965542786055,
    "region_1depth": "강원특별자치도",
    "region_2depth": "원주시"
  },
  {
    "category": "기타요식업",
    "name": "예인로스팅",
    "main_item": "아메리카노",
    "price": "2,500",
    "phone": "033-766-4064",
    "address": "강원특별자치도 원주시 서원대로 383 122호",
    "lat": 37.3319941887022,
    "lng": 127.948567122909,
    "region_1depth": "강원특별자치도",
    "region_2depth": "원주시"
  },
  {
    "category": "한식_일반",
    "name": "옛골만두",
    "main_item": "만두전골",
    "price": "11,000",
    "phone": "033-734-5234",
    "address": "강원특별자치도 원주시 문막읍 동화택지길 3-7",
    "lat": 37.3239027352899,
    "lng": 127.830257063783,
    "region_1depth": "강원특별자치도",
    "region_2depth": "원주시"
  },
  {
    "category": "중식",
    "name": "와와반점",
    "main_item": "짜장면",
    "price": "6,000",
    "phone": "033-743-6191",
    "address": "강원특별자치도 원주시 현충로 58번길 42",
    "lat": 37.3618480211993,
    "lng": 127.959065332899,
    "region_1depth": "강원특별자치도",
    "region_2depth": "원주시"
  },
  {
    "category": "한식_일반",
    "name": "원주김치만두",
    "main_item": "만두국",
    "price": "6,500",
    "phone": "0507-1394-3848",
    "address": "강원특별자치도 원주시 중앙시장길 31-2 (중앙동) 1층",
    "lat": 37.3511311255102,
    "lng": 127.949788186435,
    "region_1depth": "강원특별자치도",
    "region_2depth": "원주시"
  },
  {
    "category": "한식_일반",
    "name": "원주식당",
    "main_item": "가정식백반",
    "price": "8,000",
    "phone": "033-748-4999",
    "address": "강원특별자치도 원주시 섬밭들 1길 30-3",
    "lat": 37.3326747888876,
    "lng": 127.923019277425,
    "region_1depth": "강원특별자치도",
    "region_2depth": "원주시"
  },
  {
    "category": "미용업",
    "name": "인코스헤어샵",
    "main_item": "커트",
    "price": "8,000",
    "phone": "033-747-9669",
    "address": "강원특별자치도 원주시 현충로 1",
    "lat": 37.3560878974036,
    "lng": 127.955812509067,
    "region_1depth": "강원특별자치도",
    "region_2depth": "원주시"
  },
  {
    "category": "기타비요식업",
    "name": "일산동양복점",
    "main_item": "자켓대여",
    "price": "30,000",
    "phone": "0507-1342-5847",
    "address": "강원특별자치도 원주시 천사로 145 일산동양복점",
    "lat": 37.3490523150008,
    "lng": 127.940738489918,
    "region_1depth": "강원특별자치도",
    "region_2depth": "원주시"
  },
  {
    "category": "한식_일반",
    "name": "정담콩나물 국밥혁신점",
    "main_item": "콩나물국밥",
    "price": "6,000",
    "phone": "",
    "address": "강원특별자치도 원주시 건강로 25",
    "lat": 37.3250071493543,
    "lng": 127.988063634258,
    "region_1depth": "강원특별자치도",
    "region_2depth": "원주시"
  },
  {
    "category": "이용업",
    "name": "젠틀맨",
    "main_item": "커트",
    "price": "8,000",
    "phone": "033-734-6660",
    "address": "강원특별자치도 원주시 평원로 60 2층",
    "lat": 37.3510885547746,
    "lng": 127.951015924301,
    "region_1depth": "강원특별자치도",
    "region_2depth": "원주시"
  },
  {
    "category": "기타요식업",
    "name": "주가람베이커리",
    "main_item": "아메리카노",
    "price": "3,000",
    "phone": "",
    "address": "강원특별자치도 원주시 판부면 매봉길 3 주가람베이커리",
    "lat": 37.3218218888985,
    "lng": 127.941812995264,
    "region_1depth": "강원특별자치도",
    "region_2depth": "원주시"
  },
  {
    "category": "한식_육류",
    "name": "중원갈비",
    "main_item": "돼지갈비(250g)",
    "price": "13,000",
    "phone": "033-745-2311",
    "address": "강원특별자치도 원주시 중앙로 201-5 중원갈비",
    "lat": 37.3536559683927,
    "lng": 127.946958517886,
    "region_1depth": "강원특별자치도",
    "region_2depth": "원주시"
  },
  {
    "category": "한식_일반",
    "name": "지가네전주식백반",
    "main_item": "전주식백반",
    "price": "8,000",
    "phone": "033-746-2409",
    "address": "강원특별자치도 원주시 감영길 53-6",
    "lat": 37.3489800398617,
    "lng": 127.952181225194,
    "region_1depth": "강원특별자치도",
    "region_2depth": "원주시"
  },
  {
    "category": "한식_일반",
    "name": "진미본가",
    "main_item": "뚝배기비빔밥",
    "price": "7,000",
    "phone": "033-744-3321",
    "address": "강원특별자치도 원주시 중앙로 46-4",
    "lat": 37.3473613326373,
    "lng": 127.953352994046,
    "region_1depth": "강원특별자치도",
    "region_2depth": "원주시"
  },
  {
    "category": "미용업",
    "name": "진헤어",
    "main_item": "커트",
    "price": "10,000",
    "phone": "033-744-3572",
    "address": "강원특별자치도 원주시 현충로 234-13 상록프라자",
    "lat": 37.3744134399031,
    "lng": 127.952365592685,
    "region_1depth": "강원특별자치도",
    "region_2depth": "원주시"
  },
  {
    "category": "중식",
    "name": "차이나먹거리",
    "main_item": "짜장면",
    "price": "5,000",
    "phone": "033-766-4641",
    "address": "강원특별자치도 원주시 소방서길 44",
    "lat": 37.3285375551175,
    "lng": 127.943716286083,
    "region_1depth": "강원특별자치도",
    "region_2depth": "원주시"
  },
  {
    "category": "중식",
    "name": "찰로원",
    "main_item": "짜장면",
    "price": "5,000",
    "phone": "033-764-7557",
    "address": "강원특별자치도 원주시 남원로 637-16 찰로원",
    "lat": 37.3398473331172,
    "lng": 127.952352080697,
    "region_1depth": "강원특별자치도",
    "region_2depth": "원주시"
  },
  {
    "category": "한식_일반",
    "name": "청솔보리밥",
    "main_item": "보리밥",
    "price": "11,000",
    "phone": "033-762-5298",
    "address": "강원특별자치도 원주시 판부면 용수골길 185 청솔보리밥",
    "lat": 37.2961403267161,
    "lng": 127.940069300302,
    "region_1depth": "강원특별자치도",
    "region_2depth": "원주시"
  },
  {
    "category": "미용업",
    "name": "청솔헤어테크",
    "main_item": "컷트",
    "price": "5,000",
    "phone": "033-748-2878",
    "address": "강원특별자치도 원주시 나비허리길 190",
    "lat": 37.3173220806558,
    "lng": 127.966608468524,
    "region_1depth": "강원특별자치도",
    "region_2depth": "원주시"
  },
  {
    "category": "한식_육류",
    "name": "청송통닭",
    "main_item": "후라이드(2box)",
    "price": "20,000",
    "phone": "033-761-5834",
    "address": "강원특별자치도 원주시 단구로 239",
    "lat": 37.3326444982945,
    "lng": 127.953513823835,
    "region_1depth": "강원특별자치도",
    "region_2depth": "원주시"
  },
  {
    "category": "기타요식업",
    "name": "청은찻집",
    "main_item": "커피",
    "price": "2,000",
    "phone": "070-7322-6692",
    "address": "강원특별자치도 원주시 중앙로 147",
    "lat": 37.351295217475,
    "lng": 127.949100892466,
    "region_1depth": "강원특별자치도",
    "region_2depth": "원주시"
  },
  {
    "category": "한식_일반",
    "name": "총각순대",
    "main_item": "순대국밥",
    "price": "9,000",
    "phone": "033-748-3822",
    "address": "강원특별자치도 원주시 삼광2길 11-20 (봉산동) 총각순대",
    "lat": 37.3422658084456,
    "lng": 127.965565014303,
    "region_1depth": "강원특별자치도",
    "region_2depth": "원주시"
  },
  {
    "category": "한식_육류",
    "name": "치악산한우타운",
    "main_item": "한우국밥",
    "price": "7,000",
    "phone": "033-766-8686",
    "address": "강원특별자치도 원주시 무실밤골길 29-3 치악산한우타운",
    "lat": 37.3284877686911,
    "lng": 127.923513124007,
    "region_1depth": "강원특별자치도",
    "region_2depth": "원주시"
  },
  {
    "category": "한식_육류",
    "name": "치악한우암소머리곰탕",
    "main_item": "소머리곰탕",
    "price": "8,000",
    "phone": "033-764-4800",
    "address": "강원특별자치도 원주시 도말리길 35 치악한우암소머리곰탕",
    "lat": 37.339901082973,
    "lng": 127.956645042683,
    "region_1depth": "강원특별자치도",
    "region_2depth": "원주시"
  },
  {
    "category": "한식_일반",
    "name": "친정밥집",
    "main_item": "백반",
    "price": "8,000",
    "phone": "",
    "address": "강원특별자치도 원주시 치악로 1964 친정밥집",
    "lat": 37.3558625139035,
    "lng": 127.956297357137,
    "region_1depth": "강원특별자치도",
    "region_2depth": "원주시"
  },
  {
    "category": "기타요식업",
    "name": "카페셜리",
    "main_item": "아메리카노",
    "price": "3,000",
    "phone": "070-7371-0901",
    "address": "강원특별자치도 원주시 문막읍 원문로 1640 카페셜리",
    "lat": 37.3184869283715,
    "lng": 127.830222416703,
    "region_1depth": "강원특별자치도",
    "region_2depth": "원주시"
  },
  {
    "category": "기타요식업",
    "name": "카페하임",
    "main_item": "아메리카노",
    "price": "3,000",
    "phone": "0507-1480-0199",
    "address": "강원특별자치도 원주시 북원로 2718번길 18 카페하임",
    "lat": 37.3857546838724,
    "lng": 127.949551709632,
    "region_1depth": "강원특별자치도",
    "region_2depth": "원주시"
  },
  {
    "category": "한식_일반",
    "name": "커피랑짜글이랑",
    "main_item": "돼지짜글이",
    "price": "8,000",
    "phone": "",
    "address": "강원특별자치도 원주시 옛시청길 1-19",
    "lat": 37.3521064846638,
    "lng": 127.946231851488,
    "region_1depth": "강원특별자치도",
    "region_2depth": "원주시"
  },
  {
    "category": "양식",
    "name": "타메카츠",
    "main_item": "카레돈까스",
    "price": "9,000",
    "phone": "033-731-8910",
    "address": "강원특별자치도 원주시 만대공원길 8-9 (무실동) 1층 101호",
    "lat": 37.3375207120932,
    "lng": 127.92911007613,
    "region_1depth": "강원특별자치도",
    "region_2depth": "원주시"
  },
  {
    "category": "중식",
    "name": "태장반점",
    "main_item": "짜장면",
    "price": "6,000",
    "phone": "033-731-0778",
    "address": "강원특별자치도 원주시 흥양로 18번길 19-47",
    "lat": 37.3823035747067,
    "lng": 127.952179039274,
    "region_1depth": "강원특별자치도",
    "region_2depth": "원주시"
  },
  {
    "category": "기타요식업",
    "name": "파이앤버터",
    "main_item": "아메리카노",
    "price": "2,000",
    "phone": "0507-1324-9830",
    "address": "강원특별자치도 원주시 한지공원길 188 파이앤버터",
    "lat": 37.3373948519613,
    "lng": 127.933321120738,
    "region_1depth": "강원특별자치도",
    "region_2depth": "원주시"
  },
  {
    "category": "기타요식업",
    "name": "포레스트커피",
    "main_item": "아메리카노",
    "price": "3,000",
    "phone": "033-904-7325",
    "address": "강원특별자치도 원주시 송림길 18-2 (개운동) 포레스트커피",
    "lat": 37.3337956273049,
    "lng": 127.94992812166,
    "region_1depth": "강원특별자치도",
    "region_2depth": "원주시"
  },
  {
    "category": "양식",
    "name": "필돈까스",
    "main_item": "등심돈까스",
    "price": "8,000",
    "phone": "033-762-2229",
    "address": "강원특별자치도 원주시 흥업면 남원로 67",
    "lat": 37.3021621038682,
    "lng": 127.919460493218,
    "region_1depth": "강원특별자치도",
    "region_2depth": "원주시"
  },
  {
    "category": "세탁업",
    "name": "하우스세탁소",
    "main_item": "양복상하의",
    "price": "4,000",
    "phone": "033-763-7877",
    "address": "강원특별자치도 원주시 늘품로 13",
    "lat": 37.3213844759554,
    "lng": 127.949464786552,
    "region_1depth": "강원특별자치도",
    "region_2depth": "원주시"
  },
  {
    "category": "한식_분식",
    "name": "학교앞분식집",
    "main_item": "떡볶이",
    "price": "3,000",
    "phone": "010-8619-2028",
    "address": "강원특별자치도 원주시 남원로 441-15 (명륜동) 1층 108호",
    "lat": 37.3261467068538,
    "lng": 127.939453771993,
    "region_1depth": "강원특별자치도",
    "region_2depth": "원주시"
  },
  {
    "category": "한식_일반",
    "name": "한식뷔페 원미",
    "main_item": "한식뷔페",
    "price": "8,000",
    "phone": "033-761-2700",
    "address": "강원특별자치도 원주시 단관길 67-30",
    "lat": 37.3235743526852,
    "lng": 127.956991745807,
    "region_1depth": "강원특별자치도",
    "region_2depth": "원주시"
  },
  {
    "category": "한식_일반",
    "name": "한식뷔페식도락",
    "main_item": "오전식사",
    "price": "7,000",
    "phone": "033-745-8500",
    "address": "강원특별자치도 원주시 행가리1길 40 (무실동) 한식뷔페식도락",
    "lat": 37.3209689466362,
    "lng": 127.916707259462,
    "region_1depth": "강원특별자치도",
    "region_2depth": "원주시"
  },
  {
    "category": "한식_일반",
    "name": "할머니밥집",
    "main_item": "백반",
    "price": "7,000",
    "phone": "033-746-0712",
    "address": "강원특별자치도 원주시 중앙시장길 31-4 할머니밥집",
    "lat": 37.3509730540847,
    "lng": 127.950005936341,
    "region_1depth": "강원특별자치도",
    "region_2depth": "원주시"
  },
  {
    "category": "한식_일반",
    "name": "행운식당",
    "main_item": "가정식백반",
    "price": "7,000",
    "phone": "033-766-4282",
    "address": "강원특별자치도 원주시 흥업면 남원로 76",
    "lat": 37.3028317498098,
    "lng": 127.920315810659,
    "region_1depth": "강원특별자치도",
    "region_2depth": "원주시"
  },
  {
    "category": "한식_면류",
    "name": "형제칼국수",
    "main_item": "칼국수",
    "price": "5,000",
    "phone": "033-746-8910",
    "address": "강원특별자치도 원주시 우산로 104",
    "lat": 37.3720567271737,
    "lng": 127.937592622229,
    "region_1depth": "강원특별자치도",
    "region_2depth": "원주시"
  },
  {
    "category": "한식_일반",
    "name": "황골보리밥",
    "main_item": "보리밥",
    "price": "11,000",
    "phone": "033-748-2955",
    "address": "강원특별자치도 원주시 운곡로 191 황골보리밥",
    "lat": 37.3539411562869,
    "lng": 128.004473196836,
    "region_1depth": "강원특별자치도",
    "region_2depth": "원주시"
  },
  {
    "category": "한식_일반",
    "name": "횡성떡집",
    "main_item": "인절미한팩",
    "price": "2,500",
    "phone": "",
    "address": "강원특별자치도 원주시 치악로 1803 1층 13호 남부시장",
    "lat": 37.3431148494038,
    "lng": 127.954481066863,
    "region_1depth": "강원특별자치도",
    "region_2depth": "원주시"
  },
  {
    "category": "미용업",
    "name": "강남미용실",
    "main_item": "여성커트",
    "price": "10,000",
    "phone": "033-641-5620",
    "address": "강원특별자치도 강릉시 토성로 92",
    "lat": 37.7522820064184,
    "lng": 128.887555312494,
    "region_1depth": "강원특별자치도",
    "region_2depth": "강릉시"
  },
  {
    "category": "한식_일반",
    "name": "강릉대 학사식당",
    "main_item": "김치찌개",
    "price": "6,500",
    "phone": "033-648-1135",
    "address": "강원특별자치도 강릉시 지변길 10 (지변동)",
    "lat": 37.773412465905,
    "lng": 128.873774523916,
    "region_1depth": "강원특별자치도",
    "region_2depth": "강릉시"
  },
  {
    "category": "중식",
    "name": "강릉반점",
    "main_item": "자장면",
    "price": "5,000",
    "phone": "033-653-2457",
    "address": "강원특별자치도 강릉시 강변로470번길 19 (입암동) 강릉반점",
    "lat": 37.7631896549323,
    "lng": 128.914520835956,
    "region_1depth": "강원특별자치도",
    "region_2depth": "강릉시"
  },
  {
    "category": "한식_일반",
    "name": "강릉식당",
    "main_item": "야채비빔밥",
    "price": "4,000",
    "phone": "",
    "address": "강원특별자치도 강릉시 금성로23번길 4-10 (성남동)",
    "lat": 37.7535994823339,
    "lng": 128.897806671564,
    "region_1depth": "강원특별자치도",
    "region_2depth": "강릉시"
  },
  {
    "category": "이용업",
    "name": "강중이용소",
    "main_item": "커트",
    "price": "10,000",
    "phone": "",
    "address": "강원특별자치도 강릉시 강중길 20",
    "lat": 37.7532104298346,
    "lng": 128.906977306533,
    "region_1depth": "강원특별자치도",
    "region_2depth": "강릉시"
  },
  {
    "category": "세탁업",
    "name": "경남세탁소",
    "main_item": "정장한벌",
    "price": "5,000",
    "phone": "033-534-0701",
    "address": "강원특별자치도 강릉시 옥계면 현내시장길 62-2",
    "lat": 37.610148698141,
    "lng": 129.035949596481,
    "region_1depth": "강원특별자치도",
    "region_2depth": "강릉시"
  },
  {
    "category": "세탁업",
    "name": "고려퍼크로세탁소",
    "main_item": "정장한벌",
    "price": "8,000",
    "phone": "033-651-3249",
    "address": "강원특별자치도 강릉시 경강로2323번길 9 (포남동)",
    "lat": 37.7692043236125,
    "lng": 128.914529446605,
    "region_1depth": "강원특별자치도",
    "region_2depth": "강릉시"
  },
  {
    "category": "미용업",
    "name": "고은아미용실",
    "main_item": "파마",
    "price": "15,000",
    "phone": "033-647-2732",
    "address": "강원특별자치도 강릉시 강릉대로159번안길 12 (교동)",
    "lat": 37.7577286247704,
    "lng": 128.889093563288,
    "region_1depth": "강원특별자치도",
    "region_2depth": "강릉시"
  },
  {
    "category": "기타요식업",
    "name": "공대카페2호점",
    "main_item": "아메리카노",
    "price": "2,000",
    "phone": "",
    "address": "강원특별자치도 강릉시 지변길 16 (지변동)",
    "lat": 37.7733155572545,
    "lng": 128.873235045834,
    "region_1depth": "강원특별자치도",
    "region_2depth": "강릉시"
  },
  {
    "category": "미용업",
    "name": "금빗미용실",
    "main_item": "파마",
    "price": "15,000",
    "phone": "033-643-4590",
    "address": "강원특별자치도 강릉시 중앙시장2길 56 (성남동)",
    "lat": 37.7536306816805,
    "lng": 128.900755355214,
    "region_1depth": "강원특별자치도",
    "region_2depth": "강릉시"
  },
  {
    "category": "미용업",
    "name": "까꼬뽀꼬미용실",
    "main_item": "파마",
    "price": "17,000",
    "phone": "033-645-1285",
    "address": "강원특별자치도 강릉시 율곡로 2798 (성남동)",
    "lat": 37.7547168848008,
    "lng": 128.901008599345,
    "region_1depth": "강원특별자치도",
    "region_2depth": "강릉시"
  },
  {
    "category": "한식_일반",
    "name": "꺽다리아줌마해장국",
    "main_item": "갈비탕",
    "price": "6,000",
    "phone": "033-641-6559",
    "address": "강원특별자치도 강릉시 하슬라로206번길 7-1 (교동)",
    "lat": 37.768109409157,
    "lng": 128.876415846982,
    "region_1depth": "강원특별자치도",
    "region_2depth": "강릉시"
  },
  {
    "category": "한식_일반",
    "name": "남매식당",
    "main_item": "김치찌개",
    "price": "7,000",
    "phone": "033-642-7113",
    "address": "강원특별자치도 강릉시 경강로2234번길 6 (포남동)",
    "lat": 37.7630483036567,
    "lng": 128.907652187788,
    "region_1depth": "강원특별자치도",
    "region_2depth": "강릉시"
  },
  {
    "category": "세탁업",
    "name": "뉴베스트세탁",
    "main_item": "정장한벌",
    "price": "8,000",
    "phone": "033-642-5840",
    "address": "강원특별자치도 강릉시 홍제로 41 (홍제동)",
    "lat": 37.7519303134799,
    "lng": 128.885991682133,
    "region_1depth": "강원특별자치도",
    "region_2depth": "강릉시"
  },
  {
    "category": "한식_육류",
    "name": "대형생삼겹생선구이",
    "main_item": "삼겹살200g",
    "price": "9,000",
    "phone": "033-651-7060",
    "address": "강원특별자치도 강릉시 성덕포남로 103 (입암동)",
    "lat": 37.7627958797176,
    "lng": 128.915037421845,
    "region_1depth": "강원특별자치도",
    "region_2depth": "강릉시"
  },
  {
    "category": "한식_일반",
    "name": "도리",
    "main_item": "김치찌개",
    "price": "6,500",
    "phone": "033-641-1231",
    "address": "강원특별자치도 강릉시 지변길 16 (지변동)",
    "lat": 37.7733155572545,
    "lng": 128.873235045834,
    "region_1depth": "강원특별자치도",
    "region_2depth": "강릉시"
  },
  {
    "category": "일식",
    "name": "독도야",
    "main_item": "물회",
    "price": "15,000",
    "phone": "",
    "address": "강원특별자치도 강릉시 창해로 451 (강문동)",
    "lat": 37.8013740066082,
    "lng": 128.911344768641,
    "region_1depth": "강원특별자치도",
    "region_2depth": "강릉시"
  },
  {
    "category": "한식_일반",
    "name": "돈까스보이",
    "main_item": "돈까스",
    "price": "7,000",
    "phone": "033-655-2332",
    "address": "강원특별자치도 강릉시 교동 1834-5",
    "lat": 37.7673950895542,
    "lng": 128.876548493377,
    "region_1depth": "강원특별자치도",
    "region_2depth": "강릉시"
  },
  {
    "category": "한식_육류",
    "name": "동산숯불구이",
    "main_item": "삼겹살(냉동)200g",
    "price": "10,000",
    "phone": "033-646-2239",
    "address": "강원특별자치도 강릉시 율곡로2968번길 25 (교동)",
    "lat": 37.7688241142537,
    "lng": 128.893554529406,
    "region_1depth": "강원특별자치도",
    "region_2depth": "강릉시"
  },
  {
    "category": "한식_일반",
    "name": "뒷골",
    "main_item": "된장찌개",
    "price": "7,000",
    "phone": "033-647-5100",
    "address": "강원특별자치도 강릉시 사임당로61번길 18 (홍제동)",
    "lat": 37.7516656024878,
    "lng": 128.860097881283,
    "region_1depth": "강원특별자치도",
    "region_2depth": "강릉시"
  },
  {
    "category": "미용업",
    "name": "레이디미용실",
    "main_item": "파마",
    "price": "20,000",
    "phone": "033-653-3341",
    "address": "강원특별자치도 강릉시 강변로 508 (입암동)",
    "lat": 37.7638921027252,
    "lng": 128.914832847743,
    "region_1depth": "강원특별자치도",
    "region_2depth": "강릉시"
  },
  {
    "category": "세탁업",
    "name": "레인보우크리닝",
    "main_item": "정장한벌",
    "price": "5,000",
    "phone": "033-641-3354",
    "address": "강원특별자치도 강릉시 하슬라로232번길 21-9 (교동)",
    "lat": 37.7711679669071,
    "lng": 128.878178543582,
    "region_1depth": "강원특별자치도",
    "region_2depth": "강릉시"
  },
  {
    "category": "기타요식업",
    "name": "로그엠",
    "main_item": "에스프레소",
    "price": "3,000",
    "phone": "033-646-5045",
    "address": "강원특별자치도 강릉시 화부산로 35-2",
    "lat": 37.7601746320205,
    "lng": 128.885587869525,
    "region_1depth": "강원특별자치도",
    "region_2depth": "강릉시"
  },
  {
    "category": "한식_일반",
    "name": "모모김밥",
    "main_item": "김밥",
    "price": "2,500",
    "phone": "033-653-0808",
    "address": "강원특별자치도 강릉시 성덕포남로 174번길 35",
    "lat": 37.7693547703401,
    "lng": 128.912760047582,
    "region_1depth": "강원특별자치도",
    "region_2depth": "강릉시"
  },
  {
    "category": "한식_면류",
    "name": "병산감자옹심이",
    "main_item": "칼국수",
    "price": "4,000",
    "phone": "033-652-0785",
    "address": "강원특별자치도 강릉시 공항길43번길 1 (병산동)",
    "lat": 37.7631186109563,
    "lng": 128.94076311484,
    "region_1depth": "강원특별자치도",
    "region_2depth": "강릉시"
  },
  {
    "category": "한식_일반",
    "name": "보글이식당",
    "main_item": "김치찌개",
    "price": "6,000",
    "phone": "033-642-2979",
    "address": "강원특별자치도 강릉시 경강로2246번길 3",
    "lat": 37.7640797736148,
    "lng": 128.908458147402,
    "region_1depth": "강원특별자치도",
    "region_2depth": "강릉시"
  },
  {
    "category": "한식_일반",
    "name": "빨강돈가스",
    "main_item": "돈가스",
    "price": "6,900",
    "phone": "",
    "address": "강원특별자치도 강릉시 지변길 49",
    "lat": 37.771988841535,
    "lng": 128.870210263323,
    "region_1depth": "강원특별자치도",
    "region_2depth": "강릉시"
  },
  {
    "category": "한식_일반",
    "name": "산두꺼비",
    "main_item": "오징어볶음",
    "price": "10,000",
    "phone": "033-645-7371",
    "address": "강원특별자치도 강릉시 남구길18번길 36",
    "lat": 37.7668824027026,
    "lng": 128.908712214005,
    "region_1depth": "강원특별자치도",
    "region_2depth": "강릉시"
  },
  {
    "category": "미용업",
    "name": "새한미용실",
    "main_item": "파마",
    "price": "15,000",
    "phone": "033-642-9781",
    "address": "강원특별자치도 강릉시 중앙시장3길 37-2 (성남동)",
    "lat": 37.7525839184239,
    "lng": 128.898625752179,
    "region_1depth": "강원특별자치도",
    "region_2depth": "강릉시"
  },
  {
    "category": "미용업",
    "name": "서연헤어",
    "main_item": "염색",
    "price": "18,000",
    "phone": "033-645-6546",
    "address": "강원특별자치도 강릉시 임영로 162 (임당동) 서연헤어",
    "lat": 37.7556632175258,
    "lng": 128.891813584658,
    "region_1depth": "강원특별자치도",
    "region_2depth": "강릉시"
  },
  {
    "category": "미용업",
    "name": "성규미용실",
    "main_item": "파마",
    "price": "20,000",
    "phone": "033-641-0178",
    "address": "강원특별자치도 강릉시 중앙시장2길 43-1 (성남동)",
    "lat": 37.7534010511121,
    "lng": 128.899521291151,
    "region_1depth": "강원특별자치도",
    "region_2depth": "강릉시"
  },
  {
    "category": "한식_면류",
    "name": "성남칼국수",
    "main_item": "칼국수",
    "price": "3,000",
    "phone": "033-643-1632",
    "address": "강원특별자치도 강릉시 중앙시장1길 10 (성남동)",
    "lat": 37.7532859465181,
    "lng": 128.89879334905,
    "region_1depth": "강원특별자치도",
    "region_2depth": "강릉시"
  },
  {
    "category": "미용업",
    "name": "성미용실",
    "main_item": "파마",
    "price": "20,000",
    "phone": "033-646-0777",
    "address": "강원특별자치도 강릉시 금성로 21 (성남동)",
    "lat": 37.7540166632039,
    "lng": 128.898611774099,
    "region_1depth": "강원특별자치도",
    "region_2depth": "강릉시"
  },
  {
    "category": "이용업",
    "name": "성심이용소",
    "main_item": "이용료",
    "price": "10,000",
    "phone": "033-645-2856",
    "address": "강원특별자치도 강릉시 연화봉길 13 (노암동)",
    "lat": 37.7491680791201,
    "lng": 128.899728215515,
    "region_1depth": "강원특별자치도",
    "region_2depth": "강릉시"
  },
  {
    "category": "한식_육류",
    "name": "소나무식당",
    "main_item": "등심(180g)",
    "price": "25,000",
    "phone": "033-648-7094",
    "address": "강원특별자치도 강릉시 금성로45번길 8-1 (성남동)",
    "lat": 37.7519638799483,
    "lng": 128.896505175749,
    "region_1depth": "강원특별자치도",
    "region_2depth": "강릉시"
  },
  {
    "category": "이용업",
    "name": "송정 아이파크 이발관",
    "main_item": "이용료",
    "price": "10,000",
    "phone": "",
    "address": "강원특별자치도 강릉시 경강로 2511 2동 1층 106호(송정동, 아이파크상가)",
    "lat": 37.7749988573468,
    "lng": 128.935400569862,
    "region_1depth": "강원특별자치도",
    "region_2depth": "강릉시"
  },
  {
    "category": "미용업",
    "name": "순머리방",
    "main_item": "파마",
    "price": "30,000",
    "phone": "",
    "address": "강원특별자치도 강릉시 강릉대로 172 1층 1호(교동)",
    "lat": 37.7572009295294,
    "lng": 128.889289027911,
    "region_1depth": "강원특별자치도",
    "region_2depth": "강릉시"
  },
  {
    "category": "한식_육류",
    "name": "숯불삼삼오오갈비",
    "main_item": "돼지갈비(250g)",
    "price": "14,000",
    "phone": "033-645-3355",
    "address": "강원특별자치도 강릉시 성덕포남로174번길 3 (포남동) 1층",
    "lat": 37.7678511004012,
    "lng": 128.909755607209,
    "region_1depth": "강원특별자치도",
    "region_2depth": "강릉시"
  },
  {
    "category": "한식_일반",
    "name": "스마일식당",
    "main_item": "백반",
    "price": "7,000",
    "phone": "033-645-6888",
    "address": "강원특별자치도 강릉시 경강로2255번길 7 (포남동)",
    "lat": 37.7654318150765,
    "lng": 128.908220785595,
    "region_1depth": "강원특별자치도",
    "region_2depth": "강릉시"
  },
  {
    "category": "기타요식업",
    "name": "스위트번스",
    "main_item": "아메리카노",
    "price": "2,000",
    "phone": "033-644-4483",
    "address": "강원특별자치도 강릉시 해안로406번길 26 (강문동)",
    "lat": 37.798625389322,
    "lng": 128.914710507439,
    "region_1depth": "강원특별자치도",
    "region_2depth": "강릉시"
  },
  {
    "category": "한식_일반",
    "name": "아미고스",
    "main_item": "돈가스",
    "price": "7,500",
    "phone": "033-642-7688",
    "address": "강원특별자치도 강릉시 지변길 28 (지변동)",
    "lat": 37.7723559028904,
    "lng": 128.872435249914,
    "region_1depth": "강원특별자치도",
    "region_2depth": "강릉시"
  },
  {
    "category": "중식",
    "name": "연곡반점",
    "main_item": "자장면",
    "price": "5,000",
    "phone": "033-661-5559",
    "address": "강원특별자치도 강릉시 연곡면 진고개로2717-1",
    "lat": 37.8593688966341,
    "lng": 128.836356629112,
    "region_1depth": "강원특별자치도",
    "region_2depth": "강릉시"
  },
  {
    "category": "한식_일반",
    "name": "영동보양탕",
    "main_item": "삼계탕",
    "price": "11,000",
    "phone": "033-653-6537",
    "address": "강원특별자치도 강릉시 강릉대로 337-4 (포남동)",
    "lat": 37.7661993611241,
    "lng": 128.903998709985,
    "region_1depth": "강원특별자치도",
    "region_2depth": "강릉시"
  },
  {
    "category": "세탁업",
    "name": "영동콜크리닝",
    "main_item": "정장한벌",
    "price": "5,000",
    "phone": "010-4925-1444",
    "address": "강원특별자치도 강릉시 강릉대로204번길 7 (교동) 영동콜크리닝",
    "lat": 37.7580247039657,
    "lng": 128.893713360099,
    "region_1depth": "강원특별자치도",
    "region_2depth": "강릉시"
  },
  {
    "category": "한식_일반",
    "name": "영세감자탕",
    "main_item": "감자탕(소)",
    "price": "20,000",
    "phone": "033-641-6978",
    "address": "강원특별자치도 강릉시 원대로 29 (교동)",
    "lat": 37.7573397090337,
    "lng": 128.881489477759,
    "region_1depth": "강원특별자치도",
    "region_2depth": "강릉시"
  },
  {
    "category": "미용업",
    "name": "예찬미용실",
    "main_item": "파마",
    "price": "15,000",
    "phone": "033-644-7863",
    "address": "강원특별자치도 강릉시 중앙시장2길 34 (성남동)",
    "lat": 37.7528862291654,
    "lng": 128.898576183715,
    "region_1depth": "강원특별자치도",
    "region_2depth": "강릉시"
  },
  {
    "category": "세탁업",
    "name": "용궁세탁소",
    "main_item": "정장한벌",
    "price": "5,000",
    "phone": "033-643-8098",
    "address": "강원특별자치도 강릉시 경강로2246번길 4",
    "lat": 37.763926777202,
    "lng": 128.908387945608,
    "region_1depth": "강원특별자치도",
    "region_2depth": "강릉시"
  },
  {
    "category": "한식_일반",
    "name": "우리식당",
    "main_item": "김치찌개",
    "price": "7,000",
    "phone": "033-646-1618",
    "address": "강원특별자치도 강릉시 용지각길 27 (포남동)",
    "lat": 37.7619824015874,
    "lng": 128.906140141789,
    "region_1depth": "강원특별자치도",
    "region_2depth": "강릉시"
  },
  {
    "category": "한식_육류",
    "name": "우리한우상회",
    "main_item": "한우모듬(150g)",
    "price": "19,000",
    "phone": "033-647-8253",
    "address": "강원특별자치도 강릉시 선수촌로63번길 30-10",
    "lat": 37.7571553218175,
    "lng": 128.867196549959,
    "region_1depth": "강원특별자치도",
    "region_2depth": "강릉시"
  },
  {
    "category": "미용업",
    "name": "우연정미용실",
    "main_item": "파마",
    "price": "15,000",
    "phone": "033-641-1758",
    "address": "강원특별자치도 강릉시 율곡로2692번길 56 (입암동)",
    "lat": 37.751937925379,
    "lng": 128.911678589492,
    "region_1depth": "강원특별자치도",
    "region_2depth": "강릉시"
  },
  {
    "category": "기타요식업",
    "name": "유스커피",
    "main_item": "아메리카노",
    "price": "2,500",
    "phone": "033-652-7130",
    "address": "강원특별자치도 강릉시 하평3길 37 상가동 202호(포남동, 일송아파트)",
    "lat": 37.7718116865206,
    "lng": 128.914192687463,
    "region_1depth": "강원특별자치도",
    "region_2depth": "강릉시"
  },
  {
    "category": "한식_면류",
    "name": "육달막국수",
    "main_item": "물막국수",
    "price": "7,500",
    "phone": "033-643-2400",
    "address": "강원특별자치도 강릉시 사임당로 131 (홍제동) 2동 109호",
    "lat": 37.7565185449075,
    "lng": 128.865653544871,
    "region_1depth": "강원특별자치도",
    "region_2depth": "강릉시"
  },
  {
    "category": "미용업",
    "name": "윤미용실",
    "main_item": "파마",
    "price": "17,000",
    "phone": "033-643-7490",
    "address": "강원특별자치도 강릉시 금성로45번길 12 (성남동)",
    "lat": 37.7515959592658,
    "lng": 128.896909101067,
    "region_1depth": "강원특별자치도",
    "region_2depth": "강릉시"
  },
  {
    "category": "미용업",
    "name": "은진미용실",
    "main_item": "파마",
    "price": "20,000",
    "phone": "033-642-9210",
    "address": "강원특별자치도 강릉시 중앙시장3길 36",
    "lat": 37.7524336536354,
    "lng": 128.898642787241,
    "region_1depth": "강원특별자치도",
    "region_2depth": "강릉시"
  },
  {
    "category": "한식_육류",
    "name": "읍내골",
    "main_item": "김치찌개",
    "price": "7,000",
    "phone": "033-661-4631",
    "address": "강원특별자치도 강릉시 연곡면 왕제골길 28-4",
    "lat": 37.860380355079,
    "lng": 128.836939737463,
    "region_1depth": "강원특별자치도",
    "region_2depth": "강릉시"
  },
  {
    "category": "미용업",
    "name": "이미경헤어아트",
    "main_item": "파마",
    "price": "20,000",
    "phone": "",
    "address": "강원특별자치도 강릉시 주문진읍 시장길 49",
    "lat": 37.8920138641992,
    "lng": 128.827379966371,
    "region_1depth": "강원특별자치도",
    "region_2depth": "강릉시"
  },
  {
    "category": "미용업",
    "name": "이은영헤어",
    "main_item": "파마",
    "price": "25,000",
    "phone": "",
    "address": "강원특별자치도 강릉시 강중길 30",
    "lat": 37.7537686608323,
    "lng": 128.907779838039,
    "region_1depth": "강원특별자치도",
    "region_2depth": "강릉시"
  },
  {
    "category": "미용업",
    "name": "이정윤미용실",
    "main_item": "파마",
    "price": "20,000",
    "phone": "033-652-3180",
    "address": "강원특별자치도 강릉시 보래미하길53번길 16 (포남동)",
    "lat": 37.7747974206431,
    "lng": 128.910913765922,
    "region_1depth": "강원특별자치도",
    "region_2depth": "강릉시"
  },
  {
    "category": "미용업",
    "name": "인태리미용실",
    "main_item": "파마",
    "price": "20,000",
    "phone": "033-648-5677",
    "address": "강원특별자치도 강릉시 동부시장길 21 (옥천동)",
    "lat": 37.7598534283397,
    "lng": 128.900319601159,
    "region_1depth": "강원특별자치도",
    "region_2depth": "강릉시"
  },
  {
    "category": "기타요식업",
    "name": "일렁",
    "main_item": "카페라떼",
    "price": "4,000",
    "phone": "",
    "address": "강원특별자치도 강릉시 하평5길 20-1",
    "lat": 37.771708705554,
    "lng": 128.917123989883,
    "region_1depth": "강원특별자치도",
    "region_2depth": "강릉시"
  },
  {
    "category": "한식_일반",
    "name": "임당식당",
    "main_item": "된장찌개",
    "price": "7,000",
    "phone": "033-645-6561",
    "address": "강원특별자치도 강릉시 문화의길7번길 4 (임당동)",
    "lat": 37.7547530232655,
    "lng": 128.89417851902,
    "region_1depth": "강원특별자치도",
    "region_2depth": "강릉시"
  },
  {
    "category": "미용업",
    "name": "준헤어미용실",
    "main_item": "파마",
    "price": "15,000",
    "phone": "",
    "address": "강원특별자치도 강릉시 토성로 123번길 6 (용강동)",
    "lat": 37.7545202313317,
    "lng": 128.890415912339,
    "region_1depth": "강원특별자치도",
    "region_2depth": "강릉시"
  },
  {
    "category": "한식_육류",
    "name": "중앙돈가스",
    "main_item": "돈가스",
    "price": "5,000",
    "phone": "033-655-0355",
    "address": "강원특별자치도 강릉시 금성로23번길 4-6 (성남동)",
    "lat": 37.7537018097771,
    "lng": 128.897991728166,
    "region_1depth": "강원특별자치도",
    "region_2depth": "강릉시"
  },
  {
    "category": "한식_면류",
    "name": "지영이네",
    "main_item": "칼국수",
    "price": "6,000",
    "phone": "033-645-8258",
    "address": "강원특별자치도 강릉시 중앙시장1길 6 (성남동)",
    "lat": 37.7530795535143,
    "lng": 128.898302018777,
    "region_1depth": "강원특별자치도",
    "region_2depth": "강릉시"
  },
  {
    "category": "한식_육류",
    "name": "진미식당",
    "main_item": "김치찌개",
    "price": "4,000",
    "phone": "033-648-8479",
    "address": "강원특별자치도 강릉시 금성로45번길 14 (성남동)",
    "lat": 37.7518343816685,
    "lng": 128.897050883353,
    "region_1depth": "강원특별자치도",
    "region_2depth": "강릉시"
  },
  {
    "category": "미용업",
    "name": "진희미용실",
    "main_item": "파마",
    "price": "20,000",
    "phone": "033-643-2025",
    "address": "강원특별자치도 강릉시 율곡로 2755 (노암동)",
    "lat": 37.7524344967774,
    "lng": 128.904657387474,
    "region_1depth": "강원특별자치도",
    "region_2depth": "강릉시"
  },
  {
    "category": "미용업",
    "name": "차미랑헤어숍",
    "main_item": "파마",
    "price": "20,000",
    "phone": "033-645-5475",
    "address": "강원특별자치도 강릉시 중앙시장2길 23 (성남동)",
    "lat": 37.7526347222541,
    "lng": 128.897350996619,
    "region_1depth": "강원특별자치도",
    "region_2depth": "강릉시"
  },
  {
    "category": "기타요식업",
    "name": "카페라움",
    "main_item": "아메리카노",
    "price": "2,500",
    "phone": "033-643-9654",
    "address": "강원특별자치도 강릉시 금성로23번길 16 (성남동)",
    "lat": 37.7528602956022,
    "lng": 128.898888550412,
    "region_1depth": "강원특별자치도",
    "region_2depth": "강릉시"
  },
  {
    "category": "기타요식업",
    "name": "카페리안",
    "main_item": "아메리카노",
    "price": "2,000",
    "phone": "033-651-7211",
    "address": "강원특별자치도 강릉시 지변길 22",
    "lat": 37.772940383164,
    "lng": 128.872587429691,
    "region_1depth": "강원특별자치도",
    "region_2depth": "강릉시"
  },
  {
    "category": "기타요식업",
    "name": "카페인",
    "main_item": "아메리카노",
    "price": "2,000",
    "phone": "033-647-7041",
    "address": "강원특별자치도 강릉시 경강로 2269 1층(포남동)",
    "lat": 37.7660526194626,
    "lng": 128.909869572069,
    "region_1depth": "강원특별자치도",
    "region_2depth": "강릉시"
  },
  {
    "category": "기타요식업",
    "name": "커피나누기",
    "main_item": "아메리카노",
    "price": "2,500",
    "phone": "033-646-6336",
    "address": "강원특별자치도 강릉시 금성로23번길 14 (성남동)",
    "lat": 37.7529363394142,
    "lng": 128.898826277438,
    "region_1depth": "강원특별자치도",
    "region_2depth": "강릉시"
  },
  {
    "category": "세탁업",
    "name": "하나세탁소",
    "main_item": "정장한벌",
    "price": "8,000",
    "phone": "033-651-6581",
    "address": "강원특별자치도 강릉시 강릉대로469번길 21 (포남동)",
    "lat": 37.7760667796404,
    "lng": 128.911969248641,
    "region_1depth": "강원특별자치도",
    "region_2depth": "강릉시"
  },
  {
    "category": "한식_육류",
    "name": "한섬구이",
    "main_item": "냉동삼겹살(180g)",
    "price": "10,000",
    "phone": "033-645-0332",
    "address": "강원특별자치도 강릉시 강변로 364 (입암동, 입암1주공아파트) 1층 104호",
    "lat": 37.7541249516349,
    "lng": 128.906065087373,
    "region_1depth": "강원특별자치도",
    "region_2depth": "강릉시"
  },
  {
    "category": "세탁업",
    "name": "한신세탁소",
    "main_item": "정장한벌",
    "price": "5,000",
    "phone": "033-641-2395",
    "address": "강원특별자치도 강릉시 명륜로 95-7 (교동)",
    "lat": 37.7683310728149,
    "lng": 128.899492119394,
    "region_1depth": "강원특별자치도",
    "region_2depth": "강릉시"
  },
  {
    "category": "한식_일반",
    "name": "해동식당",
    "main_item": "김치찌개",
    "price": "7,000",
    "phone": "033-646-3339",
    "address": "강원특별자치도 강릉시 남구길18번길 39 (포남동)",
    "lat": 37.7673081272944,
    "lng": 128.908768551738,
    "region_1depth": "강원특별자치도",
    "region_2depth": "강릉시"
  },
  {
    "category": "미용업",
    "name": "행복한미용실",
    "main_item": "파마",
    "price": "15,000",
    "phone": "033-642-8618",
    "address": "강원특별자치도 강릉시 금성로23번길 12 (성남동)",
    "lat": 37.7530865768707,
    "lng": 128.898665604182,
    "region_1depth": "강원특별자치도",
    "region_2depth": "강릉시"
  },
  {
    "category": "미용업",
    "name": "현대미용실",
    "main_item": "파마",
    "price": "20,000",
    "phone": "033-661-6642",
    "address": "강원특별자치도 강릉시 주문진읍 항구윗길 7",
    "lat": 37.8936117923614,
    "lng": 128.828062309275,
    "region_1depth": "강원특별자치도",
    "region_2depth": "강릉시"
  },
  {
    "category": "미용업",
    "name": "현미용실",
    "main_item": "파마",
    "price": "20,000",
    "phone": "033-651-3488",
    "address": "강원특별자치도 강릉시 강변로440번길 36-4 (입암동)",
    "lat": 37.7619157944393,
    "lng": 128.914697230363,
    "region_1depth": "강원특별자치도",
    "region_2depth": "강릉시"
  },
  {
    "category": "이용업",
    "name": "협동이용소",
    "main_item": "이용료",
    "price": "10,000",
    "phone": "033-645-7135",
    "address": "강원특별자치도 강릉시 강동면 강동초교길42",
    "lat": 37.7215323286445,
    "lng": 128.961476648727,
    "region_1depth": "강원특별자치도",
    "region_2depth": "강릉시"
  },
  {
    "category": "중식",
    "name": "화(火)짬뽕대통령",
    "main_item": "유니짜장",
    "price": "5,000",
    "phone": "033-661-0454",
    "address": "강원특별자치도 강릉시 연곡면 홍질목길 12 (영진 코아루비치테라스) 지하 1층 203호",
    "lat": 37.8683076622014,
    "lng": 128.843896089504,
    "region_1depth": "강원특별자치도",
    "region_2depth": "강릉시"
  },
  {
    "category": "미용업",
    "name": "화신미용실",
    "main_item": "파마",
    "price": "15,000",
    "phone": "033-642-3295",
    "address": "강원특별자치도 강릉시 홍제로 38 (홍제동)",
    "lat": 37.7514950850765,
    "lng": 128.88641562072,
    "region_1depth": "강원특별자치도",
    "region_2depth": "강릉시"
  },
  {
    "category": "미용업",
    "name": "환희머리방",
    "main_item": "파마",
    "price": "25,000",
    "phone": "",
    "address": "강원특별자치도 강릉시 노암길42번길 24",
    "lat": 37.7455253700073,
    "lng": 128.901892990512,
    "region_1depth": "강원특별자치도",
    "region_2depth": "강릉시"
  },
  {
    "category": "미용업",
    "name": "황실헤어클럽",
    "main_item": "파마",
    "price": "25,000",
    "phone": "033-647-2885",
    "address": "강원특별자치도 강릉시 중앙시장길 13 (성남동)",
    "lat": 37.7534069787925,
    "lng": 128.897867785632,
    "region_1depth": "강원특별자치도",
    "region_2depth": "강릉시"
  },
  {
    "category": "기타비요식업",
    "name": "후지칼라 강릉점",
    "main_item": "사진촬영료",
    "price": "10,000",
    "phone": "033-646-2000",
    "address": "강원특별자치도 강릉시 경강로 2069 (임당동)",
    "lat": 37.7534128957221,
    "lng": 128.893698676533,
    "region_1depth": "강원특별자치도",
    "region_2depth": "강릉시"
  },
  {
    "category": "양식",
    "name": "ROCOCO",
    "main_item": "샐러드와 수제등심돈까스",
    "price": "9,500",
    "phone": "033-521-4785",
    "address": "강원특별자치도 동해시 청운로 90 1층",
    "lat": 37.4880907688288,
    "lng": 129.102651238969,
    "region_1depth": "강원특별자치도",
    "region_2depth": "동해시"
  },
  {
    "category": "한식_일반",
    "name": "경남보리밥집",
    "main_item": "뷔페",
    "price": "6,000",
    "phone": "033-533-6371",
    "address": "강원특별자치도 동해시 해안로 511",
    "lat": 37.5459552521948,
    "lng": 129.107266311615,
    "region_1depth": "강원특별자치도",
    "region_2depth": "동해시"
  },
  {
    "category": "한식_일반",
    "name": "광천막국수",
    "main_item": "메밀꿩만두",
    "price": "9,000",
    "phone": "033-533-0113",
    "address": "강원특별자치도 동해시 평릉길 21-18 1층",
    "lat": 37.5277379044002,
    "lng": 129.099078885379,
    "region_1depth": "강원특별자치도",
    "region_2depth": "동해시"
  },
  {
    "category": "한식_육류",
    "name": "구울래머글래",
    "main_item": "생삼겹살",
    "price": "12,000",
    "phone": "033-535-5888",
    "address": "강원특별자치도 동해시 천곡로 24",
    "lat": 37.5246574203614,
    "lng": 129.107893601572,
    "region_1depth": "강원특별자치도",
    "region_2depth": "동해시"
  },
  {
    "category": "미용업",
    "name": "김유진헤어샵",
    "main_item": "커트",
    "price": "10,000",
    "phone": "033-534-2456",
    "address": "강원특별자치도 동해시 발한로 208",
    "lat": 37.547986614169,
    "lng": 129.109008208489,
    "region_1depth": "강원특별자치도",
    "region_2depth": "동해시"
  },
  {
    "category": "한식_일반",
    "name": "꽃림이네찜",
    "main_item": "아귀찜(중)",
    "price": "35,000",
    "phone": "033-521-5131",
    "address": "강원특별자치도 동해시 전천로 127",
    "lat": 37.4801171608281,
    "lng": 129.107821494728,
    "region_1depth": "강원특별자치도",
    "region_2depth": "동해시"
  },
  {
    "category": "한식_육류",
    "name": "닭갈비천국",
    "main_item": "닭갈비",
    "price": "10,000",
    "phone": "033-533-9753",
    "address": "강원특별자치도 동해시 천곡로 68",
    "lat": 37.5232921412433,
    "lng": 129.112824883665,
    "region_1depth": "강원특별자치도",
    "region_2depth": "동해시"
  },
  {
    "category": "한식_육류",
    "name": "동해닭갈비",
    "main_item": "무뼈닭갈비",
    "price": "11,000",
    "phone": "033-522-6868",
    "address": "강원특별자치도 동해시 효자남길 36 1층",
    "lat": 37.4894431008133,
    "lng": 129.108503175498,
    "region_1depth": "강원특별자치도",
    "region_2depth": "동해시"
  },
  {
    "category": "한식_면류",
    "name": "동해장칼국수",
    "main_item": "장칼국수",
    "price": "7,000",
    "phone": "033-532-2556",
    "address": "강원특별자치도 동해시 일출로 2-6",
    "lat": 37.5492755312843,
    "lng": 129.109452085665,
    "region_1depth": "강원특별자치도",
    "region_2depth": "동해시"
  },
  {
    "category": "한식_면류",
    "name": "동해칼국수",
    "main_item": "칼국수",
    "price": "7,000",
    "phone": "033-522-6966",
    "address": "강원특별자치도 동해시 전천로 171 1층",
    "lat": 37.4806070276131,
    "lng": 129.112118358606,
    "region_1depth": "강원특별자치도",
    "region_2depth": "동해시"
  },
  {
    "category": "기타요식업",
    "name": "뒷드루쉼터",
    "main_item": "아메리카노",
    "price": "3,000",
    "phone": "",
    "address": "강원특별자치도 동해시 오일장길 10 1층",
    "lat": 37.4809152080462,
    "lng": 129.127040934835,
    "region_1depth": "강원특별자치도",
    "region_2depth": "동해시"
  },
  {
    "category": "기타요식업",
    "name": "런던브라우니",
    "main_item": "커피",
    "price": "2,000",
    "phone": "033-535-7893",
    "address": "강원특별자치도 동해시 동굴로 61-18",
    "lat": 37.5194789185762,
    "lng": 129.110817927157,
    "region_1depth": "강원특별자치도",
    "region_2depth": "동해시"
  },
  {
    "category": "미용업",
    "name": "미앤미헤어샵",
    "main_item": "커트",
    "price": "10,000",
    "phone": "033-533-8796",
    "address": "강원특별자치도 동해시 동굴로 15",
    "lat": 37.5167282088535,
    "lng": 129.105757223796,
    "region_1depth": "강원특별자치도",
    "region_2depth": "동해시"
  },
  {
    "category": "숙박업",
    "name": "별무인텔",
    "main_item": "숙박(1박, 평일)",
    "price": "40,000",
    "phone": "033-533-6000",
    "address": "강원특별자치도 동해시 부곡로 9",
    "lat": 37.5358572610971,
    "lng": 129.104848263099,
    "region_1depth": "강원특별자치도",
    "region_2depth": "동해시"
  },
  {
    "category": "한식_면류",
    "name": "삼삼마을",
    "main_item": "장칼국수",
    "price": "4,000",
    "phone": "033-532-9803",
    "address": "강원특별자치도 동해시 가마골길 42-16",
    "lat": 37.5375472953057,
    "lng": 129.101736051545,
    "region_1depth": "강원특별자치도",
    "region_2depth": "동해시"
  },
  {
    "category": "한식_육류",
    "name": "삼송갈비",
    "main_item": "돼지갈비",
    "price": "13,000",
    "phone": "033-522-4077",
    "address": "강원특별자치도 동해시 송정로 39 1층",
    "lat": 37.4972220156249,
    "lng": 129.125776729193,
    "region_1depth": "강원특별자치도",
    "region_2depth": "동해시"
  },
  {
    "category": "한식_일반",
    "name": "상봉식당",
    "main_item": "비빔밥",
    "price": "7,000",
    "phone": "033-532-2621",
    "address": "강원특별자치도 동해시 천곡2길 3-1",
    "lat": 37.5243803864316,
    "lng": 129.112108519358,
    "region_1depth": "강원특별자치도",
    "region_2depth": "동해시"
  },
  {
    "category": "한식_일반",
    "name": "석촌",
    "main_item": "비빔밥",
    "price": "7,000",
    "phone": "033-535-2516",
    "address": "강원특별자치도 동해시 천곡1길 43",
    "lat": 37.526131992543,
    "lng": 129.111020273714,
    "region_1depth": "강원특별자치도",
    "region_2depth": "동해시"
  },
  {
    "category": "세탁업",
    "name": "스마일세탁공장",
    "main_item": "양복상하의",
    "price": "12,000",
    "phone": "033-522-4782",
    "address": "강원특별자치도 동해시 동해역길 11",
    "lat": 37.4936879786963,
    "lng": 129.124161062217,
    "region_1depth": "강원특별자치도",
    "region_2depth": "동해시"
  },
  {
    "category": "한식_면류",
    "name": "스마일전떡볶이",
    "main_item": "잔치국수",
    "price": "4,000",
    "phone": "033-535-3770",
    "address": "강원특별자치도 동해시 시장안길 18 (발한동) 1층",
    "lat": 37.5501737999481,
    "lng": 129.108446543794,
    "region_1depth": "강원특별자치도",
    "region_2depth": "동해시"
  },
  {
    "category": "한식_일반",
    "name": "시골",
    "main_item": "보리밥",
    "price": "6,500",
    "phone": "033-521-0163",
    "address": "강원특별자치도 동해시 지양길 9",
    "lat": 37.4929752908811,
    "lng": 129.107460502497,
    "region_1depth": "강원특별자치도",
    "region_2depth": "동해시"
  },
  {
    "category": "한식_일반",
    "name": "어향",
    "main_item": "고등어구이+나베",
    "price": "10,000",
    "phone": "033-532-8292",
    "address": "강원특별자치도 동해시 중앙시장길 24 1층",
    "lat": 37.5517513911853,
    "lng": 129.107808836314,
    "region_1depth": "강원특별자치도",
    "region_2depth": "동해시"
  },
  {
    "category": "한식_면류",
    "name": "예가네닭칼국수",
    "main_item": "닭칼국수",
    "price": "8,500",
    "phone": "033-533-1712",
    "address": "강원특별자치도 동해시 천곡2길 3 1층",
    "lat": 37.524255163166,
    "lng": 129.112194454525,
    "region_1depth": "강원특별자치도",
    "region_2depth": "동해시"
  },
  {
    "category": "한식_일반",
    "name": "오대게",
    "main_item": "오대게라면",
    "price": "8,000",
    "phone": "033-532-0057",
    "address": "강원특별자치도 동해시 일출로 88",
    "lat": 37.5516085617944,
    "lng": 129.117268024469,
    "region_1depth": "강원특별자치도",
    "region_2depth": "동해시"
  },
  {
    "category": "한식_면류",
    "name": "우리칼국수",
    "main_item": "매콤장칼국수",
    "price": "6,000",
    "phone": "033-533-4784",
    "address": "강원특별자치도 동해시 시장안길 33 (발한동) 1층",
    "lat": 37.5506210822807,
    "lng": 129.107795094224,
    "region_1depth": "강원특별자치도",
    "region_2depth": "동해시"
  },
  {
    "category": "한식_일반",
    "name": "원고기마트 식육식당",
    "main_item": "한우 소불고기 1인분",
    "price": "10,000",
    "phone": "033-531-7770",
    "address": "강원특별자치도 동해시 동해대로 5466 1층",
    "lat": 37.5299940225921,
    "lng": 129.105121738694,
    "region_1depth": "강원특별자치도",
    "region_2depth": "동해시"
  },
  {
    "category": "한식_일반",
    "name": "웰빙주먹밥",
    "main_item": "주먹밥",
    "price": "1,500",
    "phone": "033-521-1536",
    "address": "강원특별자치도 동해시 효자남길 33-20 1층",
    "lat": 37.4892469700552,
    "lng": 129.106636462089,
    "region_1depth": "강원특별자치도",
    "region_2depth": "동해시"
  },
  {
    "category": "한식_일반",
    "name": "장모님닭계장",
    "main_item": "닭계장",
    "price": "8,000",
    "phone": "033-532-3279",
    "address": "강원특별자치도 동해시 중앙로 234 65호",
    "lat": 37.5214846431653,
    "lng": 129.11508128475,
    "region_1depth": "강원특별자치도",
    "region_2depth": "동해시"
  },
  {
    "category": "미용업",
    "name": "장미미용타운",
    "main_item": "커트",
    "price": "13,000",
    "phone": "033-521-6291",
    "address": "강원특별자치도 동해시 대동로 136",
    "lat": 37.4838284394221,
    "lng": 129.126141311348,
    "region_1depth": "강원특별자치도",
    "region_2depth": "동해시"
  },
  {
    "category": "한식_일반",
    "name": "장터뚜구리",
    "main_item": "산채비빔밥",
    "price": "8,000",
    "phone": "033-535-7755",
    "address": "강원특별자치도 동해시 감추3길 36",
    "lat": 37.5165750765523,
    "lng": 129.122308153198,
    "region_1depth": "강원특별자치도",
    "region_2depth": "동해시"
  },
  {
    "category": "일식",
    "name": "진가네회포차",
    "main_item": "모듬회(소)",
    "price": "35,000",
    "phone": "033-535-5525",
    "address": "강원특별자치도 동해시 임항로 28 1층",
    "lat": 37.538383528537,
    "lng": 129.105088769289,
    "region_1depth": "강원특별자치도",
    "region_2depth": "동해시"
  },
  {
    "category": "미용업",
    "name": "초록머리방",
    "main_item": "커트",
    "price": "10,000",
    "phone": "033-533-6055",
    "address": "강원특별자치도 동해시 항골길 3-2 (천곡동) 1층",
    "lat": 37.5248414427297,
    "lng": 129.106749160085,
    "region_1depth": "강원특별자치도",
    "region_2depth": "동해시"
  },
  {
    "category": "한식_일반",
    "name": "춘식이네찜나라",
    "main_item": "장칼국수",
    "price": "5,000",
    "phone": "033-532-2629",
    "address": "강원특별자치도 동해시 발한로 238",
    "lat": 37.5504709976955,
    "lng": 129.107754998548,
    "region_1depth": "강원특별자치도",
    "region_2depth": "동해시"
  },
  {
    "category": "기타요식업",
    "name": "커피멜로우",
    "main_item": "아메리카노",
    "price": "2,000",
    "phone": "",
    "address": "강원특별자치도 동해시 동굴1길 97 1층",
    "lat": 37.5199760982648,
    "lng": 129.113214611193,
    "region_1depth": "강원특별자치도",
    "region_2depth": "동해시"
  },
  {
    "category": "기타요식업",
    "name": "커피빈",
    "main_item": "에스프레소",
    "price": "2,500",
    "phone": "033-532-2220",
    "address": "강원특별자치도 동해시 일출로 107",
    "lat": 37.5526627903622,
    "lng": 129.118940786075,
    "region_1depth": "강원특별자치도",
    "region_2depth": "동해시"
  },
  {
    "category": "중식",
    "name": "태백루",
    "main_item": "짜장면",
    "price": "5,000",
    "phone": "033-532-4003",
    "address": "강원특별자치도 동해시 동굴로 61-21",
    "lat": 37.5197764104354,
    "lng": 129.110392800945,
    "region_1depth": "강원특별자치도",
    "region_2depth": "동해시"
  },
  {
    "category": "한식_분식",
    "name": "틈새김밥",
    "main_item": "김밥",
    "price": "2,500",
    "phone": "033-522-6155",
    "address": "강원특별자치도 동해시 일출로 23 (발한동) 1층",
    "lat": 37.5510520956209,
    "lng": 129.110272480449,
    "region_1depth": "강원특별자치도",
    "region_2depth": "동해시"
  },
  {
    "category": "기타요식업",
    "name": "하이바이",
    "main_item": "아메리카노",
    "price": "1,200",
    "phone": "",
    "address": "강원특별자치도 동해시 일출로 279 1층",
    "lat": 37.5665529041993,
    "lng": 129.119296218058,
    "region_1depth": "강원특별자치도",
    "region_2depth": "동해시"
  },
  {
    "category": "한식_면류",
    "name": "한아름칼국수",
    "main_item": "홍합칼국수",
    "price": "6,000",
    "phone": "033-532-4954",
    "address": "강원특별자치도 동해시 발한복개로 30-1 1층",
    "lat": 37.550725345474,
    "lng": 129.10762661498,
    "region_1depth": "강원특별자치도",
    "region_2depth": "동해시"
  },
  {
    "category": "이용업",
    "name": "항골이용원",
    "main_item": "커트",
    "price": "10,000",
    "phone": "033-532-1820",
    "address": "강원특별자치도 동해시 항골길 52",
    "lat": 37.5245123664562,
    "lng": 129.102307248936,
    "region_1depth": "강원특별자치도",
    "region_2depth": "동해시"
  },
  {
    "category": "일식",
    "name": "회생각포차",
    "main_item": "모듬회(소)",
    "price": "25,000",
    "phone": "033-532-9295",
    "address": "강원특별자치도 동해시 충혼길 3 1층",
    "lat": 37.5156639055546,
    "lng": 129.117454959966,
    "region_1depth": "강원특별자치도",
    "region_2depth": "동해시"
  },
  {
    "category": "한식_면류",
    "name": "흥부네찜",
    "main_item": "홍합장칼국수",
    "price": "6,000",
    "phone": "033-535-5802",
    "address": "강원특별자치도 동해시 발한복개로 28",
    "lat": 37.5508560182911,
    "lng": 129.107406831796,
    "region_1depth": "강원특별자치도",
    "region_2depth": "동해시"
  },
  {
    "category": "한식_육류",
    "name": "강릉족발",
    "main_item": "왕족발(4인분)",
    "price": "24,000",
    "phone": "033-553-3458",
    "address": "강원특별자치도 태백시 번영로 144 (황지동)",
    "lat": 37.1563311724322,
    "lng": 128.987033344756,
    "region_1depth": "강원특별자치도",
    "region_2depth": "태백시"
  },
  {
    "category": "한식_일반",
    "name": "다복한정식",
    "main_item": "다복한정식",
    "price": "8,000",
    "phone": "033-581-6600",
    "address": "강원특별자치도 태백시 장성로 36 (장성동)",
    "lat": 37.1017835069639,
    "lng": 129.009467759024,
    "region_1depth": "강원특별자치도",
    "region_2depth": "태백시"
  },
  {
    "category": "한식_육류",
    "name": "맛있는치킨",
    "main_item": "후라이드",
    "price": "15,000",
    "phone": "033-552-9982",
    "address": "강원특별자치도 태백시 해지개길 24 205호(황지동)",
    "lat": 37.1611109022444,
    "lng": 128.983735751496,
    "region_1depth": "강원특별자치도",
    "region_2depth": "태백시"
  },
  {
    "category": "한식_면류",
    "name": "면사무소",
    "main_item": "잔치국수",
    "price": "6,000",
    "phone": "033-553-5358",
    "address": "강원특별자치도 태백시 동태백로 410 (철암동) (철암동)",
    "lat": 37.1147503736012,
    "lng": 129.03732360308,
    "region_1depth": "강원특별자치도",
    "region_2depth": "태백시"
  },
  {
    "category": "한식_육류",
    "name": "부경한우",
    "main_item": "돼지삼겹살",
    "price": "13,000",
    "phone": "033-553-7706",
    "address": "강원특별자치도 태백시 황지연못길 6-8 (황지동) 부경한우",
    "lat": 37.1721954219461,
    "lng": 128.991017204611,
    "region_1depth": "강원특별자치도",
    "region_2depth": "태백시"
  },