[
  {
    "category": "한식",
    "name": "(장안)전주콩나물국밥",
    "main_item": "콩나물국밥",
    "price": "6,000",
    "phone": "031-251-1174",
    "address": "경기도 수원시 장안구 조원로89번길 31 (조원동) 1층",
    "lat": 37.299854194681,
    "lng": 127.014556808171,
    "region_1depth": "경기",
    "region_2depth": "수원시 장안구"
  },
  {
    "category": "한식",
    "name": "24시 전주국밥(콩마루)",
    "main_item": "콩나물국밥",
    "price": "6,000",
    "phone": "031-202-3324",
    "address": "경기도 수원시 영통구 청명남로 46 (영통동) 1층",
    "lat": 37.253442816446,
    "lng": 127.076541974402,
    "region_1depth": "경기",
    "region_2depth": "수원시 영통구"
  },
  {
    "category": "기타요식업",
    "name": "가람",
    "main_item": "비빔냉면",
    "price": "7,000",
    "phone": "031-245-3695",
    "address": "경기도 수원시 팔달구 매산로20번길 21 (매산로2가) 103호",
    "lat": 37.266502893621,
    "lng": 127.003384214459,
    "region_1depth": "경기",
    "region_2depth": "수원시 팔달구"
  },
  {
    "category": "일식",
    "name": "감스시",
    "main_item": "오늘의 모듬초밥",
    "price": "13,000",
    "phone": "031-253-3302",
    "address": "경기도 수원시 장안구 서부로2123번길 17 (율전동) 1층",
    "lat": 37.2981913632704,
    "lng": 126.970220229377,
    "region_1depth": "경기",
    "region_2depth": "수원시 장안구"
  },
  {
    "category": "한식",
    "name": "강릉장칼국수",
    "main_item": "장칼국수",
    "price": "8,000",
    "phone": "031-241-7959",
    "address": "경기도 수원시 팔달구 수원천로 314 (남수동) 1층",
    "lat": 37.2814539839633,
    "lng": 127.018574574999,
    "region_1depth": "경기",
    "region_2depth": "수원시 팔달구"
  },
  {
    "category": "한식",
    "name": "고운돈 79냉삼집",
    "main_item": "냉삼겹(150g)",
    "price": "7,900",
    "phone": "031-205-5678",
    "address": "경기도 수원시 영통구 반달로 50 (영통동) 1층",
    "lat": 37.2498257626938,
    "lng": 127.077225762016,
    "region_1depth": "경기",
    "region_2depth": "수원시 영통구"
  },
  {
    "category": "일식",
    "name": "광명수산 수원역점",
    "main_item": "활어회덮밥",
    "price": "8,000",
    "phone": "031-244-8899",
    "address": "경기도 수원시 팔달구 갓매산로 38 (매산로2가) 1층",
    "lat": 37.2678790580559,
    "lng": 127.005653876318,
    "region_1depth": "경기",
    "region_2depth": "수원시 팔달구"
  },
  {
    "category": "한식",
    "name": "국수명가",
    "main_item": "비빔밥",
    "price": "7,000",
    "phone": "031-242-8473",
    "address": "경기도 수원시 권선구 평동로79번길 45 (평동) 1층 154호",
    "lat": 37.2598766368604,
    "lng": 126.992777412725,
    "region_1depth": "경기",
    "region_2depth": "수원시 권선구"
  },
  {
    "category": "한식",
    "name": "국수촌",
    "main_item": "잔치국수",
    "price": "3,000",
    "phone": "031-213-5033",
    "address": "경기도 수원시 영통구 매여울로53번길 63-2 (매탄동)",
    "lat": 37.2726657638748,
    "lng": 127.041141095451,
    "region_1depth": "경기",
    "region_2depth": "수원시 영통구"
  },
  {
    "category": "한식",
    "name": "금촌샤브칼국수",
    "main_item": "버섯매운탕칼국수",
    "price": "9,000",
    "phone": "031-205-5636",
    "address": "경기도 수원시 영통구 태장로 73 (망포동) 202호",
    "lat": 37.2393424862695,
    "lng": 127.054312483521,
    "region_1depth": "경기",
    "region_2depth": "수원시 영통구"
  },
  {
    "category": "기타요식업",
    "name": "까페시모 우만점",
    "main_item": "아메리카노",
    "price": "2,900",
    "phone": "031-304-0307",
    "address": "경기도 수원시 팔달구 경수대로656번길 37-22 (우만동) 1층",
    "lat": 37.285632886685,
    "lng": 127.02974324606,
    "region_1depth": "경기",
    "region_2depth": "수원시 팔달구"
  },
  {
    "category": "한식",
    "name": "남문건강제분소",
    "main_item": "콩나물국밥",
    "price": "6,000",
    "phone": "031-241-8002",
    "address": "경기도 수원시 팔달구 창룡대로26번길 42-7 (남수동) 1층",
    "lat": 37.2800265094172,
    "lng": 127.01887551805,
    "region_1depth": "경기",
    "region_2depth": "수원시 팔달구"
  },
  {
    "category": "한식",
    "name": "남문순대국",
    "main_item": "순대국",
    "price": "6,000",
    "phone": "031-245-8976",
    "address": "경기도 수원시 팔달구 정조로791번길 5 (팔달로2가)",
    "lat": 37.2785418007392,
    "lng": 127.016281725808,
    "region_1depth": "경기",
    "region_2depth": "수원시 팔달구"
  },
  {
    "category": "한식",
    "name": "냉삼집",
    "main_item": "급랭삼겹살(200g)",
    "price": "9,900",
    "phone": "031-206-3389",
    "address": "경기도 수원시 영통구 영통로214번길 9 (영통동) 106호",
    "lat": 37.2465794618056,
    "lng": 127.057637318689,
    "region_1depth": "경기",
    "region_2depth": "수원시 영통구"
  },
  {
    "category": "한식",
    "name": "넘버원김밥",
    "main_item": "라면",
    "price": "4,000",
    "phone": "031-234-9333",
    "address": "경기도 수원시 권선구 세권로 185 (권선동) 168호",
    "lat": 37.2560989353637,
    "lng": 127.024579580471,
    "region_1depth": "경기",
    "region_2depth": "수원시 권선구"
  },
  {
    "category": "한식",
    "name": "늘푸른밥상",
    "main_item": "김치찌개",
    "price": "8,000",
    "phone": "031-217-0235",
    "address": "경기도 수원시 영통구 매봉로27번길 28 .",
    "lat": 37.2709799059287,
    "lng": 127.051111900408,
    "region_1depth": "경기",
    "region_2depth": "수원시 영통구"
  },
  {
    "category": "한식",
    "name": "도담칡냉면",
    "main_item": "냉면",
    "price": "7,000",
    "phone": "031-247-0925",
    "address": "경기도 수원시 장안구 수성로382번길 32-3 (영화동) .",
    "lat": 37.2927058197689,
    "lng": 127.014524078316,
    "region_1depth": "경기",
    "region_2depth": "수원시 장안구"
  },
  {
    "category": "기타요식업",
    "name": "도톰",
    "main_item": "커피",
    "price": "2,500",
    "phone": "031-213-3536",
    "address": "경기도 수원시 영통구 중부대로256번길 48 1층 일부호(매탄동)",
    "lat": 37.2726489719443,
    "lng": 127.042758691348,
    "region_1depth": "경기",
    "region_2depth": "수원시 영통구"
  },
  {
    "category": "한식",
    "name": "똘똘이네M카페",
    "main_item": "생삼겹(100g)",
    "price": "3,000",
    "phone": "031-278-5081",
    "address": "경기도 수원시 권선구 고색로 54번길66 (고색동)",
    "lat": 37.2474159314554,
    "lng": 126.983768254338,
    "region_1depth": "경기",
    "region_2depth": "수원시 권선구"
  },
  {
    "category": "한식",
    "name": "뚱가네",
    "main_item": "차돌된장찌개",
    "price": "7,000",
    "phone": "031-234-5208",
    "address": "경기도 수원시 영통구 영통로 217번길5 (영통동)",
    "lat": 37.2466692531637,
    "lng": 127.056605302185,
    "region_1depth": "경기",
    "region_2depth": "수원시 영통구"
  },
  {
    "category": "기타요식업",
    "name": "로스터리 비엔티 카페 마슬",
    "main_item": "아메리카노",
    "price": "3,000",
    "phone": "",
    "address": "경기도 수원시 영통구 산남로 26-13 (매탄동) 103호",
    "lat": 37.2650960955148,
    "lng": 127.049220925129,
    "region_1depth": "경기",
    "region_2depth": "수원시 영통구"
  },
  {
    "category": "기타요식업",
    "name": "마음(MAUM)",
    "main_item": "아이스티",
    "price": "1,800",
    "phone": "",
    "address": "경기도 수원시 영통구 매영로 87 (매탄동) 1층",
    "lat": 37.2680301345641,
    "lng": 127.052423009964,
    "region_1depth": "경기",
    "region_2depth": "수원시 영통구"
  },
  {
    "category": "양식",
    "name": "마이미마",
    "main_item": "까르보나라 파스타",
    "price": "15,000",
    "phone": "0507-1479-7751",
    "address": "경기도 수원시 팔달구 신풍로 48-5 (신풍동) 1층",
    "lat": 37.2853077568286,
    "lng": 127.014503485897,
    "region_1depth": "경기",
    "region_2depth": "수원시 팔달구"
  },
  {
    "category": "한식",
    "name": "마포생고기",
    "main_item": "삼겹살(600g)",
    "price": "30,000",
    "phone": "031-255-1264",
    "address": "경기도 수원시 팔달구 향교로 132-1",
    "lat": 37.2726246041374,
    "lng": 127.014707946316,
    "region_1depth": "경기",
    "region_2depth": "수원시 팔달구"
  },
  {
    "category": "한식",
    "name": "만두가게",
    "main_item": "만두",
    "price": "6,000",
    "phone": "031-251-3900",
    "address": "경기도 수원시 팔달구 수원천로 315 (남수동) 1층",
    "lat": 37.2814890446505,
    "lng": 127.017923609439,
    "region_1depth": "경기",
    "region_2depth": "수원시 팔달구"
  },
  {
    "category": "한식",
    "name": "만두촌",
    "main_item": "고기찐만두(10개)",
    "price": "5,000",
    "phone": "031-295-8798",
    "address": "경기도 수원시 권선구 하탑로 39 (탑동) 102호",
    "lat": 37.2691559459657,
    "lng": 126.975886654383,
    "region_1depth": "경기",
    "region_2depth": "수원시 권선구"
  },
  {
    "category": "기타요식업",
    "name": "메종드커피",
    "main_item": "아메리카노",
    "price": "3,400",
    "phone": "031-258-3545",
    "address": "경기도 수원시 팔달구 매산로 131 (교동) 1층",
    "lat": 37.2721698423741,
    "lng": 127.014759609162,
    "region_1depth": "경기",
    "region_2depth": "수원시 팔달구"
  },
  {
    "category": "기타요식업",
    "name": "명랑꽈배기",
    "main_item": "찹쌀꽈배기(3개)",
    "price": "2,000",
    "phone": "010-9532-0088",
    "address": "경기도 수원시 권선구 하탑로 43 (탑동) 1층",
    "lat": 37.2693035475054,
    "lng": 126.976388091193,
    "region_1depth": "경기",
    "region_2depth": "수원시 권선구"
  },
  {
    "category": "한식",
    "name": "모이세 분식",
    "main_item": "돈까스",
    "price": "8,000",
    "phone": "031-245-1189",
    "address": "경기도 수원시 팔달구 팔달문로3번길 5 (팔달로2가)",
    "lat": 37.2779056593256,
    "lng": 127.017591481138,
    "region_1depth": "경기",
    "region_2depth": "수원시 팔달구"
  },
  {
    "category": "한식",
    "name": "못골해장국",
    "main_item": "선지해장국",
    "price": "6,000",
    "phone": "031-278-3493",
    "address": "경기도 수원시 권선구 금호로246번길 15-4 1층",
    "lat": 37.2749502849126,
    "lng": 126.977331077535,
    "region_1depth": "경기",
    "region_2depth": "수원시 권선구"
  },
  {
    "category": "한식",
    "name": "미랑",
    "main_item": "소고기국밥",
    "price": "5,900",
    "phone": "031-255-7200",
    "address": "경기도 수원시 장안구 만석로 181 (송죽동) 1층",
    "lat": 37.3030356563313,
    "lng": 126.99928872093,
    "region_1depth": "경기",
    "region_2depth": "수원시 장안구"
  },
  {
    "category": "기타요식업",
    "name": "미오스카페",
    "main_item": "아메리카노",
    "price": "2,500",
    "phone": "",
    "address": "경기도 수원시 팔달구 창룡대로 23 (매향동) .",
    "lat": 37.2824901289746,
    "lng": 127.019989784107,
    "region_1depth": "경기",
    "region_2depth": "수원시 팔달구"
  },
  {
    "category": "한식",
    "name": "백천홍두깨칼국수",
    "main_item": "칼국수(보통)",
    "price": "5,000",
    "phone": "070-7559-1261",
    "address": "경기도 수원시 팔달구 수원천로 264번길 21-11",
    "lat": 37.2774167510803,
    "lng": 127.019892600036,
    "region_1depth": "경기",
    "region_2depth": "수원시 팔달구"
  },
  {
    "category": "한식",
    "name": "분식나라 김밥마을",
    "main_item": "비빔밥",
    "price": "7,000",
    "phone": "031-206-0599",
    "address": "경기도 수원시 영통구 덕영대로 1699 (영통동)",
    "lat": 37.2479713166815,
    "lng": 127.077097970377,
    "region_1depth": "경기",
    "region_2depth": "수원시 영통구"
  },
  {
    "category": "기타요식업",
    "name": "붕붕샐러드",
    "main_item": "커피",
    "price": "3,000",
    "phone": "031-206-9891",
    "address": "경기도 수원시 영통구 신원로 146 .",
    "lat": 37.2494809372827,
    "lng": 127.057033352061,
    "region_1depth": "경기",
    "region_2depth": "수원시 영통구"
  },
  {
    "category": "기타요식업",
    "name": "사랑이네 베트남쌀국수",
    "main_item": "쌀국수",
    "price": "5,000",
    "phone": "010-3122-7457",
    "address": "경기도 수원시 장안구 조원로89번길 44-2 (조원동) 1층",
    "lat": 37.2996831583369,
    "lng": 127.013971625828,
    "region_1depth": "경기",
    "region_2depth": "수원시 장안구"
  },
  {
    "category": "양식",
    "name": "샐러디치오도씨 수원성대점",
    "main_item": "햄치즈샌드위치",
    "price": "5,900",
    "phone": "",
    "address": "경기도 수원시 장안구 서부로2106번길 21 (율전동) 1층 4호",
    "lat": 37.2972648364225,
    "lng": 126.971353862296,
    "region_1depth": "경기",
    "region_2depth": "수원시 장안구"
  },
  {
    "category": "한식",
    "name": "선행분식",
    "main_item": "떡볶이",
    "price": "4,000",
    "phone": "",
    "address": "경기도 수원시 영통구 신원로198번길 47-10 (매탄동) 1층",
    "lat": 37.2545685590164,
    "lng": 127.061421384989,
    "region_1depth": "경기",
    "region_2depth": "수원시 영통구"
  },
  {
    "category": "양식",
    "name": "셰프스위트",
    "main_item": "까르보나라",
    "price": "15,000",
    "phone": "031-242-6898",
    "address": "경기도 수원시 팔달구 정조로801번길 27 .",
    "lat": 37.2799701026106,
    "lng": 127.015122752148,
    "region_1depth": "경기",
    "region_2depth": "수원시 팔달구"
  },
  {
    "category": "한식",
    "name": "수원칼국수",
    "main_item": "옛날칼국수",
    "price": "8,000",
    "phone": "031-205-2006",
    "address": "경기도 수원시 영통구 태장로 81 (망포동) 103호",
    "lat": 37.2397824033964,
    "lng": 127.05484136067,
    "region_1depth": "경기",
    "region_2depth": "수원시 영통구"
  },
  {
    "category": "한식",
    "name": "순보리네식당",
    "main_item": "된장찌개+생선",
    "price": "8,000",
    "phone": "031-225-5464",
    "address": "경기도 수원시 팔달구 장다리로 163",
    "lat": 37.2645733258895,
    "lng": 127.023726888862,
    "region_1depth": "경기",
    "region_2depth": "수원시 팔달구"
  },
  {
    "category": "양식",
    "name": "스타마법요리",
    "main_item": "피자 한판(M 2인용 포장시)",
    "price": "10,000",
    "phone": "031-291-8485",
    "address": "경기도 수원시 권선구 매실로53번길 19",
    "lat": 37.2686668169072,
    "lng": 126.956244096251,
    "region_1depth": "경기",
    "region_2depth": "수원시 권선구"
  },
  {
    "category": "한식",
    "name": "시골밥집",
    "main_item": "김치찌개",
    "price": "7,000",
    "phone": "031-257-6717",
    "address": "경기도 수원시 장안구 파장로76번길 25 (파장동)",
    "lat": 37.3071359051579,
    "lng": 126.99333824927,
    "region_1depth": "경기",
    "region_2depth": "수원시 장안구"
  },
  {
    "category": "중식",
    "name": "신화춘",
    "main_item": "짜장면",
    "price": "6,500",
    "phone": "031-207-0571",
    "address": "경기도 수원시 장안구 송원로 83 (조원동) B동 108호",
    "lat": 37.3024483402569,
    "lng": 127.009523801531,
    "region_1depth": "경기",
    "region_2depth": "수원시 장안구"
  },
  {
    "category": "기타요식업",
    "name": "알뜰커피",
    "main_item": "아메리카노",
    "price": "2,000",
    "phone": "",
    "address": "경기도 수원시 팔달구 창룡대로 8 (남수동) .",
    "lat": 37.2816757839512,
    "lng": 127.017631148753,
    "region_1depth": "경기",
    "region_2depth": "수원시 팔달구"
  },
  {
    "category": "기타요식업",
    "name": "언니네 커피",
    "main_item": "아메리카노",
    "price": "2,300",
    "phone": "031-695-5928",
    "address": "경기도 수원시 영통구 신원로 88 .",
    "lat": 37.2474668310069,
    "lng": 127.050275929193,
    "region_1depth": "경기",
    "region_2depth": "수원시 영통구"
  },
  {
    "category": "기타요식업",
    "name": "엘린컴퍼니",
    "main_item": "아메리카노",
    "price": "3,000",
    "phone": "070-8019-1225",
    "address": "경기도 수원시 영통구 권선로882번길 71-5 (신동) 1층 105호",
    "lat": 37.2473076922905,
    "lng": 127.041986050021,
    "region_1depth": "경기",
    "region_2depth": "수원시 영통구"
  },
  {
    "category": "한식",
    "name": "영아네",
    "main_item": "된장찌개",
    "price": "7,000",
    "phone": "",
    "address": "경기도 수원시 영통구 중부대로256번길 54 (매탄동) .",
    "lat": 37.272326995389,
    "lng": 127.042604946239,
    "region_1depth": "경기",
    "region_2depth": "수원시 영통구"
  },
  {
    "category": "한식",
    "name": "영풍생고기",
    "main_item": "삼겹살",
    "price": "13,000",
    "phone": "031-214-3326",
    "address": "경기도 수원시 팔달구 권광로276번길 9 (인계동)",
    "lat": 37.2725001652899,
    "lng": 127.036426654822,
    "region_1depth": "경기",
    "region_2depth": "수원시 팔달구"
  },
  {
    "category": "한식",
    "name": "예전각전복설렁탕",
    "main_item": "설렁탕",
    "price": "7,900",
    "phone": "031-245-2003",
    "address": "경기도 수원시 장안구 경수대로 816 (영화동) (영화동)",
    "lat": 37.2944242554441,
    "lng": 127.017372132903,
    "region_1depth": "경기",
    "region_2depth": "수원시 장안구"
  },
  {
    "category": "한식",
    "name": "옛날손칼국수",
    "main_item": "칼국수",
    "price": "5,000",
    "phone": "031-232-9298",
    "address": "경기도 수원시 팔달구 중부대로 36-1 (인계동)",
    "lat": 37.2751064122674,
    "lng": 127.0208322338,
    "region_1depth": "경기",
    "region_2depth": "수원시 팔달구"
  },
  {
    "category": "한식",
    "name": "오늘은 분식",
    "main_item": "떡볶이",
    "price": "3,000",
    "phone": "031-212-3849",
    "address": "경기도 수원시 영통구 권광로260번길 36 (매탄동, 현대힐스테이트아파트) 상가2동 119호",
    "lat": 37.2721364915926,
    "lng": 127.041914258026,
    "region_1depth": "경기",
    "region_2depth": "수원시 영통구"
  },
  {
    "category": "기타요식업",
    "name": "요거트산토커피",
    "main_item": "아메리카노",
    "price": "2,500",
    "phone": "",
    "address": "경기도 수원시 영통구 도청로 95 (이의동) 알파동b1-109호",
    "lat": 37.2909145404172,
    "lng": 127.047788681631,
    "region_1depth": "경기",
    "region_2depth": "수원시 영통구"
  },
  {
    "category": "기타요식업",
    "name": "요고트팜",
    "main_item": "아메리카노",
    "price": "1,500",
    "phone": "031-306-0608",
    "address": "경기도 수원시 영통구 아주로 34 (원천동) 1층",
    "lat": 37.2778493842659,
    "lng": 127.044075357756,
    "region_1depth": "경기",
    "region_2depth": "수원시 영통구"
  },
  {
    "category": "기타요식업",
    "name": "웨이컬리(wakerley)",
    "main_item": "녹차",
    "price": "3,800",
    "phone": "",
    "address": "경기도 수원시 영통구 매탄로79번길 5-1 (매탄동) 1층",
    "lat": 37.2580892187128,
    "lng": 127.041996316905,
    "region_1depth": "경기",
    "region_2depth": "수원시 영통구"
  },
  {
    "category": "한식",
    "name": "이화식당",
    "main_item": "김치찌개",
    "price": "7,000",
    "phone": "031-238-2097",
    "address": "경기도 수원시 팔달구 중부대로128번길 62 (인계동) .",
    "lat": 37.2755468295559,
    "lng": 127.029016981781,
    "region_1depth": "경기",
    "region_2depth": "수원시 팔달구"
  },
  {
    "category": "한식",
    "name": "인성한식부페",
    "main_item": "식사(성인)",
    "price": "8,000",
    "phone": "031-268-3351",
    "address": "경기도 수원시 팔달구 수성로157번길 49-8 (화서동) 1층",
    "lat": 37.2882372863945,
    "lng": 126.988634394458,
    "region_1depth": "경기",
    "region_2depth": "수원시 팔달구"
  },
  {
    "category": "한식",
    "name": "일미닭갈비파전",
    "main_item": "닭갈비",
    "price": "7,900",
    "phone": "031-217-1242",
    "address": "경기도 수원시 팔달구 아주로 47번길 12 .",
    "lat": 37.2792304225639,
    "lng": 127.043056713631,
    "region_1depth": "경기",
    "region_2depth": "수원시 팔달구"
  },
  {
    "category": "한식",
    "name": "장터밥상",
    "main_item": "된장찌개",
    "price": "8,000",
    "phone": "031-203-4846",
    "address": "경기도 수원시 영통구 반달로46 .",
    "lat": 37.2501477734784,
    "lng": 127.076705685008,
    "region_1depth": "경기",
    "region_2depth": "수원시 영통구"
  },
  {
    "category": "한식",
    "name": "전주식당",
    "main_item": "칼국수",
    "price": "7,000",
    "phone": "031-244-1717",
    "address": "경기도 수원시 장안구 수성로382번길 38-11 (영화동) .",
    "lat": 37.2920527127571,
    "lng": 127.01480488181,
    "region_1depth": "경기",
    "region_2depth": "수원시 장안구"
  },
  {
    "category": "한식",
    "name": "정가네손칼국수",
    "main_item": "칼국수",
    "price": "6,000",
    "phone": "031-252-9696",
    "address": "경기도 수원시 장안구 장안로75번길 52-2 102호(정자동)",
    "lat": 37.2903281507546,
    "lng": 127.000141983781,
    "region_1depth": "경기",
    "region_2depth": "수원시 장안구"
  },
  {
    "category": "기타요식업",
    "name": "조이커피샌드위치",
    "main_item": "아메리카노",
    "price": "1,500",
    "phone": "031-204-0705",
    "address": "경기도 수원시 영통구 영통로 169 1층",
    "lat": 37.2426372922518,
    "lng": 127.055000763816,
    "region_1depth": "경기",
    "region_2depth": "수원시 영통구"
  },
  {
    "category": "한식",
    "name": "좋은고기",
    "main_item": "생삼겹살(170g)",
    "price": "13,000",
    "phone": "031-233-7727",
    "address": "경기도 수원시 권선구 세지로4번길 7-15",
    "lat": 37.2531492280719,
    "lng": 127.015236646991,
    "region_1depth": "경기",
    "region_2depth": "수원시 권선구"
  },
  {
    "category": "한식",
    "name": "중앙국수",
    "main_item": "잔치국수",
    "price": "4,000",
    "phone": "031-255-6614",
    "address": "경기도 수원시 팔달구 팔달문로 7 (팔달로2가) 2층",
    "lat": 37.2777010228595,
    "lng": 127.018254439985,
    "region_1depth": "경기",
    "region_2depth": "수원시 팔달구"
  },
  {
    "category": "한식",
    "name": "지동손칼국수",
    "main_item": "바지락 칼국수",
    "price": "7,000",
    "phone": "031-254-4236",
    "address": "경기도 수원시 팔달구 세지로 298-1 (지동) .",
    "lat": 37.277747220751,
    "lng": 127.023956535737,
    "region_1depth": "경기",
    "region_2depth": "수원시 팔달구"
  },
  {
    "category": "기타요식업",
    "name": "지동슈퍼",
    "main_item": "아메리카노",
    "price": "2,900",
    "phone": "",
    "address": "경기도 수원시 팔달구 창룡문로 75-2 (지동) .",
    "lat": 37.2837817382696,
    "lng": 127.024030279922,
    "region_1depth": "경기",
    "region_2depth": "수원시 팔달구"
  },
  {
    "category": "한식",
    "name": "진천생고기",
    "main_item": "등심(한우 150g)",
    "price": "29,000",
    "phone": "031-256-3074",
    "address": "경기도 수원시 장안구 정조로934번길 25 (영화동)",
    "lat": 37.2916710428872,
    "lng": 127.013983451784,
    "region_1depth": "경기",
    "region_2depth": "수원시 장안구"
  },
  {
    "category": "한식",
    "name": "착한설렁탕",
    "main_item": "설렁탕",
    "price": "8,500",
    "phone": "",
    "address": "경기도 수원시 팔달구 장다리로 222 (인계동) 1층",
    "lat": 37.2695163593816,
    "lng": 127.026246238699,
    "region_1depth": "경기",
    "region_2depth": "수원시 팔달구"
  },
  {
    "category": "한식",
    "name": "착한칼국수",
    "main_item": "칼국수",
    "price": "6,000",
    "phone": "031-252-3359",
    "address": "경기도 수원시 팔달구 수원천로 258번길 13 1층",
    "lat": 37.2765731255192,
    "lng": 127.020315094734,
    "region_1depth": "경기",
    "region_2depth": "수원시 팔달구"
  },
  {
    "category": "한식",
    "name": "천연석돌구이",
    "main_item": "백반정식",
    "price": "6,500",
    "phone": "031-213-3408",
    "address": "경기도 수원시 영통구 삼성로 274 (원천동) 지하1층 상가 27,30호",
    "lat": 37.265612968071,
    "lng": 127.064363011499,
    "region_1depth": "경기",
    "region_2depth": "수원시 영통구"
  },
  {
    "category": "한식",
    "name": "청명쭈꾸미철판구이",
    "main_item": "물냉면",
    "price": "7,000",
    "phone": "031-239-7892",
    "address": "경기도 수원시 권선구 권중로56번길 48",
    "lat": 37.2530197407918,
    "lng": 127.028833061446,
    "region_1depth": "경기",
    "region_2depth": "수원시 권선구"
  },
  {
    "category": "일식",
    "name": "초이스시",
    "main_item": "초밥 A세트",
    "price": "14,000",
    "phone": "031-309-0707",
    "address": "경기도 수원시 팔달구 팔달문로153번길 7 (우만동, 스타맨션) 1층 101호",
    "lat": 37.2832015254244,
    "lng": 127.032476713244,
    "region_1depth": "경기",
    "region_2depth": "수원시 팔달구"
  },
  {
    "category": "일식",
    "name": "츠요이",
    "main_item": "츠초밥",
    "price": "15,000",
    "phone": "031-252-6898",
    "address": "경기도 수원시 팔달구 정조로801번길 27",
    "lat": 37.2799701026106,
    "lng": 127.015122752148,
    "region_1depth": "경기",
    "region_2depth": "수원시 팔달구"
  },
  {
    "category": "기타요식업",
    "name": "카페레쟈망",
    "main_item": "아메리카노",
    "price": "1,500",
    "phone": "031-241-0452",
    "address": "경기도 수원시 팔달구 덕영대로 지하911 (매산로1가) 18호",
    "lat": 37.2674076761068,
    "lng": 127.000666298446,
    "region_1depth": "경기",
    "region_2depth": "수원시 팔달구"
  },
  {
    "category": "기타요식업",
    "name": "카페해피타임",
    "main_item": "아메리카노",
    "price": "2,000",
    "phone": "031-271-1280",
    "address": "경기도 수원시 장안구 수성로261번길 75 1층(정자동)",
    "lat": 37.2928537525628,
    "lng": 126.998651278162,
    "region_1depth": "경기",
    "region_2depth": "수원시 장안구"
  },
  {
    "category": "기타요식업",
    "name": "커피9",
    "main_item": "아메리카노",
    "price": "1,800",
    "phone": "031-306-3939",
    "address": "경기도 수원시 장안구 화산로203번길 34 (율전동) 1층 2호",
    "lat": 37.2980681923804,
    "lng": 126.973643351102,
    "region_1depth": "경기",
    "region_2depth": "수원시 장안구"
  },
  {
    "category": "한식",
    "name": "큰집 멸치국수",
    "main_item": "칼국수",
    "price": "6,500",
    "phone": "031-305-5220",
    "address": "경기도 수원시 권선구 세권로195번길 26 (권선동) 1층",
    "lat": 37.2564849477032,
    "lng": 127.026234164416,
    "region_1depth": "경기",
    "region_2depth": "수원시 권선구"
  },
  {
    "category": "한식",
    "name": "통큰칼국수",
    "main_item": "칼국수",
    "price": "6,000",
    "phone": "031-248-9464",
    "address": "경기도 수원시 팔달구 중부대로17번길 14 (영동)",
    "lat": 37.2760022838281,
    "lng": 127.018879587139,
    "region_1depth": "경기",
    "region_2depth": "수원시 팔달구"
  },
  {
    "category": "한식",
    "name": "푸드맘(교동점)",
    "main_item": "그린김밥",
    "price": "3,000",
    "phone": "031-236-6777",
    "address": "경기도 수원시 팔달구 매산로 128 (교동)",
    "lat": 37.2717413979748,
    "lng": 127.014755015634,
    "region_1depth": "경기",
    "region_2depth": "수원시 팔달구"
  },
  {
    "category": "한식",
    "name": "푸딩김밥",
    "main_item": "김밥",
    "price": "3,000",
    "phone": "031-254-2567",
    "address": "경기도 수원시 팔달구 세지로 421",
    "lat": 37.2865100730921,
    "lng": 127.030703371177,
    "region_1depth": "경기",
    "region_2depth": "수원시 팔달구"
  },
  {
    "category": "한식",
    "name": "풍년식당",
    "main_item": "설렁탕",
    "price": "9,000",
    "phone": "031-243-8237",
    "address": "경기도 수원시 장안구 팔달로 271번길 40 (영화동)",
    "lat": 37.2911594870225,
    "lng": 127.013523004316,
    "region_1depth": "경기",
    "region_2depth": "수원시 장안구"
  },
  {
    "category": "한식",
    "name": "한우돈가",
    "main_item": "한우 등심(100g)",
    "price": "16,000",
    "phone": "031-296-8592",
    "address": "경기도 수원시 권선구 효탑로 51 (탑동)",
    "lat": 37.2680653770342,
    "lng": 126.9727987779,
    "region_1depth": "경기",
    "region_2depth": "수원시 권선구"
  },
  {
    "category": "한식",
    "name": "항아리쭈꾸미",
    "main_item": "주꾸미볶음",
    "price": "10,000",
    "phone": "031-202-1208",
    "address": "경기도 수원시 영통구 덕영대로1556번길 16 (영통동) 170호",
    "lat": 37.2452635378131,
    "lng": 127.059176131052,
    "region_1depth": "경기",
    "region_2depth": "수원시 영통구"
  },
  {
    "category": "한식",
    "name": "해운대 국밥",
    "main_item": "소고기국밥",
    "price": "3,500",
    "phone": "031-245-5582",
    "address": "경기도 수원시 팔달구 행궁로 106 1층",
    "lat": 37.2731474278079,
    "lng": 127.01579777108,
    "region_1depth": "경기",
    "region_2depth": "수원시 팔달구"
  },
  {
    "category": "한식",
    "name": "홍두깨",
    "main_item": "칼국수",
    "price": "6,000",
    "phone": "031-247-3351",
    "address": "경기도 수원시 팔달구 정조로758번길 21",
    "lat": 37.2757878760847,
    "lng": 127.018046286349,
    "region_1depth": "경기",
    "region_2depth": "수원시 팔달구"
  },
  {
    "category": "한식",
    "name": "황금족발순대국",
    "main_item": "족발(소)",
    "price": "29,000",
    "phone": "031-217-7877",
    "address": "경기도 수원시 영통구 권광로260번길 36 (매탄동, 현대힐스테이트아파트) 106호",
    "lat": 37.2721364915926,
    "lng": 127.041914258026,
    "region_1depth": "경기",
    "region_2depth": "수원시 영통구"
  },
  {
    "category": "한식",
    "name": "황보네 분식",
    "main_item": "황보네 김밥",
    "price": "2,000",
    "phone": "031-226-0137",
    "address": "경기도 수원시 권선구 권광로 89 (권선동) .",
    "lat": 37.2558715915652,
    "lng": 127.029371840149,
    "region_1depth": "경기",
    "region_2depth": "수원시 권선구"
  },
  {
    "category": "한식",
    "name": "흥부네정육식당",
    "main_item": "돼지갈비(250g)",
    "price": "13,000",
    "phone": "031-269-0080",
    "address": "경기도 수원시 장안구 정자로 146 한솔빌딩 1층",
    "lat": 37.303957802349,
    "lng": 126.992356532922,
    "region_1depth": "경기",
    "region_2depth": "수원시 장안구"
  },
  {
    "category": "일식",
    "name": "광어한마리",
    "main_item": "광어회",
    "price": "13,000",
    "phone": "031-754-7878",
    "address": "경기도 성남시 수정구 수정남로 51 (수진동) 광어한마리",
    "lat": 37.440655853999,
    "lng": 127.133395072547,
    "region_1depth": "경기",
    "region_2depth": "성남시 수정구"
  },
  {
    "category": "양식",
    "name": "더 그린",
    "main_item": "수비드닭가슴살 샐러드`",
    "price": "8,000",
    "phone": "",
    "address": "경기도 성남시 분당구 미금로 45 (구미동) 진도훼미리 프라자 1층 110호",
    "lat": 37.3373516330101,
    "lng": 127.115784120324,
    "region_1depth": "경기",
    "region_2depth": "성남시 분당구"
  },
  {
    "category": "한식",
    "name": "도세기 맛집",
    "main_item": "된장찌개",
    "price": "7,000",
    "phone": "031-743-8610",
    "address": "경기도 성남시 수정구 산성대로383번길 6",
    "lat": 37.4467205775359,
    "lng": 127.156944429392,
    "region_1depth": "경기",
    "region_2depth": "성남시 수정구"
  },
  {
    "category": "한식",
    "name": "돈까스브라더스",
    "main_item": "브라더돈까스",
    "price": "8,500",
    "phone": "031-717-0059",
    "address": "경기도 성남시 분당구 내정로165번길 38 (수내동, 양지마을금호아파트) 금호행복시장 지하1층 20호",
    "lat": 37.3765713670859,
    "lng": 127.116253996544,
    "region_1depth": "경기",
    "region_2depth": "성남시 분당구"
  },
  {
    "category": "한식",
    "name": "드루와포차",
    "main_item": "닭볶음탕",
    "price": "30,000",
    "phone": "031-749-3377",
    "address": "경기도 성남시 수정구 산성대로437번길 7 (단대동, 푸르지오) 단대동 드루와포차",
    "lat": 37.4508227399554,
    "lng": 127.157598882666,
    "region_1depth": "경기",
    "region_2depth": "성남시 수정구"
  },
  {
    "category": "일식",
    "name": "땅끝수산",
    "main_item": "활어초밥",
    "price": "17,000",
    "phone": "",
    "address": "경기도 성남시 분당구 효자길 15-1 (서현동) 땅끝수산",
    "lat": 37.3786372361808,
    "lng": 127.13773447999,
    "region_1depth": "경기",
    "region_2depth": "성남시 분당구"
  },
  {
    "category": "한식",
    "name": "만나분식",
    "main_item": "야채김밥",
    "price": "2,500",
    "phone": "0507-1361-0937",
    "address": "경기도 성남시 수정구 남문로101번길 7-2 (태평동) 만나분식",
    "lat": 37.4476991304993,
    "lng": 127.137672942563,
    "region_1depth": "경기",
    "region_2depth": "성남시 수정구"
  },
  {
    "category": "중식",
    "name": "만리장성",
    "main_item": "짜장면",
    "price": "6,500",
    "phone": "031-713-8008",
    "address": "경기도 성남시 분당구 불곡남로7번길 4 (정자동) 1층 만리장성",
    "lat": 37.3587032838657,
    "lng": 127.123216464618,
    "region_1depth": "경기",
    "region_2depth": "성남시 분당구"
  },
  {
    "category": "중식",
    "name": "메이찬",
    "main_item": "짜장면",
    "price": "7,000",
    "phone": "031-716-9090",
    "address": "경기도 성남시 미금일로 90번길 36-5 (구미동)",
    "lat": 37.3493126407812,
    "lng": 127.110486744256,
    "region_1depth": "경기",
    "region_2depth": "성남시 분당구"
  },
  {
    "category": "한식",
    "name": "명동스넥",
    "main_item": "김치찌개",
    "price": "7,000",
    "phone": "031-708-6881",
    "address": "경기도 성남시 분당구 판교로 436 (이매동)",
    "lat": 37.4051616582334,
    "lng": 127.122198837556,
    "region_1depth": "경기",
    "region_2depth": "성남시 분당구"
  },
  {
    "category": "중식",
    "name": "바다해물짬뽕",
    "main_item": "짬뽕",
    "price": "4,900",
    "phone": "",
    "address": "경기도 성남시 수정로 135번길 24",
    "lat": 37.4439905635848,
    "lng": 127.134379956452,
    "region_1depth": "경기",
    "region_2depth": "성남시 수정구"
  },
  {
    "category": "한식",
    "name": "성남중앙칼국수",
    "main_item": "칼국수",
    "price": "5,000",
    "phone": "031-756-7783",
    "address": "경기도 성남시 수정구 수정로111번길 6-4 (태평동) 성남중앙시장 초입 위치",
    "lat": 37.4415633980229,
    "lng": 127.132636974235,
    "region_1depth": "경기",
    "region_2depth": "성남시 수정구"
  },
  {
    "category": "한식",
    "name": "수내통닭",
    "main_item": "수내통닭1마리",
    "price": "10,900",
    "phone": "",
    "address": "경기도 성남시 분당구 내정로165번길 38 (수내동, 양지마을청구아파트) 청구상가 1층 104호",
    "lat": 37.3765713670859,
    "lng": 127.116253996544,
    "region_1depth": "경기",
    "region_2depth": "성남시 분당구"
  },
  {
    "category": "한식",
    "name": "양푼애등갈비 분당서현본점",
    "main_item": "돼지등갈비찜",
    "price": "15,000",
    "phone": "031-705-8847",
    "address": "경기도 성남시 분당구 서현로 184 (서현동) 207호",
    "lat": 37.3883743368635,
    "lng": 127.123788962899,
    "region_1depth": "경기",
    "region_2depth": "성남시 분당구"
  },
  {
    "category": "한식",
    "name": "어머니손맛",
    "main_item": "김밥",
    "price": "3,000",
    "phone": "",
    "address": "경기도 성남시 중원구 산성대로 80번길 18 1층(성남동, 수성빌딩)",
    "lat": 37.4316158579819,
    "lng": 127.128035441572,
    "region_1depth": "경기",
    "region_2depth": "성남시 중원구"
  },
  {
    "category": "한식",
    "name": "엄니네 쌈냉면",
    "main_item": "고기주는냉면",
    "price": "8,000",
    "phone": "",
    "address": "경기도 성남시 중원구 제일로 35번길 6 1층",
    "lat": 37.4304331577938,
    "lng": 127.136201324828,
    "region_1depth": "경기",
    "region_2depth": "성남시 중원구"
  },
  {
    "category": "기타요식업",
    "name": "오프(off)",
    "main_item": "아메리카노",
    "price": "1,500",
    "phone": "",
    "address": "경기도 성남시 분당구 판교로255번길 9-22 (삼평동) 지하1층 B115호 지하1층  꿀돼지두루치기 뒤편",
    "lat": 37.4040237290805,
    "lng": 127.100089555162,
    "region_1depth": "경기",
    "region_2depth": "성남시 분당구"
  },
  {
    "category": "한식",
    "name": "왕두꺼비부대찌개",
    "main_item": "부대찌개",
    "price": "9,000",
    "phone": "031-717-8707",
    "address": "경기도 성남시 분당구 구미로 11 (구미동)",
    "lat": 37.3384198138731,
    "lng": 127.110594466367,
    "region_1depth": "경기",
    "region_2depth": "성남시 분당구"
  },
  {
    "category": "한식",
    "name": "육회랑 쭈꾸미랑",
    "main_item": "육회",
    "price": "20,000",
    "phone": "",
    "address": "경기도 성남시 수정구 수정남로 71 (수진동)",
    "lat": 37.4413148784033,
    "lng": 127.135592533002,
    "region_1depth": "경기",
    "region_2depth": "성남시 수정구"
  },
  {
    "category": "한식",
    "name": "전주식당",
    "main_item": "선지해장국",
    "price": "4,000",
    "phone": "",
    "address": "경기도 성남시 산성대로 595 1층 (양지동)",
    "lat": 37.4627990945458,
    "lng": 127.1688723137,
    "region_1depth": "경기",
    "region_2depth": "성남시 수정구"
  },
  {
    "category": "한식",
    "name": "주막골 숯불 돼지갈비 삼겹살",
    "main_item": "돼지갈비",
    "price": "13,000",
    "phone": "",
    "address": "경기도 성남시 중원구 금상로108번길 10",
    "lat": 37.4420415095874,
    "lng": 127.167395723524,
    "region_1depth": "경기",
    "region_2depth": "성남시 중원구"
  },
  {
    "category": "중식",
    "name": "짬뽕참잘하는집",
    "main_item": "짜장면",
    "price": "4,000",
    "phone": "031-756-7486",
    "address": "경기도 성남시 수정구 수정로 109 (태평동) 1층  짬뽕참잘하는집",
    "lat": 37.4413976531266,
    "lng": 127.132116988752,
    "region_1depth": "경기",
    "region_2depth": "성남시 수정구"
  },
  {
    "category": "한식",
    "name": "참소한우국밥",
    "main_item": "장터국밥",
    "price": "9,000",
    "phone": "031-749-2757",
    "address": "경기도 성남시 중원구 산성대로350번길 5 (중앙동101)",
    "lat": 37.4435175204362,
    "lng": 127.155477721459,
    "region_1depth": "경기",
    "region_2depth": "성남시 중원구"
  },
  {
    "category": "한식",
    "name": "투가리해장국",
    "main_item": "해장국",
    "price": "4,000",
    "phone": "",
    "address": "경기도 성남시 수정구 산성대로 595 (양지동, 1층)",
    "lat": 37.4627990945458,
    "lng": 127.1688723137,
    "region_1depth": "경기",
    "region_2depth": "성남시 수정구"
  },
  {
    "category": "한식",
    "name": "혜진이네밥상포차",
    "main_item": "한식백반",
    "price": "8,000",
    "phone": "",
    "address": "경기도 성남시 중원구 희망로316번길 9 (상대원동) 혜진이네 밥상포차",
    "lat": 37.4343368583406,
    "lng": 127.159967620792,
    "region_1depth": "경기",
    "region_2depth": "성남시 중원구"
  },
  {
    "category": "한식",
    "name": "고진돈",
    "main_item": "삼겹살 180g",
    "price": "9,900",
    "phone": "0507-1339-6395",
    "address": "경기도 의정부시 신흥로231번길 23 (의정부동) .",
    "lat": 37.736657458096,
    "lng": 127.041954439643,
    "region_1depth": "경기",
    "region_2depth": "의정부시"
  },
  {
    "category": "한식",
    "name": "곰보냉면",
    "main_item": "물냉면",
    "price": "8,000",
    "phone": "031-848-1755",
    "address": "경기도 의정부시 태평로73번길 20 나동 46호",
    "lat": 37.7401266278419,
    "lng": 127.050067899137,
    "region_1depth": "경기",
    "region_2depth": "의정부시"
  },
  {
    "category": "한식",
    "name": "공씨김밥",
    "main_item": "김밥",
    "price": "3,500",
    "phone": "031-837-1889",
    "address": "경기도 의정부시 회룡로105번길 12 (호원동, 진원빌라) .",
    "lat": 37.7263622839808,
    "lng": 127.045731052255,
    "region_1depth": "경기",
    "region_2depth": "의정부시"
  },
  {
    "category": "한식",
    "name": "공주식당",
    "main_item": "백반",
    "price": "7,000",
    "phone": "031-872-8767",
    "address": "경기도 의정부시 시민로 지하100 (의정부동) .",
    "lat": 37.739245607783,
    "lng": 127.047583828857,
    "region_1depth": "경기",
    "region_2depth": "의정부시"
  },
  {
    "category": "한식",
    "name": "김밥타운 녹양본점",
    "main_item": "야채김밥",
    "price": "3,500",
    "phone": "031-855-7889",
    "address": "경기도 의정부시 비우로 64 (녹양동) .",
    "lat": 37.7579452744271,
    "lng": 127.033793320842,
    "region_1depth": "경기",
    "region_2depth": "의정부시"
  },
  {
    "category": "한식",
    "name": "꼬꼬파티",
    "main_item": "옛날통닭",
    "price": "9,000",
    "phone": "0507-1305-5180",
    "address": "경기도 의정부시 범골로 42 (호원동) 1층",
    "lat": 37.7287617264126,
    "lng": 127.039031601861,
    "region_1depth": "경기",
    "region_2depth": "의정부시"
  },
  {
    "category": "한식",
    "name": "나드리분식",
    "main_item": "김치찌개",
    "price": "6,500",
    "phone": "031-871-7983",
    "address": "경기도 의정부시 흥선로16번길 91",
    "lat": 37.7439411668313,
    "lng": 127.026809972319,
    "region_1depth": "경기",
    "region_2depth": "의정부시"
  },
  {
    "category": "한식",
    "name": "닭집",
    "main_item": "한식뷔페",
    "price": "6,600",
    "phone": "031-876-5093",
    "address": "경기도 의정부시 신촌로 36-3 (가능동)",
    "lat": 37.7500718238741,
    "lng": 127.038458312971,
    "region_1depth": "경기",
    "region_2depth": "의정부시"
  },
  {
    "category": "한식",
    "name": "대박정육식당",
    "main_item": "삼겹살 200g",
    "price": "12,000",
    "phone": "0507-1333-3528",
    "address": "경기도 의정부시 신촌로29번길 10 (가능동) .",
    "lat": 37.7507995948605,
    "lng": 127.037717048277,
    "region_1depth": "경기",
    "region_2depth": "의정부시"
  },
  {
    "category": "한식",
    "name": "대일식당",
    "main_item": "된장찌개",
    "price": "7,000",
    "phone": "031-846-4036",
    "address": "경기도 의정부시 가능로135번길 21 (의정부동) .",
    "lat": 37.7479071079518,
    "lng": 127.045900208843,
    "region_1depth": "경기",
    "region_2depth": "의정부시"
  },
  {
    "category": "한식",
    "name": "두레마을 우동집",
    "main_item": "우동",
    "price": "6,000",
    "phone": "031-871-3344",
    "address": "경기도 의정부시 신흥로240번길 21 (의정부동) .",
    "lat": 37.7378187488762,
    "lng": 127.044570693995,
    "region_1depth": "경기",
    "region_2depth": "의정부시"
  },
  {
    "category": "한식",
    "name": "따뜻한 밥상",
    "main_item": "김치찌개",
    "price": "3,000",
    "phone": "070-8800-0691",
    "address": "경기도 의정부시 흥선로 81 (가능동) ,",
    "lat": 37.7428109604243,
    "lng": 127.036049699626,
    "region_1depth": "경기",
    "region_2depth": "의정부시"
  },
  {
    "category": "한식",
    "name": "또리네 꽃게랑 동태랑",
    "main_item": "동태탕",
    "price": "7,000",
    "phone": "",
    "address": "경기도 의정부시 신곡로 53 1층 촤측 (신곡동)",
    "lat": 37.7315551058316,
    "lng": 127.056374883074,
    "region_1depth": "경기",
    "region_2depth": "의정부시"
  },
  {
    "category": "한식",
    "name": "뚱보할머니분식",
    "main_item": "칼국수",
    "price": "6,000",
    "phone": "",
    "address": "경기도 의정부시 태평로194번길 6 (가능동) .",
    "lat": 37.7488943343553,
    "lng": 127.047849279189,
    "region_1depth": "경기",
    "region_2depth": "의정부시"
  },
  {
    "category": "기타요식업",
    "name": "망구스디저트카페",
    "main_item": "휘낭시에 2개",
    "price": "3,000",
    "phone": "070-5103-4327",
    "address": "경기도 의정부시 평화로 324 104호 (호원동)",
    "lat": 37.7208134363164,
    "lng": 127.04785582399,
    "region_1depth": "경기",
    "region_2depth": "의정부시"
  },
  {
    "category": "한식",
    "name": "명동진칼국수",
    "main_item": "칼국수",
    "price": "8,000",
    "phone": "0507-1395-6672",
    "address": "경기도 의정부시 신흥로240번길 21 (의정부동) .",
    "lat": 37.7378187488762,
    "lng": 127.044570693995,
    "region_1depth": "경기",
    "region_2depth": "의정부시"
  },
  {
    "category": "한식",
    "name": "무도리순댓국",
    "main_item": "순대국",
    "price": "8,000",
    "phone": "031-842-3008",
    "address": "경기도 의정부시 시민로 143번길 76",
    "lat": 37.7411111277194,
    "lng": 127.051092497434,
    "region_1depth": "경기",
    "region_2depth": "의정부시"
  },
  {
    "category": "한식",
    "name": "밀가족칼국수",
    "main_item": "칼국수",
    "price": "7,000",
    "phone": "031-826-7788",
    "address": "경기도 의정부시 장곡로 54 .",
    "lat": 37.7093312118763,
    "lng": 127.051999360755,
    "region_1depth": "경기",
    "region_2depth": "의정부시"
  },
  {
    "category": "양식",
    "name": "바사카츠",
    "main_item": "등심돈까스",
    "price": "8,900",
    "phone": "010-5848-5434",
    "address": "경기도 의정부시 망월로 10 (호원동) 101호",
    "lat": 37.7086099812381,
    "lng": 127.046842632702,
    "region_1depth": "경기",
    "region_2depth": "의정부시"
  },
  {
    "category": "한식",
    "name": "발랑국수",
    "main_item": "잔치국수",
    "price": "5,000",
    "phone": "0507-1368-3085",
    "address": "경기도 의정부시 회룡로117번길 45-20 (호원동) .",
    "lat": 37.72798879987,
    "lng": 127.045750542379,
    "region_1depth": "경기",
    "region_2depth": "의정부시"
  },
  {
    "category": "한식",
    "name": "밥심",
    "main_item": "한식뷔페",
    "price": "8,000",
    "phone": "0507-1467-1873",
    "address": "경기도 의정부시 경의로75번길 48 (의정부동, 대산빌라) .",
    "lat": 37.7352734653944,
    "lng": 127.043967220905,
    "region_1depth": "경기",
    "region_2depth": "의정부시"
  },
  {
    "category": "한식",
    "name": "버드나무",
    "main_item": "순댓국",
    "price": "9,000",
    "phone": "0507-1316-6377",
    "address": "경기도 의정부시 발곡로23번길 14 (신곡동) .",
    "lat": 37.7318963111019,
    "lng": 127.057662814619,
    "region_1depth": "경기",
    "region_2depth": "의정부시"
  },
  {
    "category": "한식",
    "name": "보림국수",
    "main_item": "잔치국수",
    "price": "6,000",
    "phone": "031-877-6572",
    "address": "경기도 의정부시 둔야로45번길 8 (의정부동)",
    "lat": 37.740108237019,
    "lng": 127.039145113028,
    "region_1depth": "경기",
    "region_2depth": "의정부시"
  },
  {
    "category": "한식",
    "name": "사랑채보리밥",
    "main_item": "된장찌개",
    "price": "7,000",
    "phone": "031-836-7035",
    "address": "경기도 의정부시 의정로46번길 18",
    "lat": 37.7367931933531,
    "lng": 127.036090345813,
    "region_1depth": "경기",
    "region_2depth": "의정부시"
  },
  {
    "category": "한식",
    "name": "서연이네",
    "main_item": "한식뷔페",
    "price": "8,000",
    "phone": "031-829-3589",
    "address": "경기도 의정부시 신촌로29번길 35 (가능동) .",
    "lat": 37.75199362586,
    "lng": 127.037501603588,
    "region_1depth": "경기",
    "region_2depth": "의정부시"
  },
  {
    "category": "한식",
    "name": "소문난국수",
    "main_item": "잔치국수",
    "price": "6,000",
    "phone": "",
    "address": "경기도 의정부시 시민로53번길 11 (가능동)",
    "lat": 37.7389395931743,
    "lng": 127.040990023171,
    "region_1depth": "경기",
    "region_2depth": "의정부시"
  },
  {
    "category": "한식",
    "name": "소풍간 김밥",
    "main_item": "김밥",
    "price": "3,000",
    "phone": "031-875-0403",
    "address": "경기도 의정부시 평화로 365 (호원동) .",
    "lat": 37.724472231064,
    "lng": 127.047984765904,
    "region_1depth": "경기",
    "region_2depth": "의정부시"
  },
  {
    "category": "양식",
    "name": "송프로피자 의정부점",
    "main_item": "불고기피자",
    "price": "11,000",
    "phone": "031-821-8215",
    "address": "경기도 의정부시 시민로131번길 17 (의정부동) .",
    "lat": 37.7389156979846,
    "lng": 127.04970596562,
    "region_1depth": "경기",
    "region_2depth": "의정부시"
  },
  {
    "category": "한식",
    "name": "숟가락젓가락",
    "main_item": "제육볶음정식",
    "price": "7,000",
    "phone": "031-877-2455",
    "address": "경기도 의정부시 시민로27번길 25 (의정부동) .",
    "lat": 37.7395316063302,
    "lng": 127.03807630887,
    "region_1depth": "경기",
    "region_2depth": "의정부시"
  },
  {
    "category": "한식",
    "name": "쌈채랑",
    "main_item": "월남쌈샤브랑",
    "price": "11,900",
    "phone": "",
    "address": "경기도 의정부시 발곡로 23번길 16 (신곡동)",
    "lat": 37.7320278533559,
    "lng": 127.057661668769,
    "region_1depth": "경기",
    "region_2depth": "의정부시"
  },
  {
    "category": "한식",
    "name": "아국오국",
    "main_item": "아침국",
    "price": "3,000",
    "phone": "0507-1346-4682",
    "address": "경기도 의정부시 가능로125번길 28 (의정부동) .",
    "lat": 37.7482990212255,
    "lng": 127.044749107365,
    "region_1depth": "경기",
    "region_2depth": "의정부시"
  },
  {
    "category": "한식",
    "name": "영월 시골밥상",
    "main_item": "김치찌개",
    "price": "7,000",
    "phone": "031-852-9866",
    "address": "경기도 의정부시 부용로 213번길 16 (용현동)",
    "lat": 37.7501491762816,
    "lng": 127.080759903591,
    "region_1depth": "경기",
    "region_2depth": "의정부시"
  },
  {
    "category": "한식",
    "name": "옛맛손칼국수",
    "main_item": "칼국수",
    "price": "7,000",
    "phone": "031-846-7231",
    "address": "경기도 의정부시 태평로 96-7 (의정부동) .",
    "lat": 37.7412066399525,
    "lng": 127.052099935074,
    "region_1depth": "경기",
    "region_2depth": "의정부시"
  },
  {
    "category": "일식",
    "name": "오늘도횟집",
    "main_item": "모듬초밥",
    "price": "12,000",
    "phone": "0507-1473-7864",
    "address": "경기도 의정부시 민락로 389 (낙양동) .",
    "lat": 37.7559571032992,
    "lng": 127.112869046382,
    "region_1depth": "경기",
    "region_2depth": "의정부시"
  },
  {
    "category": "한식",
    "name": "옥이네 한식뷔페",
    "main_item": "한식뷔페",
    "price": "8,000",
    "phone": "0310-848-5145",
    "address": "경기도 의정부시 세석로 30 (산곡동) .",
    "lat": 37.729393662333,
    "lng": 127.110112116064,
    "region_1depth": "경기",
    "region_2depth": "의정부시"
  },
  {
    "category": "한식",
    "name": "원도봉산 감자탕",
    "main_item": "비빔밥",
    "price": "7,000",
    "phone": "031-873-7830",
    "address": "경기도 의정부시 망월로 14",
    "lat": 37.7084395816626,
    "lng": 127.046451276133,
    "region_1depth": "경기",
    "region_2depth": "의정부시"
  },
  {
    "category": "한식",
    "name": "유양골 웰빙 보리밥한상",
    "main_item": "백반",
    "price": "6,000",
    "phone": "031-853-5055",
    "address": "경기도 의정부시 용민로 120 (민락동)",
    "lat": 37.7398565117745,
    "lng": 127.090673971806,
    "region_1depth": "경기",
    "region_2depth": "의정부시"
  },
  {
    "category": "한식",
    "name": "윤식당",
    "main_item": "한식뷔페",
    "price": "7,000",
    "phone": "031-855-3999",
    "address": "경기도 의정부시 경의로118번길 20 (의정부동) .",
    "lat": 37.7322435853846,
    "lng": 127.048575934734,
    "region_1depth": "경기",
    "region_2depth": "의정부시"
  },
  {
    "category": "한식",
    "name": "의정부행복부대찌개",
    "main_item": "된장찌개",
    "price": "7,000",
    "phone": "031-877-2410",
    "address": "경기도 의정부시 비우로 56 101호 (녹양동)",
    "lat": 37.7578876004561,
    "lng": 127.032880566555,
    "region_1depth": "경기",
    "region_2depth": "의정부시"
  },
  {
    "category": "한식",
    "name": "이레네칼국수",
    "main_item": "해물칼국수",
    "price": "6,000",
    "phone": "031-853-3321",
    "address": "경기도 의정부시 오목로 99",
    "lat": 37.7370970206248,
    "lng": 127.092186969082,
    "region_1depth": "경기",
    "region_2depth": "의정부시"
  },
  {
    "category": "한식",
    "name": "이모네맛집",
    "main_item": "닭곰탕",
    "price": "7,000",
    "phone": "031-852-7150",
    "address": "경기도 의정부시 부용로210번길 10 (신곡동)",
    "lat": 37.7498159928511,
    "lng": 127.079040377288,
    "region_1depth": "경기",
    "region_2depth": "의정부시"
  },
  {
    "category": "양식",
    "name": "일삼이사",
    "main_item": "까르보나라",
    "price": "13,000",
    "phone": "0507-1348-5744",
    "address": "경기도 의정부시 시민로132번길 4 (의정부동) .",
    "lat": 37.7377820876921,
    "lng": 127.049730620553,
    "region_1depth": "경기",
    "region_2depth": "의정부시"
  },
  {
    "category": "한식",
    "name": "임영옥바지락칼국수",
    "main_item": "바지락 칼국수",
    "price": "8,000",
    "phone": "031-841-4664",
    "address": "경기도 의정부시 오목로15번길 14 (용현동) .",
    "lat": 37.7325382789217,
    "lng": 127.084134399522,
    "region_1depth": "경기",
    "region_2depth": "의정부시"
  },
  {
    "category": "중식",
    "name": "자금성",
    "main_item": "짜장면",
    "price": "5,500",
    "phone": "031-876-7177",
    "address": "경기도 의정부시 회룡로192번길 11 (장암동) 205호",
    "lat": 37.7258235807425,
    "lng": 127.055802583914,
    "region_1depth": "경기",
    "region_2depth": "의정부시"
  },
  {
    "category": "한식",
    "name": "전주식당",
    "main_item": "김치찌개",
    "price": "7,000",
    "phone": "031-851-5178",
    "address": "경기도 의정부시 청사로 47번길 15 골드피아 203호 (금오동)",
    "lat": 37.7521619168927,
    "lng": 127.069023724096,
    "region_1depth": "경기",
    "region_2depth": "의정부시"
  },
  {
    "category": "기타요식업",
    "name": "제이유커피로스터스",
    "main_item": "핸드드립",
    "price": "2,500",
    "phone": "",
    "address": "경기도 의정부시 흥선로24번길 5 (가능동) .",
    "lat": 37.745857357009,
    "lng": 127.030822363351,
    "region_1depth": "경기",
    "region_2depth": "의정부시"
  },
  {
    "category": "한식",
    "name": "조원분식",
    "main_item": "칼국수",
    "price": "7,000",
    "phone": "031-846-1340",
    "address": "경기도 의정부시 태평로73번길 20 나동 31호 (의정부동, 제일시장)",
    "lat": 37.7401266278419,
    "lng": 127.050067899137,
    "region_1depth": "경기",
    "region_2depth": "의정부시"
  },
  {
    "category": "중식",
    "name": "중화각",
    "main_item": "짜장면",
    "price": "5,000",
    "phone": "031-826-7890",
    "address": "경기도 의정부시 시민로158번길 28 2층",
    "lat": 37.7361330200664,
    "lng": 127.052078114371,
    "region_1depth": "경기",
    "region_2depth": "의정부시"
  },
  {
    "category": "한식",
    "name": "차가네 해장국",
    "main_item": "선지해장국",
    "price": "5,500",
    "phone": "031-877-8882",
    "address": "경기도 의정부시 경의로 66 (의정부동)",
    "lat": 37.7327762492197,
    "lng": 127.042733983339,
    "region_1depth": "경기",
    "region_2depth": "의정부시"
  },
  {
    "category": "한식",
    "name": "착한꼬마김밥",
    "main_item": "꼬마김밥",
    "price": "1,000",
    "phone": "",
    "address": "경기도 의정부시 시민로 80 (의정부동) .",
    "lat": 37.7379768684042,
    "lng": 127.044093275039,
    "region_1depth": "경기",
    "region_2depth": "의정부시"
  },
  {
    "category": "중식",
    "name": "착한짜장",
    "main_item": "짜장면",
    "price": "5,000",
    "phone": "031-821-8280",
    "address": "경기도 의정부시 태평로 188 (의정부동)",
    "lat": 37.7485031285367,
    "lng": 127.048084243787,
    "region_1depth": "경기",
    "region_2depth": "의정부시"
  },
  {
    "category": "한식",
    "name": "참멸치국수",
    "main_item": "멸치국수",
    "price": "5,500",
    "phone": "031-874-1207",
    "address": "경기도 의정부시 녹양로 42",
    "lat": 37.7550089018405,
    "lng": 127.03229942685,
    "region_1depth": "경기",
    "region_2depth": "의정부시"
  },
  {
    "category": "일식",
    "name": "청담",
    "main_item": "새우초밥",
    "price": "12,000",
    "phone": "031-826-8500",
    "address": "경기도 의정부시 신흥로 266-2 1층",
    "lat": 37.7397879884057,
    "lng": 127.043388782544,
    "region_1depth": "경기",
    "region_2depth": "의정부시"
  },
  {
    "category": "중식",
    "name": "청우반점",
    "main_item": "짜장면",
    "price": "5,000",
    "phone": "031-841-7618",
    "address": "경기도 의정부시 태평로 185-1 (의정부동)",
    "lat": 37.7481885558948,
    "lng": 127.047972843344,
    "region_1depth": "경기",
    "region_2depth": "의정부시"
  },
  {
    "category": "한식",
    "name": "친구네",
    "main_item": "김치/된장찌개",
    "price": "7,000",
    "phone": "031-829-4566",
    "address": "경기도 의정부시 시민로19번길 22-7 1층",
    "lat": 37.7393490379668,
    "lng": 127.03704561068,
    "region_1depth": "경기",
    "region_2depth": "의정부시"
  },
  {
    "category": "기타요식업",
    "name": "카페미브",
    "main_item": "아메리카노",
    "price": "2,500",
    "phone": "031-848-3526",
    "address": "경기도 의정부시 태평로 73번길 20 신협365코너 앞 특ICT (의정부동, 제일시장)",
    "lat": 37.7401266278419,
    "lng": 127.050067899137,
    "region_1depth": "경기",
    "region_2depth": "의정부시"
  },
  {
    "category": "기타요식업",
    "name": "카페봄날",
    "main_item": "아메리카노",
    "price": "2,500",
    "phone": "0507-1424-5059",
    "address": "경기도 의정부시 호국로1142번길 57 (가능동) .",
    "lat": 37.7406780828575,
    "lng": 127.030686679431,
    "region_1depth": "경기",
    "region_2depth": "의정부시"
  },
  {
    "category": "한식",
    "name": "토담",
    "main_item": "간장불고기",
    "price": "10,000",
    "phone": "031-851-1400",
    "address": "경기도 의정부시 둔야로45번길 51",
    "lat": 37.7398488099772,
    "lng": 127.036744073422,
    "region_1depth": "경기",
    "region_2depth": "의정부시"
  },
  {
    "category": "한식",
    "name": "풍림분식",
    "main_item": "김밥",
    "price": "3,000",
    "phone": "",
    "address": "경기도 의정부시 동일로454번길 40 103호 (신곡동)",
    "lat": 37.7284045714165,
    "lng": 127.061806534365,
    "region_1depth": "경기",
    "region_2depth": "의정부시"
  },
  {
    "category": "한식",
    "name": "하나간장게장",
    "main_item": "간장게장 정식(암게)",
    "price": "25,000",
    "phone": "0507-1395-2002",
    "address": "경기도 의정부시 오목로 229 (민락동) 1층",
    "lat": 37.7466264714957,
    "lng": 127.099826733521,
    "region_1depth": "경기",
    "region_2depth": "의정부시"
  },
  {
    "category": "기타요식업",
    "name": "하모니",
    "main_item": "아메리카노",
    "price": "2,000",
    "phone": "031-848-1048",
    "address": "경기도 의정부시 시민로 157번길 12 (의정부동)",
    "lat": 37.7380640050739,
    "lng": 127.052424470826,
    "region_1depth": "경기",
    "region_2depth": "의정부시"
  },
  {
    "category": "한식",
    "name": "한가네 식당",
    "main_item": "생삼겹살 200g",
    "price": "15,000",
    "phone": "0507-1357-9891",
    "address": "경기도 의정부시 금오로72번길 5 (금오동) .",
    "lat": 37.7553216771224,
    "lng": 127.07352875035,
    "region_1depth": "경기",
    "region_2depth": "의정부시"
  },
  {
    "category": "한식",
    "name": "황금감자탕불백",
    "main_item": "뼈해장국",
    "price": "7,500",
    "phone": "031-875-6919",
    "address": "경기도 의정부시 의정로 149 1층 (가능동)",
    "lat": 37.7462844206696,
    "lng": 127.034388352426,
    "region_1depth": "경기",
    "region_2depth": "의정부시"
  },
  {
    "category": "한식",
    "name": "황금달빛(떡뽀끼뽀끼)",
    "main_item": "떡볶이",
    "price": "3,500",
    "phone": "0507-1436-9787",
    "address": "경기도 의정부시 시민로 391 (용현동) .",
    "lat": 37.7349418959512,
    "lng": 127.077552600589,
    "region_1depth": "경기",
    "region_2depth": "의정부시"
  },
  {
    "category": "한식",
    "name": "황주막",
    "main_item": "양념한돈갈비",
    "price": "9,900",
    "phone": "031-875-1947",
    "address": "경기도 의정부시 회룡로137번길 9 (호원동)",
    "lat": 37.7263894117861,
    "lng": 127.04885399184,
    "region_1depth": "경기",
    "region_2depth": "의정부시"
  },
  {
    "category": "한식",
    "name": "고향맛손칼국수",
    "main_item": "칼국수",
    "price": "6,000",
    "phone": "031-443-1582",
    "address": "경기도 안양시 만안구 안양로 324 (안양동) 1층",
    "lat": 37.4010396410018,
    "lng": 126.920164004315,
    "region_1depth": "경기",
    "region_2depth": "안양시 만안구"
  },
  {
    "category": "한식",
    "name": "곰바우",
    "main_item": "옹심이만",
    "price": "9,000",
    "phone": "031-387-3324",
    "address": "경기도 안양시 동안구 평촌대로 384",
    "lat": 37.4048916419806,
    "lng": 126.950152635364,
    "region_1depth": "경기",
    "region_2depth": "안양시 동안구"
  },
  {
    "category": "중식",
    "name": "깜장콩",
    "main_item": "자장면",
    "price": "6,000",
    "phone": "031-465-5005",
    "address": "경기도 안양시 만안구 안양로329번길 15 (안양동) 1층",
    "lat": 37.4007837853229,
    "lng": 126.918497389455,
    "region_1depth": "경기",
    "region_2depth": "안양시 만안구"
  },
  {
    "category": "한식",
    "name": "남부고기집",
    "main_item": "해장국",
    "price": "2,800",
    "phone": "031-444-6305",
    "address": "경기도 안양시 만안구 장내로150번길 34 (안양동)",
    "lat": 37.3970185508402,
    "lng": 126.925245361165,
    "region_1depth": "경기",
    "region_2depth": "안양시 만안구"
  },
  {
    "category": "한식",
    "name": "다솜이네 반찬",
    "main_item": "반찬 1팩",
    "price": "3,000",
    "phone": "031-444-2967",
    "address": "경기도 안양시 만안구 안양로291번길 35 (안양동) 1층",
    "lat": 37.3973837691538,
    "lng": 126.920063304329,
    "region_1depth": "경기",
    "region_2depth": "안양시 만안구"
  },
  {
    "category": "한식",
    "name": "다온우렁쌈밥",
    "main_item": "우렁제육쌈밥",
    "price": "12,000",
    "phone": "031-441-0040",
    "address": "경기도 안양시 동안구 비산로 18 1동 2층 201호 (비산동)",
    "lat": 37.4001079338864,
    "lng": 126.93331485631,
    "region_1depth": "경기",
    "region_2depth": "안양시 동안구"
  },
  {
    "category": "한식",
    "name": "더착한코다리",
    "main_item": "코다리정식",
    "price": "8,000",
    "phone": "031-424-6527",
    "address": "경기도 안양시 동안구 부림로 152 현우법조빌딩 2층",
    "lat": 37.3968266711388,
    "lng": 126.963409023141,
    "region_1depth": "경기",
    "region_2depth": "안양시 동안구"
  },
  {
    "category": "한식",
    "name": "돈까술 석이네라면돈까스",
    "main_item": "미니돈가스세트",
    "price": "10,000",
    "phone": "0507-1443-9952",
    "address": "경기도 안양시 동안구 흥안대로 457-27 (관양동) 1층 114호",
    "lat": 37.3946033232025,
    "lng": 126.973612071707,
    "region_1depth": "경기",
    "region_2depth": "안양시 동안구"
  },
  {
    "category": "한식",
    "name": "돈모아참삼겹",
    "main_item": "생삼겹(130g)",
    "price": "5,000",
    "phone": "031-466-1647",
    "address": "경기도 안양시 만안구 장내로 138 (안양동)",
    "lat": 37.3975763301049,
    "lng": 126.923070798464,
    "region_1depth": "경기",
    "region_2depth": "안양시 만안구"
  },
  {
    "category": "한식",
    "name": "동아분식",
    "main_item": "김밥",
    "price": "1,500",
    "phone": "031-444-9250",
    "address": "경기도 안양시 만안구 전파로 61 (안양동) 1층",
    "lat": 37.3903678527886,
    "lng": 126.93962558702,
    "region_1depth": "경기",
    "region_2depth": "안양시 만안구"
  },
  {
    "category": "한식",
    "name": "마장동 소머리국밥",
    "main_item": "소머리국밥",
    "price": "7,000",
    "phone": "010-4087-5570",
    "address": "경기도 안양시 만안구 장내로99번길 14 (안양동) 1층",
    "lat": 37.3963770157093,
    "lng": 126.918942828818,
    "region_1depth": "경기",
    "region_2depth": "안양시 만안구"
  },
  {
    "category": "한식",
    "name": "만석",
    "main_item": "김치볶음밥",
    "price": "6,000",
    "phone": "031-382-9695",
    "address": "경기도 안양시 동안구 관평로212번길 15 (관양동) B103호",
    "lat": 37.3961951051642,
    "lng": 126.959684897452,
    "region_1depth": "경기",
    "region_2depth": "안양시 동안구"
  },
  {
    "category": "한식",
    "name": "맛있으면 돼지",
    "main_item": "수제햄부대찌개",
    "price": "9,000",
    "phone": "031-466-6068",
    "address": "경기도 안양시 만안구 덕천로128번길 24 (안양동)",
    "lat": 37.390921078321,
    "lng": 126.93503076772,
    "region_1depth": "경기",
    "region_2depth": "안양시 만안구"
  },
  {
    "category": "한식",
    "name": "멸치국수집",
    "main_item": "멸치국수",
    "price": "4,500",
    "phone": "031-445-0957",
    "address": "경기도 안양시 만안구 병목안로 15 (안양동)",
    "lat": 37.398470525147,
    "lng": 126.918922165474,
    "region_1depth": "경기",
    "region_2depth": "안양시 만안구"
  },
  {
    "category": "한식",
    "name": "명성밥상",
    "main_item": "백반",
    "price": "7,000",
    "phone": "",
    "address": "경기도 안양시 동안구 시민대로 230 (관양동) C동 309호",
    "lat": 37.3923133697778,
    "lng": 126.956516194105,
    "region_1depth": "경기",
    "region_2depth": "안양시 동안구"
  },
  {
    "category": "한식",
    "name": "모모네국수",
    "main_item": "잔치국수",
    "price": "5,500",
    "phone": "0507-1431-0505",
    "address": "경기도 안양시 동안구 평촌대로223번길 52 (호계동) B01호",
    "lat": 37.3907090094879,
    "lng": 126.952759646646,
    "region_1depth": "경기",
    "region_2depth": "안양시 동안구"
  },
  {
    "category": "한식",
    "name": "모이세분식",
    "main_item": "생돈가스(등심)",
    "price": "7,000",
    "phone": "031-346-2340",
    "address": "경기도 안양시 만안구 장내로 141 (안양동) 1층",
    "lat": 37.3980201202989,
    "lng": 126.923127829374,
    "region_1depth": "경기",
    "region_2depth": "안양시 만안구"
  },
  {
    "category": "한식",
    "name": "문턱없는집",
    "main_item": "백반",
    "price": "7,000",
    "phone": "031-429-5023",
    "address": "경기도 안양시 동안구 흥안대로125번길 24 (호계동) 1층",
    "lat": 37.371775106982,
    "lng": 126.958897417708,
    "region_1depth": "경기",
    "region_2depth": "안양시 동안구"
  },
  {
    "category": "한식",
    "name": "부대의전설",
    "main_item": "부대찌개",
    "price": "8,000",
    "phone": "031-477-7787",
    "address": "경기도 안양시 동안구 시민대로 137 (호계동)",
    "lat": 37.3885214985042,
    "lng": 126.94700177402,
    "region_1depth": "경기",
    "region_2depth": "안양시 동안구"
  },
  {
    "category": "기타요식업",
    "name": "블랙빈",
    "main_item": "아메리카노",
    "price": "1,000",
    "phone": "",
    "address": "경기도 안양시 만안구 냉천로 8-1 (안양동)",
    "lat": 37.3825477699808,
    "lng": 126.929508869528,
    "region_1depth": "경기",
    "region_2depth": "안양시 만안구"
  },
  {
    "category": "한식",
    "name": "상상식당",
    "main_item": "김치/된장찌개",
    "price": "4,900",
    "phone": "0507-1426-7252",
    "address": "경기도 안양시 만안구 와룡로28번길 8 (석수동)",
    "lat": 37.4067371331452,
    "lng": 126.898200398182,
    "region_1depth": "경기",
    "region_2depth": "안양시 만안구"
  },
  {
    "category": "한식",
    "name": "설악명품추어탕",
    "main_item": "명품추어탕",
    "price": "9,000",
    "phone": "031-466-0012",
    "address": "경기도 안양시 만안구 장내로 154 (안양동)",
    "lat": 37.3982726311258,
    "lng": 126.92459642439,
    "region_1depth": "경기",
    "region_2depth": "안양시 만안구"
  },
  {
    "category": "한식",
    "name": "순천갈비",
    "main_item": "삼겹살(200g)",
    "price": "13,000",
    "phone": "031-421-8887",
    "address": "경기도 안양시 동안구 관악대로374번길 13 (관양동)",
    "lat": 37.4036526883088,
    "lng": 126.964793116287,
    "region_1depth": "경기",
    "region_2depth": "안양시 동안구"
  },
  {
    "category": "중식",
    "name": "안동장",
    "main_item": "짜장면",
    "price": "6,000",
    "phone": "031-453-1177",
    "address": "경기도 안양시 동안구 경수대로 519번길 32 (호계동)",
    "lat": 37.3688388995046,
    "lng": 126.95604521144,
    "region_1depth": "경기",
    "region_2depth": "안양시 동안구"
  },
  {
    "category": "한식",
    "name": "양파백세탕",
    "main_item": "양파백세탕",
    "price": "9,900",
    "phone": "031-427-7888",
    "address": "경기도 안양시 동안구 동편로20번길 16 (관양동) 1층 109호(관양동)",
    "lat": 37.4054021911873,
    "lng": 126.971818409395,
    "region_1depth": "경기",
    "region_2depth": "안양시 동안구"
  },
  {
    "category": "한식",
    "name": "엄마돈국수",
    "main_item": "잔치국수",
    "price": "5,500",
    "phone": "031-443-1222",
    "address": "경기도 안양시 만안구 냉천로 11 (안양동) 1층",
    "lat": 37.3826812991012,
    "lng": 126.929052462381,
    "region_1depth": "경기",
    "region_2depth": "안양시 만안구"
  },
  {
    "category": "한식",
    "name": "엄마손콩나물국밥",
    "main_item": "오늘의 음식",
    "price": "6,000",
    "phone": "031-442-6900",
    "address": "경기도 안양시 만안구 냉천로193번길 12 (안양동) 2층",
    "lat": 37.397042177474,
    "lng": 126.918851651783,
    "region_1depth": "경기",
    "region_2depth": "안양시 만안구"
  },
  {
    "category": "한식",
    "name": "와우리순대",
    "main_item": "순대국",
    "price": "7,000",
    "phone": "031-448-8292",
    "address": "경기도 안양시 만안구 성결대학로 34-1 (안양동)",
    "lat": 37.3824244045313,
    "lng": 126.930395802091,
    "region_1depth": "경기",
    "region_2depth": "안양시 만안구"
  },
  {
    "category": "한식",
    "name": "용기곱창",
    "main_item": "염통구이(200g)",
    "price": "11,900",
    "phone": "070-7543-6951",
    "address": "경기도 안양시 만안구 관악대로 50 디스퀘어큐브 107호",
    "lat": 37.3965285100571,
    "lng": 126.930301561895,
    "region_1depth": "경기",
    "region_2depth": "안양시 만안구"
  },
  {
    "category": "한식",
    "name": "자매식당",
    "main_item": "백반",
    "price": "6,600",
    "phone": "031-389-0555",
    "address": "경기도 안양시 동안구 시민대로 171 (비산동, 금강벤처텔)",
    "lat": 37.3911396541564,
    "lng": 126.950021827329,
    "region_1depth": "경기",
    "region_2depth": "안양시 동안구"
  },
  {
    "category": "한식",
    "name": "집밥",
    "main_item": "백반",
    "price": "7,000",
    "phone": "031-429-3759",
    "address": "경기도 안양시 동안구 경수대로570번길 61-20 (호계동) 1층",
    "lat": 37.3756843457612,
    "lng": 126.960633986304,
    "region_1depth": "경기",
    "region_2depth": "안양시 동안구"
  },
  {
    "category": "한식",
    "name": "철이네",
    "main_item": "철이세트",
    "price": "6,000",
    "phone": "031-478-4878",
    "address": "경기도 안양시 흥안대로 415 125호(평촌동, 두산벤처다임)",
    "lat": 37.3916395332505,
    "lng": 126.972961523948,
    "region_1depth": "경기",
    "region_2depth": "안양시 동안구"
  },
  {
    "category": "한식",
    "name": "초가집",
    "main_item": "추어탕",
    "price": "9,000",
    "phone": "031-385-2446",
    "address": "경기도 안양시 동안구 평촌대로127번길 82 (호계동)",
    "lat": 37.3811332300177,
    "lng": 126.958862502327,
    "region_1depth": "경기",
    "region_2depth": "안양시 동안구"
  },
  {
    "category": "한식",
    "name": "톰과제리",
    "main_item": "김치찌개",
    "price": "7,000",
    "phone": "031-465-1515",
    "address": "경기도 안양시 만안구 양화로37번길 23 (안양동)",
    "lat": 37.3965552787276,
    "lng": 126.912429282537,
    "region_1depth": "경기",
    "region_2depth": "안양시 만안구"
  },
  {
    "category": "기타요식업",
    "name": "팥선생",
    "main_item": "단팥죽",
    "price": "6,000",
    "phone": "031-384-8945",
    "address": "경기도 안양시 동안구 동안로 263 (비산동)",
    "lat": 37.4007317512042,
    "lng": 126.945138810128,
    "region_1depth": "경기",
    "region_2depth": "안양시 동안구"
  },
  {
    "category": "중식",
    "name": "팬더",
    "main_item": "자장면",
    "price": "6,000",
    "phone": "031-442-3332",
    "address": "경기도 안양시 만안구 양화로115번길 13 (박달동) 1층",
    "lat": 37.4029714913716,
    "lng": 126.909374710889,
    "region_1depth": "경기",
    "region_2depth": "안양시 만안구"
  },
  {
    "category": "한식",
    "name": "풍년식당",
    "main_item": "백반",
    "price": "7,000",
    "phone": "031-464-3131",
    "address": "경기도 안양시 만안구 안양로360번길 7 (안양동) 1층",
    "lat": 37.4038068427558,
    "lng": 126.917907592562,
    "region_1depth": "경기",
    "region_2depth": "안양시 만안구"
  },
  {
    "category": "한식",
    "name": "햇빛 김밥 찰밥",
    "main_item": "원조김밥",
    "price": "2,000",
    "phone": "031-447-0244",
    "address": "경기도 안양시 만안구 박달로525번길 27 (박달동) 1층",
    "lat": 37.4037521681971,
    "lng": 126.910481984819,
    "region_1depth": "경기",
    "region_2depth": "안양시 만안구"
  },
  {
    "category": "한식",
    "name": "형제식당",
    "main_item": "백반",
    "price": "7,000",
    "phone": "031-471-4119",
    "address": "경기도 안양시 만안구 석천로181번길 14 (석수동)",
    "lat": 37.4132872927615,
    "lng": 126.908704410475,
    "region_1depth": "경기",
    "region_2depth": "안양시 만안구"
  },
  {
    "category": "한식",
    "name": "호남식당",
    "main_item": "백반",
    "price": "6,000",
    "phone": "031-468-9696",
    "address": "경기도 안양시 만안구 덕천로 33 (안양동) 103호",
    "lat": 37.3839766266296,
    "lng": 126.93619696264,
    "region_1depth": "경기",
    "region_2depth": "안양시 만안구"
  },
  {
    "category": "한식",
    "name": "홍두깨손칼국수",
    "main_item": "칼국수",
    "price": "5,000",
    "phone": "",
    "address": "경기도 안양시 만안구 양화로 132-7 (박달동) 1층",
    "lat": 37.4045648322578,
    "lng": 126.909933117004,
    "region_1depth": "경기",
    "region_2depth": "안양시 만안구"
  },
  {
    "category": "중식",
    "name": "홍보석",
    "main_item": "짜장면",
    "price": "6,000",
    "phone": "031-443-8485",
    "address": "경기도 안양시 만안구 안양로 358 (안양동)",
    "lat": 37.4033526872034,
    "lng": 126.917978113413,
    "region_1depth": "경기",
    "region_2depth": "안양시 만안구"
  },
  {
    "category": "한식",
    "name": "흥부네식당",
    "main_item": "청국장",
    "price": "6,000",
    "phone": "031-442-1916",
    "address": "경기도 안양시 만안구 장내로89번길 9 (안양동) 1층",
    "lat": 37.3956315588605,
    "lng": 126.918097992319,
    "region_1depth": "경기",
    "region_2depth": "안양시 만안구"
  },
  {
    "category": "한식",
    "name": "8개월냉면",
    "main_item": "냉면",
    "price": "5,500",
    "phone": "0507-1412-8980",
    "address": "경기도 부천시 원미구 역곡로26번길 25 (역곡동)",
    "lat": 37.4880262237422,
    "lng": 126.811898636761,
    "region_1depth": "경기",
    "region_2depth": "부천시 원미구"
  },
  {
    "category": "중식",
    "name": "고수탕수",
    "main_item": "짜장면",
    "price": "5,000",
    "phone": "032-321-8700",
    "address": "경기도 부천시 원미구 부일로199번길 56 (상동)",
    "lat": 37.4908719369581,
    "lng": 126.752245117101,
    "region_1depth": "경기",
    "region_2depth": "부천시 원미구"
  },
  {
    "category": "한식",
    "name": "고향마을",
    "main_item": "김치찌개",
    "price": "8,000",
    "phone": "032-341-6630",
    "address": "경기도 부천시 원미구 상동로117번길 61 (상동)",
    "lat": 37.507823194026,
    "lng": 126.750081690965,
    "region_1depth": "경기",
    "region_2depth": "부천시 원미구"
  },
  {
    "category": "양식",
    "name": "그냥",
    "main_item": "쉬림프갈릭페뇨(파스타)",
    "price": "7,900",
    "phone": "0507-1403-7395",
    "address": "경기도 부천시 원미구 송내대로74번길 34 (상동)",
    "lat": 37.4897609752192,
    "lng": 126.755957384565,
    "region_1depth": "경기",
    "region_2depth": "부천시 원미구"
  },
  {
    "category": "한식",
    "name": "도래샘",
    "main_item": "청국장정식",
    "price": "7,500",
    "phone": "032-611-0140",
    "address": "경기도 부천시 원미구 원미로 166 (원미동)",
    "lat": 37.4973354667759,
    "lng": 126.792348037122,
    "region_1depth": "경기",
    "region_2depth": "부천시 원미구"
  },
  {
    "category": "기타요식업",
    "name": "로스터리카페 체리콩",
    "main_item": "아메리카노",
    "price": "2,500",
    "phone": "",
    "address": "경기도 부천시 소사구 호현로489번나길 3 (소사본동)",
    "lat": 37.4806263058721,
    "lng": 126.792348156262,
    "region_1depth": "경기",
    "region_2depth": "부천시 소사구"
  },
  {
    "category": "양식",
    "name": "리틀시칠리",
    "main_item": "뽀모도로(파스타)",
    "price": "6,500",
    "phone": "070-8810-9934",
    "address": "경기도 부천시 원미구 길주로 80 (상동)",
    "lat": 37.5053249117144,
    "lng": 126.751200183115,
    "region_1depth": "경기",
    "region_2depth": "부천시 원미구"
  },
  {
    "category": "중식",
    "name": "만경",
    "main_item": "짜장면",
    "price": "5,000",
    "phone": "032-652-7733",
    "address": "경기도 부천시 원미구 원미로 196 (원미동)",
    "lat": 37.4999256566472,
    "lng": 126.793313545755,
    "region_1depth": "경기",
    "region_2depth": "부천시 원미구"
  },
  {
    "category": "한식",
    "name": "맛나식당",
    "main_item": "설렁탕",
    "price": "7,000",
    "phone": "032-651-1233",
    "address": "경기도 부천시 원미구 석천로38번길 56 (상동)",
    "lat": 37.4903680382477,
    "lng": 126.763381486479,
    "region_1depth": "경기",
    "region_2depth": "부천시 원미구"
  },
  {
    "category": "한식",
    "name": "모란손칼국수",
    "main_item": "바지락칼국수",
    "price": "6,000",
    "phone": "032-656-1054",
    "address": "경기도 부천시 소사구 자유로 31-9 (심곡본동)",
    "lat": 37.4841554424246,
    "lng": 126.779701168291,
    "region_1depth": "경기",
    "region_2depth": "부천시 소사구"
  },
  {
    "category": "한식",
    "name": "밥보다국수",
    "main_item": "잔치국수",
    "price": "3,000",
    "phone": "032-612-6292",
    "address": "경기도 부천시 소사구 자유로 39 (심곡본동)",
    "lat": 37.4837428255073,
    "lng": 126.78049948731,
    "region_1depth": "경기",
    "region_2depth": "부천시 소사구"
  },
  {
    "category": "한식",
    "name": "밥집",
    "main_item": "김치찌개",
    "price": "7,000",
    "phone": "032-623-0066",
    "address": "경기도 부천시 원미구 부천로198번길 18 (춘의동)",
    "lat": 37.501604775917,
    "lng": 126.787578214335,
    "region_1depth": "경기",
    "region_2depth": "부천시 원미구"
  },
  {
    "category": "중식",
    "name": "베이징",
    "main_item": "짜장면",
    "price": "5,000",
    "phone": "032-684-1114",
    "address": "경기도 부천시 오정구 소사로862번길 106 (원종동)",
    "lat": 37.528125826257,
    "lng": 126.806700493392,
    "region_1depth": "경기",
    "region_2depth": "부천시 오정구"
  },
  {
    "category": "중식",
    "name": "본토반점",
    "main_item": "짜장면",
    "price": "4,000",
    "phone": "0507-1418-0689",
    "address": "경기도 부천시 원미구 부천로3번길 48 (심곡동)",
    "lat": 37.4853817615312,
    "lng": 126.780308131242,
    "region_1depth": "경기",
    "region_2depth": "부천시 원미구"
  },
  {
    "category": "중식",
    "name": "상일루",
    "main_item": "짜장면",
    "price": "4,500",
    "phone": "032-612-2727",
    "address": "경기도 부천시 원미구 부일로483번길 10 (심곡동)",
    "lat": 37.4861411340636,
    "lng": 126.784073689654,
    "region_1depth": "경기",
    "region_2depth": "부천시 원미구"
  },
  {
    "category": "한식",
    "name": "생선구이밥이랑국이랑",
    "main_item": "순두부",
    "price": "7,000",
    "phone": "032-684-8055",
    "address": "경기도 부천시 오정구 신흥로 361-22 (내동)",
    "lat": 37.5155174192475,
    "lng": 126.774117498116,
    "region_1depth": "경기",
    "region_2depth": "부천시 오정구"
  },
  {
    "category": "한식",
    "name": "성심순대국",
    "main_item": "순대국",
    "price": "7,000",
    "phone": "",
    "address": "경기도 부천시 소사구 호현로489번나길 1 (소사본동)",
    "lat": 37.4807660571205,
    "lng": 126.79240226466,
    "region_1depth": "경기",
    "region_2depth": "부천시 소사구"
  },
  {
    "category": "한식",
    "name": "소사수제갈비",
    "main_item": "돼지갈비(국내산 300g)",
    "price": "14,000",
    "phone": "070-7379-0663",
    "address": "경기도 부천시 소사구 소사로160번길 32 (소사본동)",
    "lat": 37.4724016024699,
    "lng": 126.797312119554,
    "region_1depth": "경기",
    "region_2depth": "부천시 소사구"
  },
  {
    "category": "한식",
    "name": "소사정육식당",
    "main_item": "소불고기전골",
    "price": "10,000",
    "phone": "032-343-5151",
    "address": "경기도 부천시 소사구 소사로 202 (소사본동)",
    "lat": 37.476148077596,
    "lng": 126.795789572445,
    "region_1depth": "경기",
    "region_2depth": "부천시 소사구"
  },
  {
    "category": "한식",
    "name": "송원숯불",
    "main_item": "갈비탕",
    "price": "8,000",
    "phone": "032-655-4852",
    "address": "경기도 부천시 원미구 부천로10번길 44 (심곡동)",
    "lat": 37.4847359505638,
    "lng": 126.785373927017,
    "region_1depth": "경기",
    "region_2depth": "부천시 원미구"
  },
  {
    "category": "일식",
    "name": "쇼샤돈부리",
    "main_item": "가츠동",
    "price": "7,000",
    "phone": "0507-1345-8070",
    "address": "경기도 부천시 원미구 부일로 698 (역곡동)",
    "lat": 37.4844036037543,
    "lng": 126.807515672667,
    "region_1depth": "경기",
    "region_2depth": "부천시 원미구"
  },
  {
    "category": "한식",
    "name": "신포갈비",
    "main_item": "신포돼지갈비(250g)",
    "price": "17,000",
    "phone": "032-326-8616",
    "address": "경기도 부천시 원미구 부일로199번길 56 (상동)",
    "lat": 37.4908719369581,
    "lng": 126.752245117101,
    "region_1depth": "경기",
    "region_2depth": "부천시 원미구"
  },
  {
    "category": "중식",
    "name": "아리산",
    "main_item": "짜장면",
    "price": "5,000",
    "phone": "032-324-0133",
    "address": "경기도 부천시 원미구 석천로178번길 27 (중동)",
    "lat": 37.5031778410397,
    "lng": 126.764438418855,
    "region_1depth": "경기",
    "region_2depth": "부천시 원미구"
  },
  {
    "category": "중식",
    "name": "오앤김",
    "main_item": "짜장면",
    "price": "5,000",
    "phone": "032-657-7642",
    "address": "경기도 부천시 소사구 송내대로 14 (송내동, 송내역 파인 푸르지오 2단지)",
    "lat": 37.4845112278741,
    "lng": 126.75355258773,
    "region_1depth": "경기",
    "region_2depth": "부천시 소사구"
  },
  {
    "category": "기타요식업",
    "name": "이포",
    "main_item": "양지쌀국수",
    "price": "8,000",
    "phone": "0507-1324-3490",
    "address": "경기도 부천시 원미구 부일로445번길 32 (심곡동)",
    "lat": 37.4877297164919,
    "lng": 126.779594449269,
    "region_1depth": "경기",
    "region_2depth": "부천시 원미구"
  },
  {
    "category": "기타요식업",
    "name": "장터통큰치킨",
    "main_item": "후라이드치킨",
    "price": "9,900",
    "phone": "032-666-8999",
    "address": "경기도 부천시 소사구 경인로 209-1 (심곡본동)",
    "lat": 37.4836225814119,
    "lng": 126.778830099404,
    "region_1depth": "경기",
    "region_2depth": "부천시 소사구"
  },
  {
    "category": "한식",
    "name": "전주식당",
    "main_item": "김치찌개",
    "price": "8,000",
    "phone": "032-665-7233",
    "address": "경기도 부천시 원미구 부일로356번길 8 (중동)",
    "lat": 37.4875472713889,
    "lng": 126.769264062211,
    "region_1depth": "경기",
    "region_2depth": "부천시 원미구"
  },
  {
    "category": "중식",
    "name": "짜우탕",
    "main_item": "짜장면",
    "price": "3,500",
    "phone": "032-327-6650",
    "address": "경기도 부천시 원미구 소향로 246 (중동)",
    "lat": 37.5002724037849,
    "lng": 126.775133853403,
    "region_1depth": "경기",
    "region_2depth": "부천시 원미구"
  },
  {
    "category": "중식",
    "name": "짜장이좋아",
    "main_item": "짜장면",
    "price": "4,000",
    "phone": "032-672-2701",
    "address": "경기도 부천시 오정구 역곡로 491 (고강동)",
    "lat": 37.5285705239987,
    "lng": 126.815637837894,
    "region_1depth": "경기",
    "region_2depth": "부천시 오정구"
  },
  {
    "category": "중식",
    "name": "창현장",
    "main_item": "짜장면",
    "price": "6,000",
    "phone": "032-652-6571",
    "address": "경기도 부천시 원미구 부일로342번길 9 (중동)",
    "lat": 37.4875476259721,
    "lng": 126.768248347866,
    "region_1depth": "경기",
    "region_2depth": "부천시 원미구"
  },
  {
    "category": "한식",
    "name": "천하제일용천추어탕",
    "main_item": "추어탕",
    "price": "7,000",
    "phone": "032-661-5889",
    "address": "경기도 부천시 원미구 부일로 336 (중동)",
    "lat": 37.4879134447005,
    "lng": 126.767428243382,
    "region_1depth": "경기",
    "region_2depth": "부천시 원미구"
  },
  {
    "category": "기타요식업",
    "name": "하나도너츠",
    "main_item": "슈크림필드",
    "price": "1,000",
    "phone": "",
    "address": "경기도 부천시 오정구 원종로 7 (원종동)",
    "lat": 37.5242879950014,
    "lng": 126.800886211615,
    "region_1depth": "경기",
    "region_2depth": "부천시 오정구"
  },
  {
    "category": "한식",
    "name": "한식인생",
    "main_item": "김치찌개",
    "price": "8,000",
    "phone": "0507-1394-7331",
    "address": "경기도 부천시 원미구 중동로248번길 33 (중동)",
    "lat": 37.5017588541873,
    "lng": 126.770853498627,
    "region_1depth": "경기",
    "region_2depth": "부천시 원미구"
  },
  {
    "category": "한식",
    "name": "행복한밥상",
    "main_item": "순두부",
    "price": "7,000",
    "phone": "032-653-7272",
    "address": "경기도 부천시 원미구 장말로279번길 6-2 (심곡동)",
    "lat": 37.4916821527102,
    "lng": 126.773258673598,
    "region_1depth": "경기",
    "region_2depth": "부천시 원미구"
  },
  {
    "category": "일식",
    "name": "형아네",
    "main_item": "모듬초밥",
    "price": "9,900",
    "phone": "0507-1380-2662",
    "address": "경기도 부천시 원미구 상동로 113 (상동)",
    "lat": 37.5074497229108,
    "lng": 126.753034974307,
    "region_1depth": "경기",
    "region_2depth": "부천시 원미구"
  },
  {
    "category": "중식",
    "name": "혜영반점",
    "main_item": "짜장면",
    "price": "6,000",
    "phone": "032-342-1566",
    "address": "경기도 부천시 소사구 경인로484번길 11 (괴안동)",
    "lat": 37.4828599352377,
    "lng": 126.809701760604,
    "region_1depth": "경기",
    "region_2depth": "부천시 소사구"
  },
  {
    "category": "한식",
    "name": "호원냉면&수제돈가스",
    "main_item": "물냉면",
    "price": "6,000",
    "phone": "032-351-9982",
    "address": "경기도 부천시 소사구 소사로 217 (소사본동)",
    "lat": 37.477767431783,
    "lng": 126.795356910224,
    "region_1depth": "경기",
    "region_2depth": "부천시 소사구"
  },
  {
    "category": "한식",
    "name": "홍두깨손칼국수",
    "main_item": "잔치국수",
    "price": "3,500",
    "phone": "032-342-2558",
    "address": "경기도 부천시 원미구 역곡로20번길 32 (역곡동)",
    "lat": 37.4873766643968,
    "lng": 126.812564101941,
    "region_1depth": "경기",
    "region_2depth": "부천시 원미구"
  },
  {
    "category": "한식",
    "name": "홍두깨칼국수",
    "main_item": "잔치국수",
    "price": "3,000",
    "phone": "032-674-4195",
    "address": "경기도 부천시 오정구 성지로102번길 28 (고강동)",
    "lat": 37.5280629742527,
    "lng": 126.812820860307,
    "region_1depth": "경기",
    "region_2depth": "부천시 오정구"
  },
  {
    "category": "한식",
    "name": "홍천식당",
    "main_item": "청국장",
    "price": "7,000",
    "phone": "032-349-1122",
    "address": "경기도 부천시 원미구 지봉로34번길 22 (역곡동)",
    "lat": 37.485270601517,
    "lng": 126.806112771285,
    "region_1depth": "경기",
    "region_2depth": "부천시 원미구"
  },
  {
    "category": "한식",
    "name": "효성식당",
    "main_item": "육개장",
    "price": "8,000",
    "phone": "032-655-2732",
    "address": "경기도 부천시 원미구 신흥로67번길 60 (심곡동)",
    "lat": 37.4903786324002,
    "lng": 126.774228160293,
    "region_1depth": "경기",
    "region_2depth": "부천시 원미구"
  },
  {
    "category": "한식",
    "name": "고기나라순대국",
    "main_item": "순대국",
    "price": "8,000",
    "phone": "02-268-7300",
    "address": "경기도 광명시 오리로 992 광명리더스빌딩 2층 206호, 207호(광명동)",
    "lat": 37.4800263276287,
    "lng": 126.853272423386,
    "region_1depth": "경기",
    "region_2depth": "광명시"
  },
  {
    "category": "한식",
    "name": "광명도담돈가스",
    "main_item": "치즈2장+치킨6개",
    "price": "12,000",
    "phone": "02-2066-7772",
    "address": "경기도 광명시 새터로 45-1 (광명동) 1층",
    "lat": 37.4722992862257,
    "lng": 126.853936423564,
    "region_1depth": "경기",
    "region_2depth": "광명시"
  },
  {
    "category": "한식",
    "name": "국시가",
    "main_item": "진주국수",
    "price": "3,000",
    "phone": "02-268-1310",
    "address": "경기도 광명시 광화로 14-7 1층 (광명동)",
    "lat": 37.4734134484558,
    "lng": 126.849676926103,
    "region_1depth": "경기",
    "region_2depth": "광명시"
  },
  {
    "category": "한식",
    "name": "김밥짱",
    "main_item": "참치김밥",
    "price": "4,000",
    "phone": "",
    "address": "경기도 광명시 광명로 837 B동 104호(광명동)",
    "lat": 37.4740969171462,
    "lng": 126.850856482571,
    "region_1depth": "경기",
    "region_2depth": "광명시"
  },
  {
    "category": "한식",
    "name": "대박집",
    "main_item": "생삼겹",
    "price": "15,000",
    "phone": "02-897-8833",
    "address": "경기도 광명시 기아로 19 (소하동)",
    "lat": 37.436573654297,
    "lng": 126.881875182536,
    "region_1depth": "경기",
    "region_2depth": "광명시"
  },
  {
    "category": "한식",
    "name": "돈미정숯불갈비",
    "main_item": "생삼겹살",
    "price": "15,000",
    "phone": "02-268-9220",
    "address": "경기도 광명시 광복로 70 (철산동)",
    "lat": 37.4900479183147,
    "lng": 126.866131220222,
    "region_1depth": "경기",
    "region_2depth": "광명시"
  },
  {
    "category": "한식",
    "name": "마을회관",
    "main_item": "생삼겹살",
    "price": "15,000",
    "phone": "02-898-2351",
    "address": "경기도 광명시 충현로 4번길 10 동곡빌딩 C동 201호 (소하동)",
    "lat": 37.4352678680242,
    "lng": 126.880317943918,
    "region_1depth": "경기",
    "region_2depth": "광명시"
  },
  {
    "category": "중식",
    "name": "명품짜장",
    "main_item": "짜장면",
    "price": "3,000",
    "phone": "",
    "address": "경기도 광명시 오리로964번길 14 1층(광명동)",
    "lat": 37.4800047739998,
    "lng": 126.856632703533,
    "region_1depth": "경기",
    "region_2depth": "광명시"
  },
  {
    "category": "한식",
    "name": "민들레영토",
    "main_item": "즉석떡볶이",
    "price": "4,500",
    "phone": "",
    "address": "경기도 광명시 광명로 837 B동 112호 (광명동)",
    "lat": 37.4740969171462,
    "lng": 126.850856482571,
    "region_1depth": "경기",
    "region_2depth": "광명시"
  },
  {
    "category": "한식",
    "name": "상상초월",
    "main_item": "돼지갈비",
    "price": "9,000",
    "phone": "02-898-2500",
    "address": "경기도 광명시 영당로 14 (소하동)",
    "lat": 37.434963008076,
    "lng": 126.878068540049,
    "region_1depth": "경기",
    "region_2depth": "광명시"
  },
  {
    "category": "한식",
    "name": "수목원정",
    "main_item": "닭갈비",
    "price": "12,000",
    "phone": "",
    "address": "경기도 광명시 광명로 837 B동 110호 (광명동)",
    "lat": 37.4740969171462,
    "lng": 126.850856482571,
    "region_1depth": "경기",
    "region_2depth": "광명시"
  },
  {
    "category": "한식",
    "name": "옛날뚱보냉면",
    "main_item": "비빔냉면",
    "price": "7,000",
    "phone": "02-261-9056",
    "address": "경기도 광명시 오리로 966 1층(광명동)",
    "lat": 37.4794353205076,
    "lng": 126.856100607454,
    "region_1depth": "경기",
    "region_2depth": "광명시"
  },
  {
    "category": "한식",
    "name": "오늘은 소갈비살",
    "main_item": "소갈비살200G",
    "price": "15,000",
    "phone": "02-899-7588",
    "address": "경기도 광명시 일직로 72 광명무역센터 A동 211호(일직동)",
    "lat": 37.4200359072339,
    "lng": 126.88918699963,
    "region_1depth": "경기",
    "region_2depth": "광명시"
  },
  {
    "category": "한식",
    "name": "우리식당",
    "main_item": "청국장",
    "price": "8,000",
    "phone": "02-897-7012",
    "address": "경기도 광명시 충현로 1 (소하동)",
    "lat": 37.4361707680511,
    "lng": 126.880488595199,
    "region_1depth": "경기",
    "region_2depth": "광명시"
  },
  {
    "category": "한식",
    "name": "우리할매순대국",
    "main_item": "순대국",
    "price": "8,000",
    "phone": "02-206-8698",
    "address": "경기도 광명시 광이로 1 (광명동)",
    "lat": 37.4788772307674,
    "lng": 126.857509019743,
    "region_1depth": "경기",
    "region_2depth": "광명시"
  },
  {
    "category": "한식",
    "name": "월매식당",
    "main_item": "김치두루치기",
    "price": "8,000",
    "phone": "",
    "address": "경기도 광명시 광명로 837 B동 109호 (광명동)",
    "lat": 37.4740969171462,
    "lng": 126.850856482571,
    "region_1depth": "경기",
    "region_2depth": "광명시"
  },
  {
    "category": "한식",
    "name": "장수분식",
    "main_item": "칼국수",
    "price": "8,000",
    "phone": "02-830-8802",
    "address": "경기도 광명시 광명로 837 A동 102호(광명동)",
    "lat": 37.4740969171462,
    "lng": 126.850856482571,
    "region_1depth": "경기",
    "region_2depth": "광명시"
  },
  {
    "category": "한식",
    "name": "장터추어탕",
    "main_item": "추어탕",
    "price": "9,000",
    "phone": "02-262-1824",
    "address": "경기도 광명시 광명로 837 A동 105호(광명동)",
    "lat": 37.4740969171462,
    "lng": 126.850856482571,
    "region_1depth": "경기",
    "region_2depth": "광명시"
  },
  {
    "category": "한식",
    "name": "주영김밥",
    "main_item": "원조김밥",
    "price": "3,000",
    "phone": "",
    "address": "경기도 광명시 하안로 320-21 1층 108호(하안동, 하안주공10단지 종합상가)",
    "lat": 37.4649273437406,
    "lng": 126.880507945917,
    "region_1depth": "경기",
    "region_2depth": "광명시"
  },
  {
    "category": "중식",
    "name": "짬뽕클럽",
    "main_item": "짜장면",
    "price": "5,000",
    "phone": "02-899-2355",
    "address": "경기도 광명시 영우로 14 라이프 다B01호(소하동)",
    "lat": 37.4327150769969,
    "lng": 126.877732204864,
    "region_1depth": "경기",
    "region_2depth": "광명시"
  },
  {
    "category": "한식",
    "name": "태양식당",
    "main_item": "삼계탕",
    "price": "15,000",
    "phone": "",
    "address": "경기도 광명시 광명로 837 A동 1호(광명동)",
    "lat": 37.4740969171462,
    "lng": 126.850856482571,
    "region_1depth": "경기",
    "region_2depth": "광명시"
  },
  {
    "category": "한식",
    "name": "펭귄떡볶이",
    "main_item": "떡볶이",
    "price": "2,000",
    "phone": "",
    "address": "경기도 광명시 광명로 924-1 (광명동) 1층",
    "lat": 37.4811983044488,
    "lng": 126.85556798722,
    "region_1depth": "경기",
    "region_2depth": "광명시"
  },
  {
    "category": "기타요식업",
    "name": "풀하우스",
    "main_item": "아메리카노",
    "price": "2,500",
    "phone": "02-2614-2833",
    "address": "경기도 광명시 시청로 139 (철산동, 우성아파트) 상가 205호",
    "lat": 37.4878996126735,
    "lng": 126.868345823925,
    "region_1depth": "경기",
    "region_2depth": "광명시"
  },
  {
    "category": "중식",
    "name": "한돈짜장면",
    "main_item": "짜장면",
    "price": "6,000",
    "phone": "02-262-1824",
    "address": "경기도 광명시 광명로 837 B동 113호 (광명동)",
    "lat": 37.4740969171462,
    "lng": 126.850856482571,
    "region_1depth": "경기",
    "region_2depth": "광명시"
  },
  {
    "category": "한식",
    "name": "해주냉면",
    "main_item": "물냉면",
    "price": "7,500",
    "phone": "02-261-8377",
    "address": "경기도 광명시 광이로 13번길 21 1층(광명동)",
    "lat": 37.4802155254306,
    "lng": 126.855896621382,
    "region_1depth": "경기",
    "region_2depth": "광명시"
  },
  {
    "category": "한식",
    "name": "국수집",
    "main_item": "잔치국수",
    "price": "7,000",
    "phone": "031-684-1102",
    "address": "경기도 평택시 포승읍 평택항만길 8",
    "lat": 36.9615242131362,
    "lng": 126.853621400054,
    "region_1depth": "경기",
    "region_2depth": "평택시"
  },
  {
    "category": "기타요식업",
    "name": "레인코트카페",
    "main_item": "아메리카노",
    "price": "2,000",
    "phone": "031-662-7974",
    "address": "경기도 평택시 정암로 10 103호(서정동)",
    "lat": 37.0567386431822,
    "lng": 127.054773657757,
    "region_1depth": "경기",
    "region_2depth": "평택시"
  },
  {
    "category": "한식",
    "name": "먹자분식",
    "main_item": "비빔밥",
    "price": "7,000",
    "phone": "031-662-3155",
    "address": "경기도 평택시 중앙시장로9번길 22-2 먹자분식",
    "lat": 37.0803210163193,
    "lng": 127.052241077307,
    "region_1depth": "경기",
    "region_2depth": "평택시"
  },
  {
    "category": "한식",
    "name": "선지해장국&전주돌솥콩나물",
    "main_item": "콩나물국밥",
    "price": "7,000",
    "phone": "031-616-1881",
    "address": "경기도 평택시 평택5로 83 (비전동)",
    "lat": 36.9932986102993,
    "lng": 127.111662502881,
    "region_1depth": "경기",
    "region_2depth": "평택시"
  },
  {
    "category": "한식",
    "name": "세모분식",
    "main_item": "콩나물국밥",
    "price": "7,000",
    "phone": "031-666-0414",
    "address": "경기도 평택시 중앙시장로9번길 22-4 세모분식",
    "lat": 37.0802086439471,
    "lng": 127.052261356015,
    "region_1depth": "경기",
    "region_2depth": "평택시"
  },
  {
    "category": "중식",
    "name": "소락천",
    "main_item": "자장면",
    "price": "6,000",
    "phone": "031-653-4539",
    "address": "경기도 평택시 평택로 89",
    "lat": 36.9945006190773,
    "lng": 127.083924064708,
    "region_1depth": "경기",
    "region_2depth": "평택시"
  },
  {
    "category": "기타요식업",
    "name": "송탄카페",
    "main_item": "아메리카노",
    "price": "2,000",
    "phone": "031-611-8471",
    "address": "경기도 평택시 탄현로346번길 38 (지산동) 송탄카페",
    "lat": 37.081456283557,
    "lng": 127.056732354273,
    "region_1depth": "경기",
    "region_2depth": "평택시"
  },
  {
    "category": "한식",
    "name": "영광굴비백반",
    "main_item": "굴비백반",
    "price": "6,000",
    "phone": "031-654-1170",
    "address": "경기도 평택시 무지개공원2길 40-1",
    "lat": 36.9932677893406,
    "lng": 127.11109044874,
    "region_1depth": "경기",
    "region_2depth": "평택시"
  },
  {
    "category": "한식",
    "name": "옛날손칼국수두부전골",
    "main_item": "손칼국수",
    "price": "6,000",
    "phone": "031-664-4600",
    "address": "경기도 평택시 특구로5번길 75",
    "lat": 37.0665818709701,
    "lng": 127.059096631278,
    "region_1depth": "경기",
    "region_2depth": "평택시"
  },
  {
    "category": "기타요식업",
    "name": "오커피랩&우유마루",
    "main_item": "아메리카노",
    "price": "2,000",
    "phone": "",
    "address": "경기도 평택시 중앙로 211 1층(비전동)",
    "lat": 36.9911151847952,
    "lng": 127.106476663741,
    "region_1depth": "경기",
    "region_2depth": "평택시"
  },
  {
    "category": "양식",
    "name": "일월식당",
    "main_item": "부채살 후무스 스테이크",
    "price": "16,000",
    "phone": "070-8871-9678",
    "address": "경기도 평택시 서정로 302 (서정동) 일월식당",
    "lat": 37.0649685895611,
    "lng": 127.066583919496,
    "region_1depth": "경기",
    "region_2depth": "평택시"
  },
  {
    "category": "한식",
    "name": "쫑아분식",
    "main_item": "돌솥비빔밥",
    "price": "6,000",
    "phone": "031-611-8289",
    "address": "경기도 평택시 송탄로 420 (지산동)",
    "lat": 37.0810450105059,
    "lng": 127.058086567573,
    "region_1depth": "경기",
    "region_2depth": "평택시"
  },
  {
    "category": "한식",
    "name": "최쉐프하우스",
    "main_item": "순대국밥",
    "price": "8,000",
    "phone": "",
    "address": "경기도 평택시 평택5로20번길 8 (합정동) 102호",
    "lat": 36.9877984079138,
    "lng": 127.11241525248,
    "region_1depth": "경기",
    "region_2depth": "평택시"
  },
  {
    "category": "한식",
    "name": "풍성갈비본점",
    "main_item": "생삼겹(200g)",
    "price": "13,000",
    "phone": "",
    "address": "경기도 평택시 평남로 663 (비전동) 1층",
    "lat": 36.9929798360895,
    "lng": 127.108127209244,
    "region_1depth": "경기",
    "region_2depth": "평택시"
  },
  {
    "category": "한식",
    "name": "가보자칼수만",
    "main_item": "칼국수",
    "price": "6,000",
    "phone": "031-862-8971",
    "address": "경기도 동두천시 생연로9번길 25-16",
    "lat": 37.8929127441985,
    "lng": 127.047631860948,
    "region_1depth": "경기",
    "region_2depth": "동두천시"
  },
  {
    "category": "한식",
    "name": "거북이삼겹살",
    "main_item": "돼지갈비(300g)",
    "price": "19,000",
    "phone": "031-864-3229",
    "address": "경기도 동두천시 생연로 175 1층(생연동)",
    "lat": 37.9081378355425,
    "lng": 127.052644521638,
    "region_1depth": "경기",
    "region_2depth": "동두천시"
  },
  {
    "category": "한식",
    "name": "못골장원순두부",
    "main_item": "순두부",
    "price": "8,000",
    "phone": "031-862-4565",
    "address": "경기도 동두천시 장고갯로 150 (생연동)",
    "lat": 37.908219698881,
    "lng": 127.065782128525,
    "region_1depth": "경기",
    "region_2depth": "동두천시"
  },
  {
    "category": "한식",
    "name": "보해보쌈족발",
    "main_item": "족발(단품)",
    "price": "19,900",
    "phone": "031-862-4501",
    "address": "경기도 동두천시 평화로 2394-2 (생연동) 1층",
    "lat": 37.9014542035761,
    "lng": 127.058150853959,
    "region_1depth": "경기",
    "region_2depth": "동두천시"
  },
  {
    "category": "한식",
    "name": "생연골",
    "main_item": "버섯불고기",
    "price": "12,000",
    "phone": "031-861-4601",
    "address": "경기도 동두천시 생연로 124-1 (생연동)",
    "lat": 37.9036274438425,
    "lng": 127.051413641144,
    "region_1depth": "경기",
    "region_2depth": "동두천시"
  },
  {
    "category": "한식",
    "name": "서울칼국수",
    "main_item": "칼국수",
    "price": "6,000",
    "phone": "031-868-2268",
    "address": "경기도 동두천시 중앙로 349 1층",
    "lat": 37.9125590116746,
    "lng": 127.055630955791,
    "region_1depth": "경기",
    "region_2depth": "동두천시"
  },
  {
    "category": "한식",
    "name": "성연김밥",
    "main_item": "꼬마김밥",
    "price": "4,500",
    "phone": "031-859-0987",
    "address": "경기도 동두천시 동광로 150 (보산동) 1층",
    "lat": 37.913432435975,
    "lng": 127.060461055793,
    "region_1depth": "경기",
    "region_2depth": "동두천시"
  },
  {
    "category": "한식",
    "name": "소요산명품한우축산물판매장",
    "main_item": "제육정식",
    "price": "12,000",
    "phone": "031-866-8820",
    "address": "경기도 동두천시 평화로2910번길 1 (상봉암동)",
    "lat": 37.946534596343,
    "lng": 127.061850686727,
    "region_1depth": "경기",
    "region_2depth": "동두천시"
  },
  {
    "category": "한식",
    "name": "소요산순대국추어탕",
    "main_item": "추어탕",
    "price": "9,000",
    "phone": "031-866-4465",
    "address": "경기도 동두천시 평화로 2914-8 (상봉암동) 1층",
    "lat": 37.9465498331164,
    "lng": 127.062001104207,
    "region_1depth": "경기",
    "region_2depth": "동두천시"
  },
  {
    "category": "한식",
    "name": "시장바지락칼국수",
    "main_item": "칼국수",
    "price": "7,000",
    "phone": "",
    "address": "경기도 동두천시 큰시장로 59-5 (생연동) 시장바지락칼국수",
    "lat": 37.9001885994265,
    "lng": 127.051067422513,
    "region_1depth": "경기",
    "region_2depth": "동두천시"
  },
  {
    "category": "한식",
    "name": "어수정국수집",
    "main_item": "잔치국수",
    "price": "5,000",
    "phone": "031-866-6005",
    "address": "경기도 동두천시 생연로 31 1층(지행동)",
    "lat": 37.8955878929446,
    "lng": 127.048585073916,
    "region_1depth": "경기",
    "region_2depth": "동두천시"
  },
  {
    "category": "한식",
    "name": "우리칼국수",
    "main_item": "바지락칼국수",
    "price": "7,000",
    "phone": "",
    "address": "경기도 동두천시 중앙로298번길 6-9 (생연동) 우리칼국수",
    "lat": 37.9078272128553,
    "lng": 127.054960137208,
    "region_1depth": "경기",
    "region_2depth": "동두천시"
  },
  {
    "category": "한식",
    "name": "원터식당",
    "main_item": "부대찌개",
    "price": "9,000",
    "phone": "031-867-6456",
    "address": "경기도 동두천시 생연로 173-1 (생연동)",
    "lat": 37.9079772210528,
    "lng": 127.052591417797,
    "region_1depth": "경기",
    "region_2depth": "동두천시"
  },
  {
    "category": "한식",
    "name": "유성연김밥",
    "main_item": "김밥",
    "price": "3,000",
    "phone": "031-864-0987",
    "address": "경기도 동두천시 동광로 150 1층(보산동)",
    "lat": 37.913432435975,
    "lng": 127.060461055793,
    "region_1depth": "경기",
    "region_2depth": "동두천시"
  },
  {
    "category": "한식",
    "name": "충남칼국수",
    "main_item": "칼국수",
    "price": "7,000",
    "phone": "031-867-8863",
    "address": "경기도 동두천시 정장로 17 (생연동)",
    "lat": 37.9046642738071,
    "lng": 127.052785430281,
    "region_1depth": "경기",
    "region_2depth": "동두천시"
  },
  {
    "category": "중식",
    "name": "태화관",
    "main_item": "짜장면",
    "price": "4,000",
    "phone": "031-865-2353",
    "address": "경기도 동두천시 생연로 171 (생연동)",
    "lat": 37.9078051844941,
    "lng": 127.052493617682,
    "region_1depth": "경기",
    "region_2depth": "동두천시"
  },
  {
    "category": "한식",
    "name": "털보네",
    "main_item": "부대찌개",
    "price": "9,000",
    "phone": "",
    "address": "경기도 동두천시 중앙로 432 (생연동)",
    "lat": 37.9138220658648,
    "lng": 127.064583730389,
    "region_1depth": "경기",
    "region_2depth": "동두천시"
  },
  {
    "category": "한식",
    "name": "통큰부대찌개",
    "main_item": "부대찌개",
    "price": "9,000",
    "phone": "031-868-4270",
    "address": "경기도 동두천시 생연로 39-60 (지행동)",
    "lat": 37.8964139535641,
    "lng": 127.047965533188,
    "region_1depth": "경기",
    "region_2depth": "동두천시"
  },
  {
    "category": "한식",
    "name": "향미식당",
    "main_item": "칼국수",
    "price": "8,000",
    "phone": "031-867-6579",
    "address": "경기도 동두천시 생연로 104 (생연동)",
    "lat": 37.9017809836039,
    "lng": 127.050732648208,
    "region_1depth": "경기",
    "region_2depth": "동두천시"
  },
  {
    "category": "한식",
    "name": "형제불고기",
    "main_item": "돼지불고기",
    "price": "12,000",
    "phone": "031-865-2021",
    "address": "경기도 동두천시 정장로 12-18 (생연동)",
    "lat": 37.9039768924583,
    "lng": 127.051682455502,
    "region_1depth": "경기",
    "region_2depth": "동두천시"
  },
  {
    "category": "한식",
    "name": "333냉삼겹조림전문",
    "main_item": "냉동삼겹살(200g)",
    "price": "15,000",
    "phone": "031-418-2767",
    "address": "경기도 안산시 상록구 석호로 211 (사동) 1층 103호",
    "lat": 37.2946510534495,
    "lng": 126.85446082071,
    "region_1depth": "경기",
    "region_2depth": "안산시 상록구"
  },
  {
    "category": "한식",
    "name": "강원도청국장",
    "main_item": "청국장",
    "price": "7,000",
    "phone": "031-405-0227",
    "address": "경기도 안산시 단원구 광덕대로 146 일번지프라자 125호(고잔동)",
    "lat": 37.3094302796125,
    "lng": 126.830679089431,
    "region_1depth": "경기",
    "region_2depth": "안산시 단원구"
  },
  {
    "category": "한식",
    "name": "고기애진심",
    "main_item": "소양념갈비(300g)",
    "price": "19,900",
    "phone": "031-501-9333",
    "address": "경기도 안산시 상록구 석호로 187 (사동) 1층",
    "lat": 37.2961633610581,
    "lng": 126.852285130044,
    "region_1depth": "경기",
    "region_2depth": "안산시 상록구"
  },
  {
    "category": "한식",
    "name": "구포멸치국수",
    "main_item": "멸치국수",
    "price": "5,500",
    "phone": "031-502-7779",
    "address": "경기도 안산시 상록구 본삼로 44 (본오동) 1층",
    "lat": 37.30070090488,
    "lng": 126.864892318037,
    "region_1depth": "경기",
    "region_2depth": "안산시 상록구"
  },
  {
    "category": "중식",
    "name": "국빈중화요리",
    "main_item": "짜장",
    "price": "4,000",
    "phone": "031-484-7506",
    "address": "경기도 안산시 상록구 예술광장1로 7 지하(월피동)",
    "lat": 37.3287847148483,
    "lng": 126.843356388667,
    "region_1depth": "경기",
    "region_2depth": "안산시 상록구"
  },
  {
    "category": "한식",
    "name": "김밥생각",
    "main_item": "우리집 김밥",
    "price": "2,500",
    "phone": "031-414-7044",
    "address": "경기도 안산시 단원구 선부광장1로 38 (선부동) 105호(상록타운)",
    "lat": 37.3366614543468,
    "lng": 126.809413555316,
    "region_1depth": "경기",
    "region_2depth": "안산시 단원구"
  },
  {
    "category": "기타요식업",
    "name": "김여사찬방",
    "main_item": "열무김치 1kg",
    "price": "10,000",
    "phone": "031-415-1123",
    "address": "경기도 안산시 상록구 석호로 204 (사동, 엘리지움) 1층 105호",
    "lat": 37.2947080627178,
    "lng": 126.853344512538,
    "region_1depth": "경기",
    "region_2depth": "안산시 상록구"
  },
  {
    "category": "한식",
    "name": "꽃빛공원휴게소 음식점",
    "main_item": "잔치국수",
    "price": "6,000",
    "phone": "031-403-6360",
    "address": "경기도 안산시 단원구 순환로 390 A동 (와동)",
    "lat": 37.3426049235782,
    "lng": 126.8336714162,
    "region_1depth": "경기",
    "region_2depth": "안산시 단원구"
  },
  {
    "category": "한식",
    "name": "남도목포맛집",
    "main_item": "청국장",
    "price": "9,000",
    "phone": "031-418-2728",
    "address": "경기도 안산시 상록구 선진4길 39 (사동)",
    "lat": 37.2802381119759,
    "lng": 126.851605644959,
    "region_1depth": "경기",
    "region_2depth": "안산시 상록구"
  },
  {
    "category": "한식",
    "name": "남도한식부페",
    "main_item": "뷔페성인",
    "price": "7,000",
    "phone": "031-501-5959",
    "address": "경기도 안산시 상록구 광덕3로 324 1층(이동)",
    "lat": 37.3113016330863,
    "lng": 126.848842564326,
    "region_1depth": "경기",
    "region_2depth": "안산시 상록구"
  },
  {
    "category": "한식",
    "name": "낭만쏘맥X가성비 최고의 치킨집",
    "main_item": "옛날통닭(포장)",
    "price": "8,900",
    "phone": "031-410-2728",
    "address": "경기도 안산시 상록구 광덕산안길 14 (월피동) 101호, 112호",
    "lat": 37.3348782086149,
    "lng": 126.844381991056,
    "region_1depth": "경기",
    "region_2depth": "안산시 상록구"
  },
  {
    "category": "한식",
    "name": "네오빌김밥",
    "main_item": "야채김밥",
    "price": "2,300",
    "phone": "031-411-0027",
    "address": "경기도 안산시 단원구 광덕동로 78 104호(고잔동)",
    "lat": 37.3098319651472,
    "lng": 126.83334826025,
    "region_1depth": "경기",
    "region_2depth": "안산시 단원구"
  },
  {
    "category": "한식",
    "name": "다빈",
    "main_item": "순두부찌개",
    "price": "7,000",
    "phone": "031-413-8818",
    "address": "경기도 안산시 단원구 화랑로 402 지하106호(고잔동)",
    "lat": 37.3207552346417,
    "lng": 126.832421355757,
    "region_1depth": "경기",
    "region_2depth": "안산시 단원구"
  },
  {
    "category": "한식",
    "name": "다원밥상",
    "main_item": "제육볶음",
    "price": "8,000",
    "phone": "031-495-1217",
    "address": "경기도 안산시 단원구 동산로 60 (원시동) 114호",
    "lat": 37.3128745163497,
    "lng": 126.796915097295,
    "region_1depth": "경기",
    "region_2depth": "안산시 단원구"
  },
  {
    "category": "한식",
    "name": "대박식당",
    "main_item": "돈까스",
    "price": "9,000",
    "phone": "031-407-8488",
    "address": "경기도 안산시 상록구 영화5길 12 1층(사동)",
    "lat": 37.2795580042355,
    "lng": 126.850599930676,
    "region_1depth": "경기",
    "region_2depth": "안산시 상록구"
  },
  {
    "category": "한식",
    "name": "더치킨",
    "main_item": "크리스피치킨(뼈)",
    "price": "14,900",
    "phone": "031-437-8777",
    "address": "경기도 안산시 상록구 학사2길 10 (사동) 1층",
    "lat": 37.299837165756,
    "lng": 126.839225649126,
    "region_1depth": "경기",
    "region_2depth": "안산시 상록구"
  },
  {
    "category": "한식",
    "name": "덕이네냉면&국밥",
    "main_item": "칡물냉면",
    "price": "8,000",
    "phone": "031-406-3418",
    "address": "경기도 안산시 상록구 네고지2길 42-1 (사동) 1층",
    "lat": 37.2948091794792,
    "lng": 126.852274131325,
    "region_1depth": "경기",
    "region_2depth": "안산시 상록구"
  },
  {
    "category": "일식",
    "name": "도도동",
    "main_item": "연어덮밥",
    "price": "12,800",
    "phone": "0507-1443-8849",
    "address": "경기도 안산시 상록구 예술광장로 1 (월피동) 3층 378호",
    "lat": 37.3283614945831,
    "lng": 126.844239273087,
    "region_1depth": "경기",
    "region_2depth": "안산시 상록구"
  },
  {
    "category": "한식",
    "name": "드럼통 삼겹살",
    "main_item": "삼겹살 (180g)",
    "price": "11,800",
    "phone": "031-482-8640",
    "address": "경기도 안산시 단원구 와동로 23 1층(와동)",
    "lat": 37.332918175069,
    "lng": 126.827658169717,
    "region_1depth": "경기",
    "region_2depth": "안산시 단원구"
  },
  {
    "category": "한식",
    "name": "드레푸드",
    "main_item": "한식뷔페",
    "price": "8,000",
    "phone": "031-402-7122",
    "address": "경기도 안산시 단원구 광덕서로 68 (고잔동) B102호",
    "lat": 37.3108350210703,
    "lng": 126.827455566866,
    "region_1depth": "경기",
    "region_2depth": "안산시 단원구"
  },
  {
    "category": "기타요식업",
    "name": "떼드떼(카페.유)",
    "main_item": "아메리카노",
    "price": "3,300",
    "phone": "031-411-4882",
    "address": "경기도 안산시 단원구 선삼로1길 2 (선부동) 1층",
    "lat": 37.3452043708156,
    "lng": 126.814393783817,
    "region_1depth": "경기",
    "region_2depth": "안산시 단원구"
  },
  {
    "category": "양식",
    "name": "라냐",
    "main_item": "라냐 클래식 미트로프",
    "price": "11,000",
    "phone": "0507-1358-9839",
    "address": "경기도 안산시 상록구 예술광장로 1 333호(월피동, 다농마트)",
    "lat": 37.3283614945831,
    "lng": 126.844239273087,
    "region_1depth": "경기",
    "region_2depth": "안산시 상록구"
  },
  {
    "category": "한식",
    "name": "랭삼집",
    "main_item": "삼겹살(180g)",
    "price": "9,900",
    "phone": "031-403-2728",
    "address": "경기도 안산시 상록구 광덕산안길 14 (월피동) 103호",
    "lat": 37.3348782086149,
    "lng": 126.844381991056,
    "region_1depth": "경기",
    "region_2depth": "안산시 상록구"
  },